%time,field.linear.x,field.linear.y,field.linear.z,field.angular.x,field.angular.y,field.angular.z
1666090005764615341,0.0,0.0,0.0,0.0,0.0,0.0
1666090005784558766,0.0,0.0,0.0,0.0,0.0,0.0
1666090005804608515,0.0,0.0,0.0,0.0,0.0,0.0
1666090005824594670,0.0,0.0,0.0,0.0,0.0,0.0
1666090005844548704,0.0,0.0,0.0,0.0,0.0,0.0
1666090005864546463,0.0,0.0,0.0,0.0,0.0,0.0
1666090005884516932,0.0,0.0,0.0,0.0,0.0,0.0
1666090005905507178,0.0,0.0,0.0,0.0,0.0,0.0
1666090005924529262,0.0,0.0,0.0,0.0,0.0,0.0
1666090005968048847,0.0,0.0,0.0,0.0,0.0,0.0
1666090005968057405,0.0,0.0,0.0,0.0,0.0,0.0
1666090006012047590,0.0,0.0,0.0,0.0,0.0,0.0
1666090006012060344,0.0,0.0,0.0,0.0,0.0,0.0
1666090006056046195,0.0,0.0,0.0,0.0,0.0,0.0
1666090006056053515,0.0,0.0,0.0,0.0,0.0,0.0
1666090006100034980,0.0,0.0,0.0,0.0,0.0,0.0
1666090006100050804,0.0,0.0,0.0,0.0,0.0,0.0
1666090006144059553,0.0,0.0,0.0,0.0,0.0,0.0
1666090006144070550,0.0,0.0,0.0,0.0,0.0,0.0
1666090006188052438,0.0,0.0,0.0,0.0,0.0,0.0
1666090006188077045,0.006396906625013799,0.0,0.0,0.0,0.0,0.0
1666090006188084435,0.012793813250027599,0.0,0.0,0.0,0.0,0.0
1666090006236025937,0.010661511041689664,0.0,0.0,0.0,0.0,0.0
1666090006236037575,0.0,0.0,0.0,0.0,0.0,0.0
1666090006244306984,0.0,0.0,0.0,0.0,0.0,0.0
1666090006264308494,0.0,0.0,0.0,0.0,0.0,0.0
1666090006308031416,0.0,0.0,0.0,0.0,0.0,0.0
1666090006308041290,0.0,0.0,0.0,0.0,0.0,0.0
1666090006352030375,0.0,0.0,0.0,0.0,0.0,0.0
1666090006352039100,0.0,0.0,0.0,0.0,0.0,0.0
1666090006396033058,-0.004264604416675866,0.0,0.0,0.0,0.0,0.0
1666090006396049062,-0.008529208833351731,0.0,0.0,0.0,0.0,-0.0024434609527920616
1666090006440031752,-0.006396906625013799,0.0,0.0,0.0,0.0,-0.0005235987755982988
1666090006440041108,-0.006396906625013799,0.0,0.0,0.0,0.0,0.0010471975511965976
1666090006484027684,0.0,0.0,0.0,0.0,0.0,0.0
1666090006484041168,0.0,0.0,0.0,0.0,0.0,0.0
1666090006528029184,0.0,0.0,0.0,0.0,0.0,0.0
1666090006528038439,0.0,0.0,0.0,0.0,0.0,0.0
1666090006528042480,0.0,0.0,0.0,0.0,0.0,0.0
1666090006572055389,0.0,0.0,0.0,0.0,0.0,0.0
1666090006572065566,0.0,0.0,0.0,0.0,0.0,0.0
1666090006584194409,0.0,0.0,0.0,0.0,0.0,0.0
1666090006604136948,0.0,0.0,0.0,0.0,0.0,0.0
1666090006648021934,0.0,0.0,0.0,0.0,0.0,0.0
1666090006648033070,0.0,0.0,0.0,0.0,0.0,0.0
1666090006692040498,0.0,0.0,0.0,0.0,0.0,0.0
1666090006692051166,0.0,0.0,0.0,0.0,0.0,0.0
1666090006736081557,0.0,0.0,0.0,0.0,0.0,0.0
1666090006736091586,0.0,0.0,0.0,0.0,0.0,0.0
1666090006780032515,0.0,0.0,0.0,0.0,0.0,0.0
1666090006780040848,0.0,0.0,0.0,0.0,0.0,0.0
1666090006828030484,0.0,0.0,0.0,0.0,0.0,0.0
1666090006828045021,0.0,0.0,0.0,0.0,0.0,0.0
1666090006828050632,0.0,0.0,0.0,0.0,0.0,0.0
1666090006872032286,0.0,0.0,0.0,0.0,0.0,0.0
1666090006872041129,0.0,0.0,0.0,0.0,0.0,0.0
1666090006885113577,0.0,0.0,0.0,0.0,0.0,0.0
1666090006904069790,0.0,0.0,0.0,0.0,0.0,0.0
1666090006948021301,0.0,0.0,0.0,0.0,0.0,0.0
1666090006948029745,0.0,0.0,0.0,0.0,0.0,0.0
1666090006992023097,0.0,0.0,0.0,0.0,0.0,0.0
1666090006992031004,0.0,0.0,0.0,0.0,0.0,0.0
1666090007036025984,0.0,0.0,0.0,0.0,0.0,0.0
1666090007036036302,0.0,0.0,0.0,0.0,0.0,0.0
1666090007080024665,0.0,0.0,0.0,0.0,0.0,0.0
1666090007080032302,0.0,0.0,0.0,0.0,0.0,0.0
1666090007124026109,0.0,0.0,0.0,0.0,0.0,0.0
1666090007124034966,0.0,0.0,0.0,0.0,0.0,0.0
1666090007168088744,0.0,0.0,0.0,0.0,0.0,0.0
1666090007168099633,0.0,0.0,0.0,0.0,0.0,0.0
1666090007168103078,0.0,0.0,0.0,0.0,0.0,0.0
1666090007216057853,0.0,0.0,0.0,0.0,0.0,0.0
1666090007216068346,0.0,0.0,0.0,0.0,0.0,0.0
1666090007224955839,0.0,0.0,0.0,0.0,0.0,0.0
1666090007245153290,0.0,0.0,0.0,0.0,0.0,0.0
1666090007288050312,0.0,0.0,0.0,0.0,0.0,0.0
1666090007288063202,0.0,0.0,0.0,0.0,0.0,0.0
1666090007336044006,0.0,0.0,0.0,0.0,0.0,0.0
1666090007336056424,0.0,0.0,0.0,0.0,0.0,0.0
1666090007380040434,0.0,0.0,0.0,0.0,0.0,0.0
1666090007380051818,0.0,0.0,0.0,0.0,0.0,0.0
1666090007424043863,0.0,0.0,0.0,0.0,0.0,0.0
1666090007424053938,0.0,0.0,0.0,0.0,0.0,0.0
1666090007468047255,0.0,0.0,0.0,0.0,0.0,0.0
1666090007468059115,0.0,0.0,0.0,0.0,0.0,0.0
1666090007468065975,0.0,0.0,0.0,0.0,0.0,0.0
1666090007516095638,0.0,0.0,0.0,0.0,0.0,0.0
1666090007516105087,0.0,0.0,0.0,0.0,0.0,0.0
1666090007524895450,0.0,0.0,0.0,0.0,0.0,0.0
1666090007544905721,0.0,0.0,0.0,0.0,0.0,0.0
1666090007588064095,0.0,0.0,0.0,0.0,0.0,0.0
1666090007588076364,0.0,0.0,0.0,0.0,0.0,0.0
1666090007636061026,0.0,0.0,0.0,0.0,0.0,0.0
1666090007636072465,0.0,0.0,0.0,0.0,0.0,0.0
1666090007680060213,0.0,0.0,0.0,0.0,0.0,0.0
1666090007680098259,0.0,0.0,0.0,0.0,0.0,0.0
1666090007724050941,0.0,0.0,0.0,0.0,0.0,0.0
1666090007724062718,0.0,0.0,0.0,0.0,0.0,0.0
1666090007768059246,0.0,0.0,0.0,0.0,0.0,0.0
1666090007768070376,0.0,0.0,0.0,0.0,0.0,0.0
1666090007768077684,0.0,0.0,0.0,0.0,0.0,0.0
1666090007812074063,0.0,0.0,0.0,0.0,0.0,0.0
1666090007812085316,0.0,0.0,0.0,0.0,0.0,0.0
1666090007824866472,0.0,0.0,0.0,0.0,0.0,0.0
1666090007844763823,0.0,0.0,0.0,0.0,0.0,0.0
1666090007888045675,0.0,0.0,0.0,0.0,0.0,0.0
1666090007888055341,0.0,0.0,0.0,0.0,0.0,0.0
1666090007932048913,0.0,0.0,0.0,0.0,0.0,0.0
1666090007932059883,0.0,0.0,0.0,0.0,0.0,0.0
1666090007976045829,0.0,0.0,0.0,0.0,0.0,0.0
1666090007976058259,0.0,0.0,0.0,0.0,0.0,0.0
1666090008024136834,0.0,0.0,0.0,0.0,0.0,0.0
1666090008024153749,0.0,0.0,0.0,0.0,0.0,0.0
1666090008068060866,0.0,0.0,0.0,0.0,0.0,0.0
1666090008068072515,0.0,0.0,0.0,0.0,0.0,0.0
1666090008068079773,0.0,0.0,0.0,0.0,0.0,0.0
1666090008112050775,0.0,0.0,0.0,0.0,0.0,0.0
1666090008112061485,0.0,0.0,0.0,0.0,0.0,0.0
1666090008125580863,0.0,0.0,0.0,0.0,0.0,0.0
1666090008145602950,0.0,0.0,0.0,0.0,0.0,0.0
1666090008188035422,0.0,0.0,0.0,0.0,0.0,0.0
1666090008188044645,0.0,0.0,0.0,0.0,0.0,0.0
1666090008232494044,0.0,0.0,0.0,0.0,0.0,0.0
1666090008232645916,0.0,0.0,0.0,0.0,0.0,0.0
1666090008280452460,0.0,0.0,0.0,0.0,0.0,0.0
1666090008280502245,0.0,0.0,0.0,0.0,0.0,0.0
1666090008324069265,0.0,0.0,0.0,0.0,0.0,0.0
1666090008324083664,0.0,0.0,0.0,0.0,0.0,0.0
1666090008368163082,0.0,0.0,0.0,0.0,0.0,0.0
1666090008368197056,0.0,0.0,0.0,0.0,0.0,0.0
1666090008368205090,0.0,0.0,0.0,0.0,0.0,0.0
1666090008416089963,0.0,0.0,0.0,0.0,0.0,0.0
1666090008416107028,0.0,0.0,0.0,0.0,0.0,0.0
1666090008425612928,0.0,0.0,0.0,0.0,0.0,0.0
1666090008445564397,0.0,0.0,0.0,0.0,0.0,0.0
1666090008488061838,0.0,0.0,0.0,0.0,0.0,0.0
1666090008488069827,0.0,0.0,0.0,0.0,0.0,0.0
1666090008532149988,0.0,0.0,0.0,0.0,0.0,0.0
1666090008532178158,0.0,0.0,0.0,0.0,0.0,0.0
1666090008580237199,0.0,0.0,0.0,0.0,0.0,0.0
1666090008580252321,0.0,0.0,0.0,0.0,0.0,0.0
1666090008624406534,0.0,0.0,0.0,0.0,0.0,0.0
1666090008624454445,0.0,0.0,0.0,0.0,0.0,0.0
1666090008668118889,0.0,0.0,0.0,0.0,0.0,0.0
1666090008668149840,0.0,0.0,0.0,0.0,0.0,0.0
1666090008668166367,0.0,0.0,0.0,0.0,0.0,0.0
1666090008712097091,0.0,0.0,0.0,0.0,0.0,0.0
1666090008712129087,0.0,0.0,0.0,0.0,0.0,0.0
1666090008725579788,0.0,0.0,0.0,0.0,0.0,0.0
1666090008745528239,0.0,0.0,0.0,0.0,0.0,0.0
1666090008792065859,0.0,0.0,0.0,0.0,0.0,0.0
1666090008792077398,0.0,0.0,0.0,0.0,0.0,0.0
1666090008836044395,0.0,0.0,0.0,0.0,0.0,0.0
1666090008836056259,0.0,0.0,0.0,0.0,0.0,0.0
1666090008880047959,0.0,0.0,0.0,0.0,0.0,0.0
1666090008880057702,0.0,0.0,0.0,0.0,0.0,0.0
1666090008924152954,0.0,0.0,0.0,0.0,0.0,0.0
1666090008924175613,0.0,0.0,0.0,0.0,0.0,0.0
1666090008968234019,0.0,0.0,0.0,0.0,0.0,0.0
1666090008968267085,0.0,0.0,0.0,0.0,0.0,0.0
1666090008968288265,0.0,0.0,0.0,0.0,0.0,0.0
1666090009016052526,0.0,0.0,0.0,0.0,0.0,0.0
1666090009016063867,0.0,0.0,0.0,0.0,0.0,0.0
1666090009026399570,0.0,0.0,0.0,0.0,0.0,0.0
1666090009045322838,0.0,0.0,0.0,0.0,0.0,0.0
1666090009088054883,0.0,0.0,0.0,0.0,0.0,0.0
1666090009088064878,0.0,0.0,0.0,0.0,0.0,0.0
1666090009132052488,0.0,0.0,0.0,0.0,0.0,0.0
1666090009132064734,0.0,0.0,0.0,0.0,0.0,0.0
1666090009176066596,0.0,0.0,0.0,0.0,0.0,0.0
1666090009176079155,0.0,0.0,0.0,0.0,0.0,0.0
1666090009220059524,0.0,0.0,0.0,0.0,0.0,0.0
1666090009220072224,0.0,0.0,0.0,0.0,0.0,0.0
1666090009264051035,0.0,0.0,0.0,0.0,0.0,0.0
1666090009264063685,0.0,0.0,0.0,0.0,0.0,0.0
1666090009308045512,0.0,0.0,0.0,0.0,0.0,0.0
1666090009308061170,0.0,0.0,0.0,0.0,0.0,0.0
1666090009308068039,0.0,0.0,0.0,0.0,0.0,0.0
1666090009352056494,0.0,0.0,0.0,0.0,0.0,0.0
1666090009352071665,0.0,0.0,0.0,0.0,0.0,0.0
1666090009366217715,0.0,0.0,0.0,0.0,0.0,0.0
1666090009386087536,0.0,0.0,0.0,0.0,0.0,0.0
1666090009428116470,0.0,0.0,0.0,0.0,0.0,0.0
1666090009428129990,0.0,0.0,0.0,0.0,0.0,0.0
1666090009472115165,0.0,0.0,0.0,0.0,0.0,0.0
1666090009472127205,0.0,0.0,0.0,0.0,0.0,0.0
1666090009516059937,0.0,0.0,0.0,0.0,0.0,0.0
1666090009516072168,0.0,0.0,0.0,0.0,0.0,0.0
1666090009560059615,0.0,0.0,0.0,0.0,0.0,0.0
1666090009560071458,0.0,0.0,0.0,0.0,0.0,0.0
1666090009604099031,0.0,0.0,0.0,0.0,0.0,0.0
1666090009604110394,0.0,0.0,0.0,0.0,0.0,0.0
1666090009648097269,0.0,0.0,0.0,0.0,0.0,0.0
1666090009648114674,0.0,0.0,0.0,0.0,0.0,0.0
1666090009648123911,0.0,0.0,0.0,0.0,0.0,0.0
1666090009692102574,0.0,0.0,0.0,0.0,0.0,0.0
1666090009692123391,0.0,0.0,0.0,0.0,0.0,0.0
1666090009706306307,0.0,0.0,0.0,0.0,0.0,0.0
1666090009727246045,0.0,0.0,0.0,0.0,0.0,0.0
1666090009768067045,0.0,0.0,0.0,0.0,0.0,0.0
1666090009768082808,0.0,0.0,0.0,0.0,0.0,0.0
1666090009812060714,0.0,0.0,0.0,0.0,0.0,0.0
1666090009812075302,0.0,0.0,0.0,0.0,0.0,0.0
1666090009856144888,0.0,0.0,0.0,0.0,0.0,0.0
1666090009856172293,0.0,0.0,0.0,0.0,0.0,0.0
1666090009900278014,0.0,0.0,0.0,0.0,0.0,0.0
1666090009900304401,0.0,0.0,0.0,0.0,0.0,0.0
1666090009948069213,0.0,0.0,0.0,0.0,0.0,0.0
1666090009948082554,0.0,0.0,0.0,0.0,0.0,0.0
1666090009948090748,0.0,0.0,0.0,0.0,0.0,0.0
1666090009992077776,0.0,0.0,0.0,0.0,0.0,0.0
1666090009992094819,0.0,0.0,0.0,0.0,0.0,0.0
1666090010006082394,0.0,0.0,0.0,0.0,0.0,0.0
1666090010027035301,0.0,0.0,0.0,0.0,0.0,0.0
1666090010072066515,0.0,0.0,0.0,0.0,0.0,0.0
1666090010072120794,0.0,0.0,0.0,0.0,0.0,0.0
1666090010116119015,0.0,0.0,0.0,0.0,0.0,0.0
1666090010116140282,0.0,0.0,0.0,0.0,0.0,0.0
1666090010160100975,0.0,0.0,0.0,0.0,0.0,0.0
1666090010160127252,0.0,0.0,0.0,0.0,0.0,0.0
1666090010204121927,0.0,0.0,0.0,0.0,0.0,0.0
1666090010204144910,0.0,0.0,0.0,0.0,0.0,0.0
1666090010248054575,0.0,0.0,0.0,0.0,0.0,0.0
1666090010248070293,0.0,0.0,0.0,0.0,0.0,0.0
1666090010248090659,0.0,0.0,0.0,0.0,0.0,0.0
1666090010292054959,0.0,0.0,0.0,0.0,0.0,0.0
1666090010292068324,0.0,0.0,0.0,0.0,0.0,0.0
1666090010306031853,0.0,0.0,0.0,0.0,0.0,0.0
1666090010326323624,0.0,0.0,0.0,0.0,0.0,0.0
1666090010368123369,0.0,0.0,0.0,0.0,0.0,0.0
1666090010368145785,0.0,0.0,0.0,0.0,0.0,0.0
1666090010412075646,0.0,0.0,0.0,0.0,0.0,0.0
1666090010412089812,0.0,0.0,0.0,0.0,0.0,0.0
1666090010460111521,0.0,0.0,0.0,0.0,0.0,0.0
1666090010460130733,0.0,0.0,0.0,0.0,0.0,0.0
1666090010504147350,0.0,0.0,0.0,0.0,0.0,0.0
1666090010504162534,0.0,0.0,0.0,0.0,0.0,0.0
1666090010548067668,0.0,0.0,0.0,0.0,0.0,0.0
1666090010548081736,0.0,0.0,0.0,0.0,0.0,0.0
1666090010548086192,0.0,0.0,0.0,0.0,0.0,0.0
1666090010592103550,0.0,0.0,0.0,0.0,0.0,0.0
1666090010592121487,0.0,0.0,0.0,0.0,0.0,0.0
1666090010606910025,0.0,0.0,0.0,0.0,0.0,0.0
1666090010626734305,0.0,0.0,0.0,0.0,0.0,0.0
1666090010668137557,0.0,0.0,0.0,0.0,0.0,0.0
1666090010668161185,0.0,0.0,0.0,0.0,0.0,0.0
1666090010712058726,0.0,0.0,0.0,0.0,0.0,0.0
1666090010712071488,0.0,0.0,0.0,0.0,0.0,0.0
1666090010756161963,0.0,0.0,0.0,0.0,0.0,0.0
1666090010756185671,0.0,0.0,0.0,0.0,0.0,0.0
1666090010800134419,0.0,0.0,0.0,0.0,0.0,0.0
1666090010800151449,0.0,0.0,0.0,0.0,0.0,0.0
1666090010863266724,0.0,0.0,0.0,0.0,0.0,0.0
1666090010863304261,0.0,0.0,0.0,0.0,0.0,0.0
1666090010863315155,0.0,0.0,0.0,0.0,0.0,0.0
1666090010904528000,0.0,0.0,0.0,0.0,0.0,0.0
1666090010904575233,0.0,0.0,0.0,0.0,0.0,0.0
1666090010906691938,0.0,0.0,0.0,0.0,0.0,0.0
1666090010926930351,0.0,0.0,0.0,0.0,0.0,0.0
1666090010972107935,0.0,0.0,0.0,0.0,0.0,0.0
1666090010972145810,0.0,0.0,0.0,0.0,0.0,0.0
1666090011020071424,0.0,0.0,0.0,0.0,0.0,0.0
1666090011020087530,0.0,0.0,0.0,0.0,0.0,0.0
1666090011064255869,0.0,0.0,0.0,0.0,0.0,0.0
1666090011064276500,0.0,0.0,0.0,0.0,0.0,0.0
1666090011112135278,0.0,0.0,0.0,0.0,0.0,0.0
1666090011112155458,0.0,0.0,0.0,0.0,0.0,0.0
1666090011112163185,0.0,0.0,0.0,0.0,0.0,0.0
1666090011156154480,0.0,0.0,0.0,0.0,0.0,0.0
1666090011156176369,0.0,0.0,0.0,0.0,0.0,0.0
1666090011167631520,0.0,0.0,0.0,0.0,0.0,0.0
1666090011186797932,0.0,0.0,0.0,0.0,0.0,0.0
1666090011228050246,0.0,0.0,0.0,0.0,0.0,0.0
1666090011228062088,0.0,0.0,0.0,0.0,0.0,0.0
1666090011272139894,0.0,0.0,0.0,0.0,0.0,0.0
1666090011272181687,0.0,0.0,0.0,0.0,0.0,0.0
1666090011316090586,0.0,0.0,0.0,0.0,0.0,0.0
1666090011316107526,0.0,0.0,0.0,0.0,0.0,0.0
1666090011360119703,0.0,0.0,0.0,0.0,0.0,0.0
1666090011360139153,0.0,0.0,0.0,0.0,0.0,0.0
1666090011404141745,0.0,0.0,0.0,0.0,0.0,0.0
1666090011404168255,0.0,0.0,0.0,0.0,0.0,0.0
1666090011448092795,0.0,0.0,0.0,0.0,0.0,0.0
1666090011448111932,0.0,0.0,0.0,0.0,0.0,0.0
1666090011448117379,0.0,0.0,0.0,0.0,0.0,0.0
1666090011492124963,0.0,0.0,0.0,0.0,0.0,0.0
1666090011492157789,0.0,0.0,0.0,0.0,0.0,0.0
1666090011506845002,0.0,0.0,0.0,0.0,0.0,0.0
1666090011526773472,0.0,0.0,0.0,0.0,0.0,0.0
1666090011568197096,0.0,0.0,0.0,0.0,0.0,0.0
1666090011568234600,0.0,0.0,0.0,0.0,0.0,0.0
1666090011612079044,0.0,0.0,0.0,0.0,0.0,0.0
1666090011612092032,0.0,0.0,0.0,0.0,0.0,0.0
1666090011656166694,0.0,0.0,0.0,0.0,0.0,0.0
1666090011656196033,0.0,0.0,0.0,0.0,0.0,0.0
1666090011700173559,0.0,0.0,0.0,0.0,0.0,0.0
1666090011700194886,0.0,0.0,0.0,0.0,0.0,0.0
1666090011744274158,0.0,0.0,0.0,0.0,0.0,0.0
1666090011744304102,0.0,0.0,0.0,0.0,0.0,0.0
1666090011788149353,0.0,0.0,0.0,0.0,0.0,0.0
1666090011788182772,0.0,0.0,0.0,0.0,0.0,0.0
1666090011788196757,0.0,0.0,0.0,0.0,0.0,0.0
1666090011832115521,0.0,0.0,0.0,0.0,0.0,0.0
1666090011832138106,0.0,0.0,0.0,0.0,0.0,0.0
1666090011847440916,0.0,0.0,0.0,0.0,0.0,0.0
1666090011868426396,0.0,0.0,0.0,0.0,0.0,0.0
1666090011912093344,0.0,0.0,0.0,0.0,0.0,0.0
1666090011912111967,0.0,0.0,0.0,0.0,0.0,0.0
1666090011956275244,0.0,0.0,0.0,0.0,0.0,0.0
1666090011956301445,0.0,0.0,0.0,0.0,0.0,0.0
1666090012000111124,0.0,0.0,0.0,0.0,0.0,0.0
1666090012000127844,0.0,0.0,0.0,0.0,0.0,0.0
1666090012044060343,0.0,0.0,0.0,0.0,0.0,0.0
1666090012044074165,0.0,0.0,0.0,0.0,0.0,0.0
1666090012089051221,0.0,0.0,0.0,0.0,0.0,0.0
1666090012089078126,0.0,0.0,0.0,0.0,0.0,0.0
1666090012089099169,0.0,0.0,0.0,0.0,0.0,0.0
1666090012132192031,0.0,0.0,0.0,0.0,0.0,0.0
1666090012132220985,0.0,0.0,0.0,0.0,0.0,0.0
1666090012147584524,0.0,0.0,0.0,0.0,0.0,0.0
1666090012168351609,0.0,0.0,0.0,0.0,0.0,0.0
1666090012212189460,0.0,0.0,0.0,0.0,0.0,0.0
1666090012212211130,0.0,0.0,0.0,0.0,0.0,0.0
1666090012256218543,0.0,0.0,0.0,0.0,0.0,0.0
1666090012256249055,0.0,0.0,0.0,0.0,0.0,0.0
1666090012300099387,0.0,0.0,0.0,0.0,0.0,0.0
1666090012300119456,0.0,0.0,0.0,0.0,0.0,0.0
1666090012344887998,0.0,0.0,0.0,0.0,0.0,0.0
1666090012344913876,0.0,0.0,0.0,0.0,0.0,0.0
1666090012388120448,0.0,0.0,0.0,0.0,0.0,0.0
1666090012388137679,0.0,0.0,0.0,0.0,0.0,0.0
1666090012432136588,0.0,0.0,0.0,0.0,0.0,0.0
1666090012432164950,0.0,0.0,0.0,0.0,0.0,0.0
1666090012432177788,0.0,0.0,0.0,0.0,0.0,0.0
1666090012476119060,0.0,0.0,0.0,0.0,0.0,0.0
1666090012476136960,0.0,0.0,0.0,0.0,0.0,0.0
1666090012488471046,0.0,0.0,0.0,0.0,0.0,0.0
1666090012508213473,0.0,0.0,0.0,0.0,0.0,0.0
1666090012552081491,0.0,0.0,0.0,0.0,0.0,0.0
1666090012552198257,0.0,0.0,0.0,0.0,0.0,0.0
1666090012596136032,0.0,0.0,0.0,0.0,0.0,0.0
1666090012596167013,0.0,0.0,0.0,0.0,0.0,0.0
1666090012644074443,0.0,0.0,0.0,0.0,0.0,0.0
1666090012644088536,0.0,0.0,0.0,0.0,0.0,0.0
1666090012688232184,0.0,0.0,0.0,0.0,0.0,0.0
1666090012688246637,0.0,0.0,0.0,0.0,0.0,0.0
1666090012732065666,0.0,0.0,0.0,0.0,0.0,0.0
1666090012732081030,0.0,0.0,0.0,0.0,0.0,0.0
1666090012732091062,0.0,0.0,0.0,0.0,0.0,0.0
1666090012776131539,0.0,0.0,0.0,0.0,0.0,0.0
1666090012776155757,0.0,0.0,0.0,0.0,0.0,0.0
1666090012788305265,0.0,0.0,0.0,0.0,0.0,0.0
1666090012808298680,0.0,0.0,0.0,0.0,0.0,0.0
1666090012852126005,0.0,0.0,0.0,0.0,0.0,0.0
1666090012852144001,0.0,0.0,0.0,0.0,0.0,0.0
1666090012896065394,0.0,0.0,0.0,0.0,0.0,0.0
1666090012896076663,0.0,0.0,0.0,0.0,0.0,0.0
1666090012940089409,0.0,0.0,0.0,0.0,0.0,0.0
1666090012940102735,0.0,0.0,0.0,0.0,0.0,0.0
1666090012984091452,0.0,0.0,0.0,0.0,0.0,0.0
1666090012984107229,0.0,0.0,0.0,0.0,0.0,0.0
1666090013028183452,0.0,0.0,0.0,0.0,0.0,0.0
1666090013028250142,0.0,0.0,0.0,0.0,0.0,0.0
1666090013075046287,0.0,0.0,0.0,0.0,0.0,0.0
1666090013075065429,0.0,0.0,0.0,0.0,0.0,0.0
1666090013075082311,0.0,0.0,0.0,0.0,0.0,0.0
1666090013116123601,0.0,0.0,0.0,0.0,0.0,0.0
1666090013116148673,0.0,0.0,0.0,0.0,0.0,0.0
1666090013128277946,0.0,0.0,0.0,0.0,0.0,0.0
1666090013148077301,0.0,0.0,0.0,0.0,0.0,0.0
1666090013192268001,0.0,0.0,0.0,0.0,0.0,0.0
1666090013192305497,0.0,0.0,0.0,0.0,0.0,0.0
1666090013236101638,0.0,0.0,0.0,0.0,0.0,0.0
1666090013236120824,0.0,0.0,0.0,0.0,0.0,0.0
1666090013284114289,0.0,0.0,0.0,0.0,0.0,0.0
1666090013284132755,0.0,0.0,0.0,0.0,0.0,0.0
1666090013328188778,0.0,0.0,0.0,0.0,0.0,0.0
1666090013328222030,0.0,0.0,0.0,0.0,0.0,0.0
1666090013372244881,0.0,0.0,0.0,0.0,0.0,0.0
1666090013372286043,0.0,0.0,0.0,0.0,0.0,0.0
1666090013372487470,0.0,0.0,0.0,0.0,0.0,0.0
1666090013420162136,0.0,0.0,0.0,0.0,0.0,0.0
1666090013420187211,0.0,0.0,0.0,0.0,0.0,0.0
1666090013429788776,0.0,0.0,0.0,0.0,0.0,0.0
1666090013448876580,0.0,0.0,0.0,0.0,0.0,0.0
1666090013492432394,0.0,0.0,0.0,0.0,0.0,0.0
1666090013492468410,0.0,0.0,0.0,0.0,0.0,0.0
1666090013540128738,0.0,0.0,0.0,0.0,0.0,0.0
1666090013540143036,0.0,0.0,0.0,0.0,0.0,0.0
1666090013584139415,0.0,0.0,0.0,0.0,0.0,0.0
1666090013584157773,0.0,0.0,0.0,0.0,0.0,0.0
1666090013628235817,0.0,0.0,0.0,0.0,0.0,0.0
1666090013628267627,0.0,0.0,0.0,0.0,0.0,0.0
1666090013672126599,0.0,0.0,0.0,0.0,0.0,0.0
1666090013672154369,0.0,0.0,0.0,0.0,0.0,0.0
1666090013672173439,0.0,0.0,0.0,0.0,0.0,0.0
1666090013716054242,0.0,0.0,0.0,0.0,0.0,0.0
1666090013716066223,0.0,0.0,0.0,0.0,0.0,0.0
1666090013730240549,0.0,0.0,0.0,0.0,0.0,0.0
1666090013748810739,0.0,0.0,0.0,0.0,0.0,0.0
1666090013792098921,0.0,0.0,0.0,0.0,0.0,0.0
1666090013792116740,0.0,0.0,0.0,0.0,0.0,0.0
1666090013836198291,0.0,0.0,0.0,0.0,0.0,0.0
1666090013836221365,0.0,0.0,0.0,0.0,0.0,0.0
1666090013880156110,0.0,0.0,0.0,0.0,0.0,0.0
1666090013880179001,0.0,0.0,0.0,0.0,0.0,0.0
1666090013928303338,0.0,0.0,0.0,0.0,0.0,0.0
1666090013928354396,0.0,0.0,0.0,0.0,0.0,0.0
1666090013976108226,0.0,0.0,0.0,0.0,0.0,0.0
1666090013976130637,0.0,0.0,0.0,0.0,0.0,0.0
1666090013976263211,0.0,0.0,0.0,0.0,0.0,0.0
1666090014032097927,0.0,0.0,0.0,0.0,0.0,0.0
1666090014048972802,0.0,0.0,0.0,0.0,0.0,0.0
1666090014092340969,0.0,0.0,0.0,0.0,0.0,0.0
1666090014141981288,0.0,0.0,0.0,0.0,0.0,0.0
1666090014142008626,0.0,0.0,0.0,0.0,0.0,0.0
1666090014184896774,0.0,0.0,0.0,0.0,0.0,0.0
1666090014184938391,0.0,0.0,0.0,0.0,0.0,0.0
1666090014184959673,0.0,0.0,0.0,0.0,0.0,0.0
1666090014232449764,0.0,0.0,0.0,0.0,0.0,0.0
1666090014232515538,0.0,0.0,0.0,0.0,0.0,0.0
1666090014232524316,0.0,0.0,0.0,0.0,0.0,0.0
1666090014284159131,0.0,0.0,0.0,0.0,0.0,0.0
1666090014284202430,0.0,0.0,0.0,0.0,0.0,0.0
1666090014289793128,0.0,0.0,0.0,0.0,0.0,0.0
1666090014311557716,0.0,0.0,0.0,0.0,0.0,0.0
1666090014352188991,0.0,0.0,0.0,0.0,0.0,0.0
1666090014352443606,0.0,0.0,0.0,0.0,0.0,0.0
1666090014400218034,0.0,0.0,0.0,0.0,0.0,0.0
1666090014400260606,0.0,0.0,0.0,0.0,0.0,0.0
1666090014448287593,0.0,0.0,0.0,0.0,0.0,0.0
1666090014448310702,0.0,0.0,0.0,0.0,0.0,0.0
1666090014492876726,0.0,0.0,0.0,0.0,0.0,0.0
1666090014492906629,0.0,0.0,0.0,0.0,0.0,0.0
1666090014492916107,0.0,0.0,0.0,0.0,0.0,0.0
1666090014536166871,0.0,0.0,0.0,0.0,0.0,0.0
1666090014536188451,0.0,0.0,0.0,0.0,0.0,0.0
1666090014548637047,0.0,0.0,0.0,0.0,0.0,0.0
1666090014568668098,0.0,0.0,0.0,0.0,0.0,0.0
1666090014612213821,0.0,0.0,0.0,0.0,0.0,0.0
1666090014612235348,0.0,0.0,0.0,0.0,0.0,0.0
1666090014656096380,0.0,0.0,0.0,0.0,0.0,0.0
1666090014656115128,0.0,0.0,0.0,0.0,0.0,0.0
1666090014700086160,0.0,0.0,0.0,0.0,0.0,0.0
1666090014700103099,0.0,0.0,0.0,0.0,0.0,0.0
1666090014744094504,0.0,0.0,0.0,0.0,0.0,0.0
1666090014744116209,0.0,0.0,0.0,0.0,0.0,0.0
1666090014788178406,0.0,0.0,0.0,0.0,0.0,0.0
1666090014788203003,0.0,0.0,0.0,0.0,0.0,0.0
1666090014832238123,0.0,0.0,0.0,0.0,0.0,0.0
1666090014832264701,0.0,0.0,0.0,0.0,0.0,0.0
1666090014832291986,0.0,0.0,0.0,0.0,0.0,0.0
1666090014876223691,0.0,0.0,0.0,0.0,0.0,0.0
1666090014876241177,0.0,0.0,0.0,0.0,0.0,0.0
1666090014888606463,0.0,0.0,0.0,0.0,0.0,0.0
1666090014908618043,0.0,0.0,0.0,0.0,0.0,0.0
1666090014952089036,0.0,0.0,0.0,0.0,0.0,0.0
1666090014952106149,0.0,0.0,0.0,0.0,0.0,0.0
1666090014996240928,0.0,0.0,0.0,0.0,0.0,0.0
1666090014996267498,0.0,0.0,0.0,0.0,0.0,0.0
1666090015044132906,0.0,0.0,0.0,0.0,0.0,0.0
1666090015044179931,0.0,0.0,0.0,0.0,0.0,0.0
1666090015092194396,0.0,0.0,0.0,0.0,0.0,0.0
1666090015092217766,0.0,0.0,0.0,0.0,0.0,0.0
1666090015092236266,0.0,0.0,0.0,0.0,0.0,0.0
1666090015140059587,0.0,0.0,0.0,0.0,0.0,0.0
1666090015140072358,0.0,0.0,0.0,0.0,0.0,0.0
1666090015149125931,0.0,0.0,0.0,0.0,0.0,0.0
1666090015169563437,0.0,0.0,0.0,0.0,0.0,0.0
1666090015216100693,0.0,0.0,0.0,0.0,0.0,0.0
1666090015216120603,0.0,0.0,0.0,0.0,0.0,0.0
1666090015260373691,0.0,0.0,0.0,0.0,0.0,0.0
1666090015260406865,0.0,0.0,0.0,0.0,0.0,0.0
1666090015304112651,0.0,0.0,0.0,0.0,0.0,0.0
1666090015304136343,0.0,0.0,0.0,0.0,0.0,0.0
1666090015348096881,0.0,0.0,0.0,0.0,0.0,0.0
1666090015348108131,0.0,0.0,0.0,0.0,0.0,0.0
1666090015392186498,0.0,0.0,0.0,0.0,0.0,0.0
1666090015392214309,0.0,0.0,0.0,0.0,0.0,0.0
1666090015392236110,0.0,0.0,0.0,0.0,0.0,0.0
1666090015436398488,0.0,0.0,0.0,0.0,0.0,0.0
1666090015436451212,0.0,0.0,0.0,0.0,0.0,0.0
1666090015449146414,0.0,0.0,0.0,0.0,0.0,0.0
1666090015469334176,0.0,0.0,0.0,0.0,0.0,0.0
1666090015512072750,0.0,0.0,0.0,0.0,0.0,0.0
1666090015512088847,0.0,0.0,0.0,0.0,0.0,0.0
1666090015556145184,0.0,0.0,0.0,0.0,0.0,0.0
1666090015556156296,0.0,0.0,0.0,0.0,0.0,0.0
1666090015600056218,0.0,0.0,0.0,0.0,0.0,0.0
1666090015600065006,0.0,0.0,0.0,0.0,0.0,0.0
1666090015644103481,0.0,0.0,0.0,0.0,0.0,0.0
1666090015644116116,0.0,0.0,0.0,0.0,0.0,0.0
1666090015688135778,0.0,0.0,0.0,0.0,0.0,0.0
1666090015688160658,0.0,0.0,0.0,0.0,0.0,0.0
1666090015732103180,0.0,0.0,0.0,0.0,0.0,0.0
1666090015732119410,0.0,0.0,0.0,0.0,0.0,0.0
1666090015732135390,0.0,0.0,0.0,0.0,0.0,0.0
1666090015776074497,0.0,0.0,0.0,0.0,0.0,0.0
1666090015776089437,0.0,0.0,0.0,0.0,0.0,0.0
1666090015789301621,0.0,0.0,0.0,0.0,0.0,0.0
1666090015808959489,0.0,0.0,0.0,0.0,0.0,0.0
1666090015852127608,0.0,0.0,0.0,0.0,0.0,0.0
1666090015852145617,0.0,0.0,0.0,0.0,0.0,0.0
1666090015896159781,0.0,0.0,0.0,0.0,0.0,0.0
1666090015896188170,0.0,0.0,0.0,0.0,0.0,0.0
1666090015940147228,0.0,0.0,0.0,0.0,0.0,0.0
1666090015940165106,0.0,0.0,0.0,0.0,0.0,0.0
1666090015984111287,0.0,0.0,0.0,0.0,0.0,0.0
1666090015984120248,0.0,0.0,0.0,0.0,0.0,0.0
1666090016028242767,0.0,0.0,0.0,0.0,0.0,0.0
1666090016028270683,0.0,0.0,0.0,0.0,0.0,0.0
1666090016072226837,0.0,0.0,0.0,0.0,0.0,0.0
1666090016072241539,0.0,0.0,0.0,0.0,0.0,0.0
1666090016072247784,0.0,0.0,0.0,0.0,0.0,0.0
1666090016117138604,0.0,0.0,0.0,0.0,0.0,0.0
1666090016117161528,0.0,0.0,0.0,0.0,0.0,0.0
1666090016130730391,0.0,0.0,0.0,0.0,0.0,0.0
1666090016151732442,0.0,0.0,0.0,0.0,0.0,0.0
1666090016192068052,0.0,0.0,0.0,0.0,0.0,0.0
1666090016192084313,0.0,0.0,0.0,0.0,0.0,0.0
1666090016236078706,0.0,0.0,0.0,0.0,0.0,0.0
1666090016236088902,0.0,0.0,0.0,0.0,0.0,0.0
1666090016280186464,0.0,0.0,0.0,0.0,0.0,0.0
1666090016280210012,0.0,0.0,0.0,0.0,0.0,0.0
1666090016324168697,0.0,0.0,0.0,0.0,0.0,0.0
1666090016324188577,0.0,0.0,0.0,0.0,0.0,0.0
1666090016368173849,0.0,0.0,0.0,0.0,0.0,0.0
1666090016368202759,0.0,0.0,0.0,0.0,0.0,0.0
1666090016416160557,0.0,0.0,0.0,0.0,0.0,0.0
1666090016416184881,0.0,0.0,0.0,0.0,0.0,0.0
1666090016416190570,0.0,0.0,0.0,0.0,0.0,0.0
1666090016460349687,0.0,0.0,0.0,0.0,0.0,0.0
1666090016460415186,0.0,0.0,0.0,0.0,0.0,0.0
1666090016471794099,0.0,0.0,0.0,0.0,0.0,0.0
1666090016489878139,0.0,0.0,0.0,0.0,0.0,0.0
1666090016532262453,0.0,0.0,0.0,0.0,0.0,0.0
1666090016532302123,0.0,0.0,0.0,0.0,0.0,0.0
1666090016580123044,0.0,0.0,0.0,0.0,0.0,0.0
1666090016580143030,0.0,0.0,0.0,0.0,0.0,0.0
1666090016624095689,0.0,0.0,0.0,0.0,0.0,0.0
1666090016624111009,0.0,0.0,0.0,0.0,0.0,0.0
1666090016668280576,0.0,0.0,0.0,0.0,0.0,0.0
1666090016668320935,0.0,0.0,0.0,0.0,0.0,0.0
1666090016712078541,0.0,0.0,0.0,0.0,0.0,0.0
1666090016712094876,0.0,0.0,0.0,0.0,0.0,0.0
1666090016712101824,0.0,0.0,0.0,0.0,0.0,0.0
1666090016756209285,0.0,0.0,0.0,0.0,0.0,0.0
1666090016756232429,0.0,0.0,0.0,0.0,0.0,0.0
1666090016772146022,0.0,0.0,0.0,0.0,0.0,0.0
1666090016792166675,0.0,0.0,0.0,0.0,0.0,0.0
1666090016832190659,0.0,0.0,0.0,0.0,0.0,0.0
1666090016832238388,0.0,0.0,0.0,0.0,0.0,0.0
1666090016876153696,0.0,0.0,0.0,0.0,0.0,0.0
1666090016876174166,0.0,0.0,0.0,0.0,0.0,0.0
1666090016920049925,0.0,0.0,0.0,0.0,0.0,-0.00017453292519943296
1666090016920062391,0.0,0.0,0.0,0.0,0.0,0.005061454830783556
1666090016968265241,0.0,0.0,0.0,0.0,0.0,0.00034906585039886593
1666090016968304856,0.0,0.0,0.0,0.0,0.0,0.005235987755982988
1666090017012174165,0.0,0.0,0.0,0.0,0.0,0.0036651914291880917
1666090017012198994,0.0,0.0,0.0,0.0,0.0,0.003490658503988659
1666090017012210625,0.021323022083379328,0.0,0.0,0.0,0.0,0.0038397243543875246
1666090017060457640,0.010661511041689664,0.0,0.0,0.0,0.0,-0.0008726646259971648
1666090017060523343,0.008529208833351731,0.0,0.0,0.0,0.0,-0.0012217304763960308
1666090017071148842,0.021323022083379328,0.0,0.0,0.0,0.0,-0.006981317007977318
1666090017090327666,0.02345532429171726,0.0,0.0,0.0,0.0,-0.0005235987755982988
1666090017132410554,0.027719928708393127,0.0,0.0,0.0,0.0,0.0006981317007977319
1666090017132446646,0.03198453312506899,0.0,0.0,0.0,0.0,-0.007504915783575617
1666090017180073747,0.027719928708393127,0.0,0.0,0.0,0.0,-0.006806784082777885
1666090017180095703,0.044778346375096596,0.0,0.0,0.0,0.0,-0.008203047484373348
1666090017225179095,0.044778346375096596,0.0,0.0,0.0,0.0,-0.015184364492350668
1666090017225200444,0.05543985741678625,0.0,0.0,0.0,0.0,-0.017627825445142728
1666090017268219711,0.05757215962512419,0.0,0.0,0.0,0.0,-0.04310963252425994
1666090017268251677,0.06396906625013798,0.0,0.0,0.0,0.0,-0.05916666164260777
1666090017316198489,0.07889518170850353,0.0,0.0,0.0,0.0,-0.07347836150896127
1666090017316219829,0.08102748391684146,0.0,0.0,0.0,0.0,-0.07696902001294993
1666090017316234358,0.08742439054185526,0.0,0.0,0.0,0.0,-0.08656833089891874
1666090017364130320,0.08315978612517938,0.0,0.0,0.0,0.0,-0.10419615634406146
1666090017364146508,0.09595359937520698,0.0,0.0,0.0,0.0,-0.1329940890019679
1666090017371161520,0.10874741262523457,0.0,0.0,0.0,0.0,-0.17016960206944712
1666090017392167103,0.10021820379188286,0.0,0.0,0.0,0.0,-0.17662732030182612
1666090017436195709,0.11727662145858632,0.0,0.0,0.0,0.0,-0.18413223608540177
1666090017436216627,0.11940892366692425,0.0,0.0,0.0,0.0,-0.20943951023931953
1666090017484132548,0.11727662145858632,0.0,0.0,0.0,0.0,-0.21676989309769573
1666090017484162747,0.12793813250027597,0.0,0.0,0.0,0.0,-0.2307325271136504
1666090017528256140,0.12793813250027597,0.0,0.0,0.0,0.0,-0.2591813939211579
1666090017528272176,0.1364673413336277,0.0,0.0,0.0,0.0,-0.2755874888899046
1666090017576121975,0.14499655016697943,0.0,0.0,0.0,0.0,-0.29670597283903605
1666090017576135089,0.13859964354196566,0.0,0.0,0.0,0.0,-0.3260275042725408
1666090017580018982,0.1556580612086691,0.0,0.0,0.0,0.0,-0.3438298626428829
1666090017624495323,0.15779036341700706,0.0,0.0,0.0,0.0,-0.3684390050960029
1666090017624533626,0.16418727004202083,0.0,0.0,0.0,0.0,-0.38973202197033374
1666090017631212065,0.17058417666703463,0.0,0.0,0.0,0.0,-0.40177479380909464
1666090017650869114,0.1684518744586967,0.0,0.0,0.0,0.0,-0.4134684997974567
1666090017696524721,0.18124568770872432,0.0,0.0,0.0,0.0,-0.39549160850191506
1666090017696622743,0.18124568770872432,0.0,0.0,0.0,0.0,-0.3921754829231258
1666090017744175466,0.18977489654207602,0.0,0.0,0.0,0.0,-0.37838738183237064
1666090017744231973,0.18977489654207602,0.0,0.0,0.0,0.0,-0.3633775502652194
1666090017788074388,0.19190719875041395,0.0,0.0,0.0,0.0,-0.38414696836395196
1666090017788092785,0.2004364075837657,0.0,0.0,0.0,0.0,-0.4270820679630124
1666090017836377110,0.20256870979210362,0.0,0.0,0.0,0.0,-0.4417428336797648
1666090017836451072,0.18124568770872432,0.0,0.0,0.0,0.0,-0.4663519761328848
1666090017836469190,0.18124568770872432,0.0,0.0,0.0,0.0,-0.5047492196767601
1666090017884093385,0.19190719875041395,0.0,0.0,0.0,0.0,-0.5503023131538122
1666090017884104726,0.17911338550038639,0.0,0.0,0.0,0.0,-0.5597270911145814
1666090017890107861,0.1684518744586967,0.0,0.0,0.0,0.0,-0.5665338751973594
1666090017910487538,0.1876425943337381,0.0,0.0,0.0,0.0,-0.5867796945204935
1666090017952060896,0.18551029212540016,0.0,0.0,0.0,0.0,-0.6120869686744114
1666090017952076599,0.18124568770872432,0.0,0.0,0.0,0.0,-0.6258750697651665
1666090017996125865,0.18551029212540016,0.0,0.0,0.0,0.0,-0.6326818538479444
1666090017996139310,0.2004364075837657,0.0,0.0,0.0,0.0,-0.7197737835224615
1666090018044176061,0.21109791862545538,0.0,0.0,0.0,0.0,-0.7747516549602829
1666090018044200000,0.19190719875041395,0.0,0.0,0.0,0.0,-0.7742280561846845
1666090018088121553,0.18337798991706222,0.0,0.0,0.0,0.0,-0.8014551925157961
1666090018088139482,0.20470101200044158,0.0,0.0,0.0,0.0,-0.8244935386421213
1666090018132391594,0.21749482525046915,0.0,0.0,0.0,0.0,-0.8244935386421213
1666090018132422243,0.22602403408382088,0.0,0.0,0.0,0.0,-0.8470082859928482
1666090018176090839,0.2196271274588071,0.0,0.0,0.0,0.0,-0.8585274590560107
1666090018176108456,0.221759429667145,0.0,0.0,0.0,0.0,-0.8874999246391166
1666090018176134044,0.23455324291717264,0.0,0.0,0.0,0.0,-0.8925613794699001
1666090018220190354,0.24308245175052437,0.0,0.0,0.0,0.0,-0.8716174284459681
1666090018220222009,0.2601408694172278,0.0,0.0,0.0,0.0,-0.8475318847684464
1666090018233098881,0.2601408694172278,0.0,0.0,0.0,0.0,-0.8283332629965088
1666090018252925793,0.253743962792214,0.0,0.0,0.0,0.0,-0.8169886228585456
1666090018296569095,0.2622731716255658,0.0,0.0,0.0,0.0,-0.7864453609486449
1666090018296756137,0.27506698487559333,0.0,0.0,0.0,0.0,-0.7431611954991855
1666090018340341823,0.28359619370894507,0.0,0.0,0.0,0.0,-0.7279768310068349
1666090018340375851,0.2793315892922692,0.0,0.0,0.0,0.0,-0.7234389749516497
1666090018384235010,0.2771992870839313,0.0,0.0,0.0,0.0,-0.7232644420264501
1666090018384264071,0.2921254025422968,0.0,0.0,0.0,0.0,-0.6967354373961363
1666090018432203389,0.29425770475063473,0.0,0.0,0.0,0.0,-0.6805038753525892
1666090018432227268,0.2963900069589727,0.0,0.0,0.0,0.0,-0.6866125277345693
1666090018432234196,0.2921254025422968,0.0,0.0,0.0,0.0,-0.6773622826989993
1666090018476317581,0.28999310033395886,0.0,0.0,0.0,0.0,-0.6723008278682158
1666090018476375299,0.15352575900033116,0.0,0.0,0.0,0.0,-0.6560692658246685
1666090018492429485,0.13859964354196566,0.0,0.0,0.0,0.0,-0.6461208890883008
1666090018516360151,0.07249827508348972,0.0,0.0,0.0,0.0,-0.6354743806511354
1666090018556116347,0.07676287950016558,0.0,0.0,0.0,0.0,-0.6508332780686854
1666090018556137425,0.09382129716686904,0.0,0.0,0.0,0.0,-0.697782634947333
1666090018604211889,0.05330755520844832,0.0,0.0,0.0,0.0,-0.6572909963010645
1666090018604238141,0.027719928708393127,0.0,0.0,0.0,0.0,-0.5993460651348528
1666090018652616298,0.03198453312506899,0.0,0.0,0.0,0.0,-0.6143558967020041
1666090018652699368,0.04691064858343452,0.0,0.0,0.0,0.0,-0.5529203070318036
1666090018696133020,0.04904295079177246,0.0,0.0,0.0,0.0,-0.44802601898694444
1666090018696147006,0.04051374195842073,0.0,0.0,0.0,0.0,-0.3827507049623564
1666090018696156670,0.03624913754174486,0.0,0.0,0.0,0.0,-0.3576179637336381
1666090018744652129,0.02345532429171726,0.0,0.0,0.0,0.0,-0.3726277953007894
1666090018744732889,0.008529208833351731,0.0,0.0,0.0,0.0,-0.38362336958835364
1666090018751820392,-0.004264604416675866,0.0,0.0,0.0,0.0,-0.33388148590651523
1666090018770861517,-0.010661511041689664,0.0,0.0,0.0,0.0,-0.32148964821735554
1666090018816439699,-0.008529208833351731,0.0,0.0,0.0,0.0,-0.36267941856442165
1666090018816464490,-0.012793813250027599,0.0,0.0,0.0,0.0,-0.3703588672731967
1666090018864080766,-0.027719928708393127,0.0,0.0,0.0,0.0,-0.33300882128051806
1666090018864099286,-0.03198453312506899,0.0,0.0,0.0,0.0,-0.2930407814098479
1666090018908478394,-0.02345532429171726,0.0,0.0,0.0,0.0,-0.25865779514555964
1666090018908513737,-0.006396906625013799,0.0,0.0,0.0,0.0,-0.24434609527920614
1666090018952162623,0.0,0.0,0.0,0.0,0.0,-0.22497294058206907
1666090018952187744,0.0,0.0,0.0,0.0,0.0,-0.1897172896917836
1666090018952202458,-0.004264604416675866,0.0,0.0,0.0,0.0,-0.16406094968746698
1666090018996130835,0.008529208833351731,0.0,0.0,0.0,0.0,-0.13840460968315033
1666090018996147864,0.014926115458365532,0.0,0.0,0.0,0.0,-0.10611601852125523
1666090019011114560,0.014926115458365532,0.0,0.0,0.0,0.0,-0.0841248699461267
1666090019031535706,0.012793813250027599,0.0,0.0,0.0,0.0,-0.06457718232379019
1666090019072385790,0.008529208833351731,0.0,0.0,0.0,0.0,-0.04258603374866164
1666090019116188135,0.002132302208337933,0.0,0.0,0.0,0.0,-0.034033920413889425
1666090019116218591,0.006396906625013799,0.0,0.0,0.0,0.0,-0.046076692252650306
1666090019116233363,0.014926115458365532,0.0,0.0,0.0,0.0,-0.06475171524898962
1666090019160423380,0.006396906625013799,0.0,0.0,0.0,0.0,-0.06562437987498679
1666090019160450404,0.004264604416675866,0.0,0.0,0.0,0.0,-0.06632251157578452
1666090019170734287,0.012793813250027599,0.0,0.0,0.0,0.0,-0.079412480965742
1666090019192029482,0.017058417666703463,0.0,0.0,0.0,0.0,-0.08552113334772216
1666090019232153527,0.019190719875041395,0.0,0.0,0.0,0.0,-0.06667157742618339
1666090019232185009,0.014926115458365532,0.0,0.0,0.0,0.0,-0.06946410422937431
1666090019276407459,0.014926115458365532,0.0,0.0,0.0,0.0,-0.08883725892651137
1666090019276478173,0.03838143975008279,0.0,0.0,0.0,0.0,-0.11309733552923257
1666090019324191346,0.042646044166758657,0.0,0.0,0.0,0.0,-0.11484266478122689
1666090019324216948,0.04691064858343452,0.0,0.0,0.0,0.0,-0.11397000015522972
1666090019372223803,0.051175253000110395,0.0,0.0,0.0,0.0,-0.13002702927357757
1666090019372256465,0.05543985741678625,0.0,0.0,0.0,0.0,-0.14590952546672592
1666090019372265366,0.06823367066681385,0.0,0.0,0.0,0.0,-0.12583823906879116
1666090019416405205,0.06610136845847592,0.0,0.0,0.0,0.0,-0.10803588069844901
1666090019416476552,0.07889518170850353,0.0,0.0,0.0,0.0,-0.10279989294246601
1666090019432154891,0.08315978612517938,0.0,0.0,0.0,0.0,-0.09773843811168245
1666090019451905103,0.08102748391684146,0.0,0.0,0.0,0.0,-0.09826203688728076
1666090019492153699,0.09168899495853111,0.0,0.0,0.0,0.0,-0.07906341511534314
1666090019536103259,0.08955669275019319,0.0,0.0,0.0,0.0,-0.05375614096142535
1666090019536123887,0.10235050600022079,0.0,0.0,0.0,0.0,-0.05253441048502932
1666090019536136195,0.10235050600022079,0.0,0.0,0.0,0.0,-0.07295476273336296
1666090019584670177,0.09595359937520698,0.0,0.0,0.0,0.0,-0.07644542123735164
1666090019584705591,0.11514431925024839,0.0,0.0,0.0,0.0,-0.07260569688296412
1666090019591796695,0.11514431925024839,0.0,0.0,0.0,0.0,-0.061959188445798695
1666090019611812129,0.12580583029193804,0.0,0.0,0.0,0.0,-0.07243116395776468
1666090019656203357,0.12367352808360012,0.0,0.0,0.0,0.0,-0.07382742735936014
1666090019656225197,0.11514431925024839,0.0,0.0,0.0,0.0,-0.05899212871740834
1666090019704210176,0.14712885237531736,0.0,0.0,0.0,0.0,-0.044331363000655974
1666090019704244424,0.14712885237531736,0.0,0.0,0.0,0.0,-0.03822271061867582
1666090019748129815,0.15139345679199323,0.0,0.0,0.0,0.0,-0.0291469985083053
1666090019748140708,0.159922665625345,0.0,0.0,0.0,0.0,-0.023561944901923447
1666090019792413288,0.15352575900033116,0.0,0.0,0.0,0.0,-0.024783675378319478
1666090019792457895,0.1684518744586967,0.0,0.0,0.0,0.0,-0.02548180707911721
1666090019840070788,0.17911338550038639,0.0,0.0,0.0,0.0,-0.033335788713091695
1666090019840085637,0.17698108329204845,0.0,0.0,0.0,0.0,-0.04468042885105484
1666090019840090778,0.17911338550038639,0.0,0.0,0.0,0.0,-0.061086523819801536
1666090019884064977,0.17911338550038639,0.0,0.0,0.0,0.0,-0.06073745796940267
1666090019884081674,0.08102748391684146,0.0,0.0,0.0,0.0,-0.062482787221396996
1666090019891477937,0.02345532429171726,0.0,0.0,0.0,0.0,-0.06544984694978735
1666090019911514506,0.017058417666703463,0.0,0.0,0.0,0.0,-0.06998770300497262
1666090019956091646,0.042646044166758657,0.0,0.0,0.0,0.0,-0.07819075048934597
1666090019956112916,0.04051374195842073,0.0,0.0,0.0,0.0,-0.13526301702956053
1666090020004232620,0.021323022083379328,0.0,0.0,0.0,0.0,-0.2017600615305445
1666090020004269976,0.014926115458365532,0.0,0.0,0.0,0.0,-0.1876228945893904
1666090020048062634,0.019190719875041395,0.0,0.0,0.0,0.0,-0.1806415775814131
1666090020048075519,0.03198453312506899,0.0,0.0,0.0,0.0,-0.16406094968746698
1666090020092116663,0.029852230916731063,0.0,0.0,0.0,0.0,-0.16318828506146982
1666090020092138073,0.021323022083379328,0.0,0.0,0.0,0.0,-0.14748032179352083
1666090020092151877,0.004264604416675866,0.0,0.0,0.0,0.0,-0.12845623294678266
1666090020136500331,-0.006396906625013799,0.0,0.0,0.0,0.0,-0.1473057888683214
1666090020136640574,-0.002132302208337933,0.0,0.0,0.0,0.0,-0.11885692206081383
1666090020152484953,0.004264604416675866,0.0,0.0,0.0,0.0,-0.08203047484373349
1666090020172106932,-0.002132302208337933,0.0,0.0,0.0,0.0,-0.052185344634630454
1666090020220082699,-0.010661511041689664,0.0,0.0,0.0,0.0,-0.0497418836818384
1666090020220098109,-0.012793813250027599,0.0,0.0,0.0,0.0,-0.05078908123303499
1666090020264151398,-0.004264604416675866,0.0,0.0,0.0,0.0,-0.042411500823462206
1666090020264174063,-0.004264604416675866,0.0,0.0,0.0,0.0,-0.03647738136668148
1666090020308605114,0.0,0.0,0.0,0.0,0.0,-0.045727626402251434
1666090020308635500,0.006396906625013799,0.0,0.0,0.0,0.0,-0.04991641660703782
1666090020352250113,0.019190719875041395,0.0,0.0,0.0,0.0,-0.040491638646268445
1666090020352285527,0.025587626500055197,0.0,0.0,0.0,0.0,-0.04276056667386108
1666090020396129235,0.021323022083379328,0.0,0.0,0.0,0.0,-0.05619960191421742
1666090020396166117,0.029852230916731063,0.0,0.0,0.0,0.0,-0.08744099552491591
1666090020396446959,0.03838143975008279,0.0,0.0,0.0,0.0,-0.12688543661998775
1666090020440367029,0.04691064858343452,0.0,0.0,0.0,0.0,-0.17505652397503124
1666090020440418198,0.034116835333406925,0.0,0.0,0.0,0.0,-0.210835773640915
1666090020452887092,0.042646044166758657,0.0,0.0,0.0,0.0,-0.21170843826691216
1666090020472697040,0.051175253000110395,0.0,0.0,0.0,0.0,-0.21764255772369293
1666090020516208502,0.05330755520844832,0.0,0.0,0.0,0.0,-0.20455258833373544
1666090020516229254,0.04691064858343452,0.0,0.0,0.0,0.0,-0.187448361664191
1666090020560108240,0.03838143975008279,0.0,0.0,0.0,0.0,-0.14817845349431857
1666090020560120446,0.042646044166758657,0.0,0.0,0.0,0.0,-0.10088003076527224
1666090020604188928,0.05543985741678625,0.0,0.0,0.0,0.0,-0.08028514559173915
1666090020604206406,0.05757215962512419,0.0,0.0,0.0,0.0,-0.08168140899333462
1666090020652126941,0.0703659728751518,0.0,0.0,0.0,0.0,-0.08936085770210968
1666090020652154913,0.07463057729182765,0.0,0.0,0.0,0.0,-0.10559241974565695
1666090020696524575,0.07676287950016558,0.0,0.0,0.0,0.0,-0.10890854532444616
1666090020696577686,0.09382129716686904,0.0,0.0,0.0,0.0,-0.11292280260403312
1666090020696585050,0.10661511041689664,0.0,0.0,0.0,0.0,-0.12618730491919003
1666090020740218740,0.11301201704191044,0.0,0.0,0.0,0.0,-0.1319468914507713
1666090020740300340,0.10874741262523457,0.0,0.0,0.0,0.0,-0.11693705988362009
1666090020754458851,0.12580583029193804,0.0,0.0,0.0,0.0,-0.10437068926926091
1666090020773027831,0.1364673413336277,0.0,0.0,0.0,0.0,-0.12147491593880534
1666090020820272132,0.1300704347086139,0.0,0.0,0.0,0.0,-0.13648474750595657
1666090020820312221,0.13433503912528977,0.0,0.0,0.0,0.0,-0.1434660645139339
1666090020864190134,0.12793813250027597,0.0,0.0,0.0,0.0,-0.1668534764906579
1666090020864254075,0.13859964354196566,0.0,0.0,0.0,0.0,-0.19774580425095753
1666090020908216804,0.14712885237531736,0.0,0.0,0.0,0.0,-0.19826940302655582
1666090020908268087,0.14499655016697943,0.0,0.0,0.0,0.0,-0.19058995431778078
1666090020952221808,0.14712885237531736,0.0,0.0,0.0,0.0,-0.19966566642815128
1666090020952298658,0.16205496783368292,0.0,0.0,0.0,0.0,-0.20245819323134223
1666090020996346937,0.17058417666703463,0.0,0.0,0.0,0.0,-0.2106612407157156
1666090020996382118,0.17271647887537256,0.0,0.0,0.0,0.0,-0.20490165418413428
1666090020997103860,0.16418727004202083,0.0,0.0,0.0,0.0,-0.20193459445574394
1666090021040158679,0.17911338550038639,0.0,0.0,0.0,0.0,-0.22078415037728272
1666090021040198694,0.18551029212540016,0.0,0.0,0.0,0.0,-0.20682151636132803
1666090021053016710,0.18551029212540016,0.0,0.0,0.0,0.0,-0.19128808601857855
1666090021072331462,0.19403950095875191,0.0,0.0,0.0,0.0,-0.17715091907742447
1666090021116195805,0.19617180316708985,0.0,0.0,0.0,0.0,-0.183434104384604
1666090021116217424,0.21323022083379328,0.0,0.0,0.0,0.0,-0.17383479349863523
1666090021160629203,0.20470101200044158,0.0,0.0,0.0,0.0,-0.15184364492350666
1666090021160686205,0.20896561641711744,0.0,0.0,0.0,0.0,-0.16406094968746698
1666090021204199960,0.21749482525046915,0.0,0.0,0.0,0.0,-0.1642354826126664
1666090021204237609,0.22815633629215884,0.0,0.0,0.0,0.0,-0.16179202165987433
1666090021248107702,0.2388178473338485,0.0,0.0,0.0,0.0,-0.16074482410867777
1666090021248125733,0.23242094070883468,0.0,0.0,0.0,0.0,-0.154810704651897
1666090021292206704,0.2388178473338485,0.0,0.0,0.0,0.0,-0.1673770752662562
1666090021292224213,0.24521475395886227,0.0,0.0,0.0,0.0,-0.15777776438028737
1666090021292238197,0.2516116605838761,0.0,0.0,0.0,0.0,-0.1457349925415265
1666090021336093282,0.2622731716255658,0.0,0.0,0.0,0.0,-0.13805554383275145
1666090021336116086,0.2601408694172278,0.0,0.0,0.0,0.0,-0.12932889757277982
1666090021353508858,0.2622731716255658,0.0,0.0,0.0,0.0,-0.13892820845874862
1666090021374023966,0.27506698487559333,0.0,0.0,0.0,0.0,-0.13473941825396224
1666090021416128620,0.2793315892922692,0.0,0.0,0.0,0.0,-0.12304571226560024
1666090021416162154,0.28572849591728305,0.0,0.0,0.0,0.0,-0.11414453308042916
1666090021460229871,0.28999310033395886,0.0,0.0,0.0,0.0,-0.12775810124598494
1666090021460254562,0.2963900069589727,0.0,0.0,0.0,0.0,-0.12880529879718153
1666090021504233236,0.30278691358398646,0.0,0.0,0.0,0.0,-0.12671090369478832
1666090021504267899,0.2985223091673106,0.0,0.0,0.0,0.0,-0.12531464029319286
1666090021548106882,0.30918382020900026,0.0,0.0,0.0,0.0,-0.136659280431156
1666090021548126233,0.31984533125069,0.0,0.0,0.0,0.0,-0.14887658519511632
1666090021592242407,0.33050684229237964,0.0,0.0,0.0,0.0,-0.14154620233674012
1666090021592277806,0.317713029042352,0.0,0.0,0.0,0.0,-0.13072516097437528
1666090021636124752,0.317713029042352,0.0,0.0,0.0,0.0,-0.13072516097437528
1666090021636149336,0.3390360511257314,0.0,0.0,0.0,0.0,-0.1392772743091475
1666090021636154515,0.34756525995908305,0.0,0.0,0.0,0.0,-0.13962634015954636
1666090021680231311,0.3390360511257314,0.0,0.0,0.0,0.0,-0.12461650859239512
1666090021680266347,0.34969756216742104,0.0,0.0,0.0,0.0,-0.11414453308042916
1666090021693184502,0.3560944687924348,0.0,0.0,0.0,0.0,-0.1244419756671957
1666090021712614148,0.3710205842508003,0.0,0.0,0.0,0.0,-0.11938052083641214
1666090021760433868,0.3731528864591383,0.0,0.0,0.0,0.0,-0.10035643198967394
1666090021760559239,0.3539621665840969,0.0,0.0,0.0,0.0,-0.10332349171806432
1666090021804137360,0.3731528864591383,0.0,0.0,0.0,0.0,-0.11501719770642631
1666090021804160125,0.38807900191750383,0.0,0.0,0.0,0.0,-0.1090830782496456
1666090021848029381,0.39874051295919344,0.0,0.0,0.0,0.0,-0.10873401239924674
1666090021848041257,0.3902113041258417,0.0,0.0,0.0,0.0,-0.10262536001726656
1666090021892222114,0.39874051295919344,0.0,0.0,0.0,0.0,-0.11379546723003027
1666090021892258581,0.40300511737586936,0.0,0.0,0.0,0.0,-0.12095131716320703
1666090021936138237,0.4008728151675314,0.0,0.0,0.0,0.0,-0.10943214410004444
1666090021936165662,0.42219583725091075,0.0,0.0,0.0,0.0,-0.10245082709206714
1666090021936183089,0.4243281394592487,0.0,0.0,0.0,0.0,-0.10454522219446034
1666090021980277941,0.4349896505009383,0.0,0.0,0.0,0.0,-0.09005898940290741
1666090021980333019,0.44138655712595215,0.0,0.0,0.0,0.0,-0.05811946409141117
1666090021993320154,0.4328573482926004,0.0,0.0,0.0,0.0,-0.052883476335428184
1666090022012741688,0.44138655712595215,0.0,0.0,0.0,0.0,-0.05009094953223726
1666090022056122054,0.45418037037597975,0.0,0.0,0.0,0.0,-0.029670597283903602
1666090022056140581,0.4563126725843177,0.0,0.0,0.0,0.0,-0.034732052114687155
1666090022100359371,0.4627095792093315,0.0,0.0,0.0,0.0,-0.05044001538263612
1666090022100422899,0.45418037037597975,0.0,0.0,0.0,0.0,-0.05881759579220891
1666090022144175665,0.4733710902510211,0.0,0.0,0.0,0.0,-0.06824237375297829
1666090022144203744,0.4819002990843728,0.0,0.0,0.0,0.0,-0.05864306286700947
1666090022188126252,0.49042950791772455,0.0,0.0,0.0,0.0,-0.07103490055616922
1666090022188147477,0.48616490350104874,0.0,0.0,0.0,0.0,-0.06859143960337716
1666090022232136608,0.4819002990843728,0.0,0.0,0.0,0.0,-0.07033676885537149
1666090022232166012,0.49682641454273835,0.0,0.0,0.0,0.0,-0.0609119908946021
1666090022276097521,0.5032233211677521,0.0,0.0,0.0,0.0,-0.046949356878647465
1666090022276116044,0.5138848322094418,0.0,0.0,0.0,0.0,-0.031415926535897934
1666090022276121126,0.5181494366261178,0.0,0.0,0.0,0.0,-0.035255650890285456
1666090022320203178,0.5096202277927661,0.0,0.0,0.0,0.0,-0.04223696789826277
1666090022320232880,0.5245463432511316,0.0,0.0,0.0,0.0,-0.04363323129985824
1666090022334372004,0.5245463432511316,0.0,0.0,0.0,0.0,-0.03892084231947355
1666090022352355478,0.5245463432511316,0.0,0.0,0.0,0.0,-0.027925268031909273
1666090022396373700,0.5394724587094971,0.0,0.0,0.0,0.0,-0.025132741228718346
1666090022396444649,0.5373401565011591,0.0,0.0,0.0,0.0,-0.026529004630313806
1666090022440149408,0.5458693653345108,0.0,0.0,0.0,0.0,-0.02949606435870417
1666090022440174657,0.5565308763762006,0.0,0.0,0.0,0.0,-0.022165681500327987
1666090022484091979,0.5565308763762006,0.0,0.0,0.0,0.0,-0.01832595714594046
1666090022484116066,0.5607954807928763,0.0,0.0,0.0,0.0,-0.031241393610698498
1666090022532073213,0.5543985741678626,0.0,0.0,0.0,0.0,-0.032637657012293965
1666090022532086320,0.5565308763762006,0.0,0.0,0.0,0.0,-0.024260076602721177
1666090022576143510,0.5693246896262281,0.0,0.0,0.0,0.0,-0.033859387488689996
1666090022576161449,0.5714569918345661,0.0,0.0,0.0,0.0,-0.034557519189487726
1666090022576173125,0.5778538984595799,0.0,0.0,0.0,0.0,-0.03577924966588375
1666090022624121030,0.5778538984595799,0.0,0.0,0.0,0.0,-0.010821041362364843
1666090022624136669,0.5799862006679177,0.0,0.0,0.0,0.0,-0.02234021442552742
1666090022633835793,0.5863831072929316,0.0,0.0,0.0,0.0,-0.032463124087094536
1666090022653472168,0.5927800139179454,0.0,0.0,0.0,0.0,-0.013264502315156903
1666090022700162592,0.5842508050845936,0.0,0.0,0.0,0.0,-0.020594885173533087
1666090022700192151,0.5885154095012695,0.0,0.0,0.0,0.0,-0.05707226654021458
1666090022748153310,0.5949123161262834,0.0,0.0,0.0,0.0,-0.06492624817418907
1666090022748179391,0.6098384315846489,0.0,0.0,0.0,0.0,-0.025132741228718346
1666090022796111296,0.607706129376311,0.0,0.0,0.0,0.0,-0.023212879051524585
1666090022796124942,0.607706129376311,0.0,0.0,0.0,0.0,-0.01937315469713706
1666090022796139293,0.603441524959635,0.0,0.0,0.0,0.0,-0.01064650843716541
1666090022845395903,0.6141030360013247,0.0,0.0,0.0,0.0,0.010471975511965976
1666090022845427299,0.6226322448346764,0.0,0.0,0.0,0.0,-0.008726646259971648
1666090022853404236,0.6247645470430144,0.0,0.0,0.0,0.0,-0.022165681500327987
1666090022875784325,0.6204999426263385,0.0,0.0,0.0,0.0,-0.008726646259971648
1666090022920493321,0.6332937558763662,0.0,0.0,0.0,0.0,0.015707963267948967
1666090022920562743,0.6375583602930419,0.0,0.0,0.0,0.0,0.0020943951023931952
1666090022968172899,0.6418229647097178,0.0,0.0,0.0,0.0,-0.0013962634015954637
1666090022968198199,0.6332937558763662,0.0,0.0,0.0,0.0,0.011868238913561443
1666090023012050538,0.6226322448346764,0.0,0.0,0.0,0.0,0.012391837689159739
1666090023012066787,0.6311614536680282,0.0,0.0,0.0,0.0,0.012042771838760872
1666090023056336943,0.6268968492513523,0.0,0.0,0.0,0.0,-0.015009831567151233
1666090023056386177,0.6311614536680282,0.0,0.0,0.0,0.0,-0.021642082724729686
1666090023056415342,0.6332937558763662,0.0,0.0,0.0,0.0,-0.024434609527920613
1666090023100095382,0.6332937558763662,0.0,0.0,0.0,0.0,-0.022863813201125717
1666090023100108286,0.6268968492513523,0.0,0.0,0.0,0.0,-0.022165681500327987
1666090023113594863,0.6226322448346764,0.0,0.0,0.0,0.0,-0.02129301687433082
1666090023133944178,0.6098384315846489,0.0,0.0,0.0,0.0,-0.046774823953448036
1666090023180379902,0.6162353382096627,0.0,0.0,0.0,0.0,-0.034208453339088854
1666090023180446056,0.6204999426263385,0.0,0.0,0.0,0.0,-0.01832595714594046
1666090023228085833,0.6290291514596902,0.0,0.0,0.0,0.0,-0.03316125578789226
1666090023228099276,0.6204999426263385,0.0,0.0,0.0,0.0,-0.07086036763096977
1666090023272191495,0.6204999426263385,0.0,0.0,0.0,0.0,-0.08115781021773633
1666090023272213702,0.6162353382096627,0.0,0.0,0.0,0.0,-0.07295476273336296
1666090023316161713,0.6162353382096627,0.0,0.0,0.0,0.0,-0.08517206749732328
1666090023316186665,0.6204999426263385,0.0,0.0,0.0,0.0,-0.09564404300928928
1666090023316201240,0.6162353382096627,0.0,0.0,0.0,0.0,-0.07766715171374766
1666090023360507812,0.6119707337929867,0.0,0.0,0.0,0.0,-0.07260569688296412
1666090023360572542,0.6226322448346764,0.0,0.0,0.0,0.0,-0.04921828490624009
1666090023375803187,0.6204999426263385,0.0,0.0,0.0,0.0,-0.05026548245743669
1666090023395104362,0.6268968492513523,0.0,0.0,0.0,0.0,-0.030717794835100197
1666090023440243735,0.6247645470430144,0.0,0.0,0.0,0.0,-0.033335788713091695
1666090023440284984,0.6226322448346764,0.0,0.0,0.0,0.0,-0.03787364476827695
1666090023488132358,0.6290291514596902,0.0,0.0,0.0,0.0,-0.01780235837034216
1666090023488149206,0.6290291514596902,0.0,0.0,0.0,0.0,-0.02076941809873252
1666090023540401900,0.6311614536680282,0.0,0.0,0.0,0.0,-0.012042771838760872
1666090023540436973,0.6247645470430144,0.0,0.0,0.0,0.0,-0.038571776469074684
1666090023580711365,0.6311614536680282,0.0,0.0,0.0,0.0,-0.02530727415391778
1666090023580733630,0.6268968492513523,0.0,0.0,0.0,0.0,-0.0038397243543875246
1666090023580753394,0.6247645470430144,0.0,0.0,0.0,0.0,-0.019896753472735354
1666090023624112088,0.6141030360013247,0.0,0.0,0.0,0.0,-0.014486232791552934
1666090023624137631,0.6268968492513523,0.0,0.0,0.0,0.0,-0.014486232791552934
1666090023635009751,0.6268968492513523,0.0,0.0,0.0,0.0,-0.012217304763960306
1666090023654317764,0.635426058084704,0.0,0.0,0.0,0.0,-0.0054105206811824215
1666090023696170397,0.6268968492513523,0.0,0.0,0.0,0.0,-0.015358897417550098
1666090023696204772,0.6290291514596902,0.0,0.0,0.0,0.0,-0.012217304763960306
1666090023744243805,0.6332937558763662,0.0,0.0,0.0,0.0,-0.012217304763960306
1666090023744290754,0.6247645470430144,0.0,0.0,0.0,0.0,-0.006108652381980153
1666090023788065598,0.603441524959635,0.0,0.0,0.0,0.0,-0.01972222054753592
1666090023788080221,0.5885154095012695,0.0,0.0,0.0,0.0,-0.02775073510670984
1666090023832057292,0.6119707337929867,0.0,0.0,0.0,0.0,-0.01361356816555577
1666090023832068088,0.6141030360013247,0.0,0.0,0.0,0.0,-0.04328416544945937
1666090023876846182,0.5991769205429591,0.0,0.0,0.0,0.0,-0.10053096491487339
1666090023876874178,0.5885154095012695,0.0,0.0,0.0,0.0,-0.1275835683207855
1666090023876881001,0.5970446183346212,0.0,0.0,0.0,0.0,-0.06928957130417489
1666090023920145873,0.5906477117096074,0.0,0.0,0.0,0.0,-0.03665191429188092
1666090023920169700,0.5330755520844833,0.0,0.0,0.0,0.0,-0.10088003076527224
1666090023934183676,0.5394724587094971,0.0,0.0,0.0,0.0,-0.09896016858807849
1666090023954886891,0.5714569918345661,0.0,0.0,0.0,0.0,-0.1244419756671957
1666090024000304361,0.5650600852095522,0.0,0.0,0.0,0.0,-0.23684117949563052
1666090024000342107,0.5416047609178349,0.0,0.0,0.0,0.0,-0.3206169835913583
1666090024044341823,0.5096202277927661,0.0,0.0,0.0,0.0,-0.3361504139341079
1666090024044389746,0.5309432498761453,0.0,0.0,0.0,0.0,-0.3352777493081107
1666090024088139763,0.5437370631261729,0.0,0.0,0.0,0.0,-0.3171263250873697
1666090024088186082,0.5373401565011591,0.0,0.0,0.0,0.0,-0.41102503884466457
1666090024132204007,0.5224140410427935,0.0,0.0,0.0,0.0,-0.46024332375090476
1666090024132223772,0.5309432498761453,0.0,0.0,0.0,0.0,-0.4347615166717875
1666090024176195677,0.5309432498761453,0.0,0.0,0.0,0.0,-0.420449816805434
1666090024176225655,0.5266786454594694,0.0,0.0,0.0,0.0,-0.48467793327882525
1666090024176241755,0.5224140410427935,0.0,0.0,0.0,0.0,-0.5450663253978292
1666090024220067387,0.5160171344177797,0.0,0.0,0.0,0.0,-0.533721685259866
1666090024220082899,0.5117525300011039,0.0,0.0,0.0,0.0,-0.5298819609054785
1666090024234201027,0.5160171344177797,0.0,0.0,0.0,0.0,-0.502305758723968
1666090024253982740,0.5160171344177797,0.0,0.0,0.0,0.0,-0.4984660343695805
1666090024296179893,0.5330755520844833,0.0,0.0,0.0,0.0,-0.5178391890667177
1666090024296205437,0.5224140410427935,0.0,0.0,0.0,0.0,-0.5445427266222308
1666090024340180944,0.5096202277927661,0.0,0.0,0.0,0.0,-0.5276130328778859
1666090024340211242,0.5053556233760901,0.0,0.0,0.0,0.0,-0.5309291584566751
1666090024384142292,0.5117525300011039,0.0,0.0,0.0,0.0,-0.5345943498858631
1666090024384163932,0.5202817388344556,0.0,0.0,0.0,0.0,-0.5536184387326013
1666090024428189585,0.5160171344177797,0.0,0.0,0.0,0.0,-0.5935864786032714
1666090024428235972,0.5160171344177797,0.0,0.0,0.0,0.0,-0.6077236455444255
1666090024472293318,0.5181494366261178,0.0,0.0,0.0,0.0,-0.5914920835008783
1666090024472340935,0.5160171344177797,0.0,0.0,0.0,0.0,-0.592190215201676
1666090024516128619,0.5181494366261178,0.0,0.0,0.0,0.0,-0.6227334771115768
1666090024516147967,0.5010910189594143,0.0,0.0,0.0,0.0,-0.631285590446349
1666090024516153076,0.5032233211677521,0.0,0.0,0.0,0.0,-0.6007423285364483
1666090024560083333,0.5010910189594143,0.0,0.0,0.0,0.0,-0.5893976883984852
1666090024560096166,0.4563126725843177,0.0,0.0,0.0,0.0,-0.6007423285364483
1666090024574903659,0.46057727700099355,0.0,0.0,0.0,0.0,-0.6305874587455513
1666090024594497898,0.4691064858343453,0.0,0.0,0.0,0.0,-0.6492624817418906
1666090024636321076,0.47976799687603494,0.0,0.0,0.0,0.0,-0.6578145950766627
1666090024636358309,0.4627095792093315,0.0,0.0,0.0,0.0,-0.6633996486830446
1666090024684246381,0.4307250460842625,0.0,0.0,0.0,0.0,-0.6501351463678877
1666090024684280937,0.44138655712595215,0.0,0.0,0.0,0.0,-0.6520550085450816
1666090024728079090,0.4563126725843177,0.0,0.0,0.0,0.0,-0.6855653301833726
1666090024728097017,0.4243281394592487,0.0,0.0,0.0,0.0,-0.7117452689632876
1666090024776290745,0.41153432620922104,0.0,0.0,0.0,0.0,-0.7031931556285154
1666090024776370393,0.41153432620922104,0.0,0.0,0.0,0.0,-0.7185520530460655
1666090024776407000,0.42646044166758657,0.0,0.0,0.0,0.0,-0.7236135078768491
1666090024820184537,0.4179312328342349,0.0,0.0,0.0,0.0,-0.7483971832551686
1666090024820211467,0.40300511737586936,0.0,0.0,0.0,0.0,-0.7475245186291712
1666090024834736089,0.41153432620922104,0.0,0.0,0.0,0.0,-0.711919801888487
1666090024855232032,0.39447590854251763,0.0,0.0,0.0,0.0,-0.6995279641993273
1666090024896111627,0.39447590854251763,0.0,0.0,0.0,0.0,-0.6923721142661505
1666090024896134243,0.3923436063341797,0.0,0.0,0.0,0.0,-0.6787585461005948
1666090024940160703,0.3731528864591383,0.0,0.0,0.0,0.0,-0.6424556976591127
1666090024940184853,0.36249137541744864,0.0,0.0,0.0,0.0,-0.6396631708559217
1666090024984143050,0.3560944687924348,0.0,0.0,0.0,0.0,-0.6682865705886287
1666090024984171880,0.3710205842508003,0.0,0.0,0.0,0.0,-0.6791076119509936
1666090025028339036,0.3646236776257865,0.0,0.0,0.0,0.0,-0.6747442888210077
1666090025028387426,0.24308245175052437,0.0,0.0,0.0,0.0,-0.6700318998406231
1666090025072086968,0.1876425943337381,0.0,0.0,0.0,0.0,-0.6766641509982017
1666090025072099566,0.10448280820855872,0.0,0.0,0.0,0.0,-0.706683814132504
1666090025116169382,0.12154122587526218,0.0,0.0,0.0,0.0,-0.7424630637983878
1666090025116190146,0.16631957225035876,0.0,0.0,0.0,0.0,-0.7431611954991855
1666090025116194953,0.059704461833462126,0.0,0.0,0.0,0.0,-0.6791076119509936
1666090025160118014,0.03838143975008279,0.0,0.0,0.0,0.0,-0.6400122367063207
1666090025160144734,0.051175253000110395,0.0,0.0,0.0,0.0,-0.6230825429619757
1666090025174878815,0.0703659728751518,0.0,0.0,0.0,0.0,-0.605105651666434
1666090025195502740,0.07249827508348972,0.0,0.0,0.0,0.0,-0.4647811798060899
1666090025236325428,0.06396906625013798,0.0,0.0,0.0,0.0,-0.3651228795172138
1666090025236419680,0.059704461833462126,0.0,0.0,0.0,0.0,-0.334579617607313
1666090025284263094,0.05330755520844832,0.0,0.0,0.0,0.0,-0.35150931135165797
1666090025284289626,0.042646044166758657,0.0,0.0,0.0,0.0,-0.3684390050960029
1666090025328170985,0.04051374195842073,0.0,0.0,0.0,0.0,-0.3832743037379548
1666090025328179874,-0.019190719875041395,0.0,0.0,0.0,0.0,-0.3899065548955332
1666090025372134607,-0.004264604416675866,0.0,0.0,0.0,0.0,-0.39426987802551905
1666090025372153472,-0.002132302208337933,0.0,0.0,0.0,0.0,-0.36704274169440754
1666090025416223422,-0.014926115458365532,0.0,0.0,0.0,0.0,-0.29513517651224114
1666090025416266000,-0.02345532429171726,0.0,0.0,0.0,0.0,-0.21642082724729686
1666090025416284395,-0.019190719875041395,0.0,0.0,0.0,0.0,-0.14748032179352083
1666090025460266468,-0.017058417666703463,0.0,0.0,0.0,0.0,-0.07295476273336296
1666090025460286690,-0.006396906625013799,0.0,0.0,0.0,0.0,-0.007679448708775049
1666090025475283662,0.0,0.0,0.0,0.0,0.0,0.03316125578789226
1666090025495172560,0.0,0.0,0.0,0.0,0.0,0.03822271061867582
1666090025536491166,0.0,0.0,0.0,0.0,0.0,0.04625122517784973
1666090025536540086,0.0,0.0,0.0,0.0,0.0,0.02757620218151041
1666090025580218265,0.0,0.0,0.0,0.0,0.0,0.017104226669544427
1666090025580245902,0.002132302208337933,0.0,0.0,0.0,0.0,0.015358897417550098
1666090025624728138,0.0,0.0,0.0,0.0,0.0,-0.0010471975511965976
1666090025624793687,0.010661511041689664,0.0,0.0,0.0,0.0,-0.0012217304763960308
1666090025668097276,0.006396906625013799,0.0,0.0,0.0,0.0,0.005235987755982988
1666090025668112920,0.008529208833351731,0.0,0.0,0.0,0.0,0.006806784082777885
1666090025712219720,0.008529208833351731,0.0,0.0,0.0,0.0,0.0038397243543875246
1666090025712238385,0.0,0.0,0.0,0.0,0.0,-0.005061454830783556
1666090025760214233,0.0,0.0,0.0,0.0,0.0,-0.0022689280275926286
1666090025760242706,0.0,0.0,0.0,0.0,0.0,0.017278759594743863
1666090025760272948,0.0,0.0,0.0,0.0,0.0,0.02897246558310587
1666090025804248679,-0.004264604416675866,0.0,0.0,0.0,0.0,0.028623399732707
1666090025804277732,-0.002132302208337933,0.0,0.0,0.0,0.0,0.032463124087094536
1666090025815499323,-0.002132302208337933,0.0,0.0,0.0,0.0,0.022165681500327987
1666090025836920408,0.0,0.0,0.0,0.0,0.0,0.009599310885968814
1666090025880204407,0.002132302208337933,0.0,0.0,0.0,0.0,0.012740903539558606
1666090025880235791,-0.002132302208337933,0.0,0.0,0.0,0.0,0.020943951023931952
1666090025924133793,0.0,0.0,0.0,0.0,0.0,0.024434609527920613
1666090025924149527,0.002132302208337933,0.0,0.0,0.0,0.0,0.02129301687433082
1666090025968099680,-0.002132302208337933,0.0,0.0,0.0,0.0,0.023561944901923447
1666090025968115556,0.008529208833351731,0.0,0.0,0.0,0.0,0.0497418836818384
1666090026012547628,0.012793813250027599,0.0,0.0,0.0,0.0,0.07714355293814937
1666090026012583505,0.010661511041689664,0.0,0.0,0.0,0.0,0.08639379797371932
1666090026056178902,0.0,0.0,0.0,0.0,0.0,0.08133234314293576
1666090026056220942,0.004264604416675866,0.0,0.0,0.0,0.0,0.08342673824532895
1666090026056233271,0.002132302208337933,0.0,0.0,0.0,0.0,0.11903145498601327
1666090026104275622,0.002132302208337933,0.0,0.0,0.0,0.0,0.14538592669112765
1666090026104308769,-0.002132302208337933,0.0,0.0,0.0,0.0,0.1434660645139339
1666090026115385604,0.004264604416675866,0.0,0.0,0.0,0.0,0.1551597705022959
1666090026135308069,0.004264604416675866,0.0,0.0,0.0,0.0,0.17191493132144145
1666090026176098078,0.004264604416675866,0.0,0.0,0.0,0.0,0.1858775653373961
1666090026176126913,0.004264604416675866,0.0,0.0,0.0,0.0,0.1864011641129944
1666090026220165077,0.0,0.0,0.0,0.0,0.0,0.1816887751326097
