%time,field.linear.x,field.linear.y,field.linear.z,field.angular.x,field.angular.y,field.angular.z
1666090016863821850,0.015,0.0,0.0,0.0,0.0,-0.05691593398952048
1666090016912020986,0.03,0.0,0.0,0.0,0.0,-0.11383186797904096
1666090016965391232,0.045,0.0,0.0,0.0,0.0,-0.17053681237632026
1666090017012174506,0.06,0.0,0.0,0.0,0.0,-0.22724175677359956
1666090017064697315,0.075,0.0,0.0,0.0,0.0,-0.28439849378151594
1666090017112582662,0.09,0.0,0.0,0.0,0.0,-0.3415552307894323
1666090017162649692,0.105,0.0,0.0,0.0,0.0,-0.3970218858060379
1666090017212182808,0.12,0.0,0.0,0.0,0.0,-0.4524885408226436
1666090017262217210,0.135,0.0,0.0,0.0,0.0,-0.5089231286813756
1666090017313107904,0.14574314432241856,0.0,0.0,0.0,0.0,-0.6089231286813755
1666090017362362900,0.16074314432241854,0.0,0.0,0.0,0.0,-0.6627321469197622
1666090017412043098,0.17574314432241855,0.0,0.0,0.0,0.0,-0.7165411651581489
1666090017462516602,0.19074314432241857,0.0,0.0,0.0,0.0,-0.7699109249477256
1666090017512127774,0.20574314432241858,0.0,0.0,0.0,0.0,-0.8232806847373022
1666090017564308011,0.2207431443224186,0.0,0.0,0.0,0.0,-0.8762153123350707
1666090017612070866,0.2357431443224186,0.0,0.0,0.0,0.0,-0.929149939932839
1666090017662999220,0.2507431443224186,0.0,0.0,0.0,0.0,-0.9822835986872952
1666090017713484061,0.26574314432241863,0.0,0.0,0.0,0.0,-1.0354172574417515
1666090017762183165,0.24064523861687023,0.0,0.0,0.0,0.0,-1.1354172574417516
1666090017812216772,0.21898242831230158,0.0,0.0,0.0,0.0,-1.2217304763960313
1666090017862405329,0.2339824283123016,0.0,0.0,0.0,0.0,-1.2217304763960313
1666090017912131363,0.2489824283123016,0.0,0.0,0.0,0.0,-1.2217304763960313
1666090017962378351,0.2639824283123016,0.0,0.0,0.0,0.0,-1.2217304763960313
1666090018012081120,0.27898242831230163,0.0,0.0,0.0,0.0,-1.2217304763960313
1666090018063185343,0.29398242831230165,0.0,0.0,0.0,0.0,-1.2217304763960313
1666090018112302159,0.30898242831230166,0.0,0.0,0.0,0.0,-1.2217304763960313
1666090018162348139,0.3239824283123017,0.0,0.0,0.0,0.0,-1.179960071140508
1666090018212084893,0.3389824283123017,0.0,0.0,0.0,0.0,-1.1381896658849848
1666090018262345231,0.3539824283123017,0.0,0.0,0.0,0.0,-1.0981296741045692
1666090018313117215,0.3689824283123017,0.0,0.0,0.0,0.0,-1.0580696823241535
1666090018362060949,0.3703756332397461,0.0,0.0,0.0,0.0,-1.0471975511965983
1666090018412726998,0.22037563323974607,0.0,0.0,0.0,0.0,-0.9341044173890349
1666090018462781431,0.07037563323974605,0.0,0.0,0.0,0.0,-0.8210112835814717
1666090018516391404,0.0,0.0,0.0,0.0,0.0,-0.7270532164844838
1666090018562527575,0.0,0.0,0.0,0.0,0.0,-0.7270532164844838
1666090018613118724,0.0,0.0,0.0,0.0,0.0,-0.6981317007977323
1666090018662408201,0.0,0.0,0.0,0.0,0.0,-0.6981317007977323
1666090018712273450,0.0,0.0,0.0,0.0,0.0,-0.5866117260117643
1666090018762081331,0.0,0.0,0.0,0.0,0.0,-0.5235987755982994
1666090018813411857,0.0,0.0,0.0,0.0,0.0,-0.5235987755982994
1666090018862042756,0.0,0.0,0.0,0.0,0.0,-0.42076693876368615
1666090018913524724,0.0,0.0,0.0,0.0,0.0,-0.34983085900983873
1666090018962358756,0.0,0.0,0.0,0.0,0.0,-0.34983085900983873
1666090019012270323,0.0,0.0,0.0,0.0,0.0,-0.27594319759728486
1666090019062247215,0.015,0.0,0.0,0.0,0.0,-0.26984902663528243
1666090019112570362,0.03,0.0,0.0,0.0,0.0,-0.26375485567328
1666090019162259065,0.045,0.0,0.0,0.0,0.0,-0.25735182872941353
1666090019212109240,0.06,0.0,0.0,0.0,0.0,-0.25094880178554707
1666090019262478215,0.075,0.0,0.0,0.0,0.0,-0.2445363686935739
1666090019312124680,0.09,0.0,0.0,0.0,0.0,-0.23812393560160072
1666090019362181658,0.105,0.0,0.0,0.0,0.0,-0.23148145031137907
1666090019412230426,0.12,0.0,0.0,0.0,0.0,-0.22467364535703427
1666090019461996588,0.135,0.0,0.0,0.0,0.0,-0.21786584040268947
1666090019512202552,0.15000000000000002,0.0,0.0,0.0,0.0,-0.21129182511616984
1666090019562208498,0.16500000000000004,0.0,0.0,0.0,0.0,-0.2047178098296502
1666090019612209213,0.18000000000000005,0.0,0.0,0.0,0.0,-0.198377639410505
1666090019662296703,0.19500000000000006,0.0,0.0,0.0,0.0,-0.18299839561845835
1666090019712926509,0.21000000000000008,0.0,0.0,0.0,0.0,-0.17816216982100994
1666090019761995963,0.2250000000000001,0.0,0.0,0.0,0.0,-0.17332594402356152
1666090019812246802,0.07500000000000007,0.0,0.0,0.0,0.0,-0.2576620810482627
1666090019862378886,0.0,0.0,0.0,0.0,0.0,-0.2998301495606134
1666090019912306380,0.0,0.0,0.0,0.0,0.0,-0.2998301495606134
1666090019962171376,0.0,0.0,0.0,0.0,0.0,-0.3729342536321488
1666090020013053902,0.0,0.0,0.0,0.0,0.0,-0.4128305146479991
1666090020062275206,0.0,0.0,0.0,0.0,0.0,-0.4128305146479991
1666090020112569997,0.0,0.0,0.0,0.0,0.0,-0.458244347066195
1666090020162096266,0.0,0.0,0.0,0.0,0.0,-0.458244347066195
1666090020212602173,0.0,0.0,0.0,0.0,0.0,-0.458244347066195
1666090020262336645,0.015,0.0,0.0,0.0,0.0,-0.44706063835139576
1666090020312080679,0.03,0.0,0.0,0.0,0.0,-0.4362411857666862
1666090020364407924,0.045,0.0,0.0,0.0,0.0,-0.4257565520931412
1666090020412381856,0.06,0.0,0.0,0.0,0.0,-0.41527191841959626
1666090020463238855,0.075,0.0,0.0,0.0,0.0,-0.4054926707603424
1666090020512281012,0.09,0.0,0.0,0.0,0.0,-0.39571342310108854
1666090020562042141,0.105,0.0,0.0,0.0,0.0,-0.38593417544183467
1666090020612276928,0.12,0.0,0.0,0.0,0.0,-0.36892716533678716
1666090020662109935,0.135,0.0,0.0,0.0,0.0,-0.3519201552317396
1666090020712137947,0.15000000000000002,0.0,0.0,0.0,0.0,-0.34522625725720013
1666090020762125340,0.16500000000000004,0.0,0.0,0.0,0.0,-0.3385323592826607
1666090020813219236,0.18000000000000005,0.0,0.0,0.0,0.0,-0.32551572550613334
1666090020862112986,0.19500000000000006,0.0,0.0,0.0,0.0,-0.3209449789346832
1666090020912549761,0.21000000000000008,0.0,0.0,0.0,0.0,-0.31150422893305907
1666090020963662906,0.2250000000000001,0.0,0.0,0.0,0.0,-0.30847902737325733
1666090021012209067,0.2400000000000001,0.0,0.0,0.0,0.0,-0.3014280251731477
1666090021062215551,0.2550000000000001,0.0,0.0,0.0,0.0,-0.2943770229730381
1666090021112790972,0.27000000000000013,0.0,0.0,0.0,0.0,-0.2927954869970385
1666090021162301395,0.28500000000000014,0.0,0.0,0.0,0.0,-0.2915531027431392
1666090021212207405,0.30000000000000016,0.0,0.0,0.0,0.0,-0.29060233709780264
1666090021262117710,0.31500000000000017,0.0,0.0,0.0,0.0,-0.28965157145246606
1666090021313906871,0.3300000000000002,0.0,0.0,0.0,0.0,-0.2887008058071295
1666090021362109431,0.3450000000000002,0.0,0.0,0.0,0.0,-0.2845479056583915
1666090021412688431,0.3600000000000002,0.0,0.0,0.0,0.0,-0.2868205761101554
1666090021462120381,0.3750000000000002,0.0,0.0,0.0,0.0,-0.28909324656191926
1666090021512209911,0.39000000000000024,0.0,0.0,0.0,0.0,-0.2912099266973409
1666090021562069593,0.40500000000000025,0.0,0.0,0.0,0.0,-0.29332660683276257
1666090021612682530,0.42000000000000026,0.0,0.0,0.0,0.0,-0.2954432869681842
1666090021662203905,0.4350000000000003,0.0,0.0,0.0,0.0,-0.2975599671036059
1666090021712165466,0.4500000000000003,0.0,0.0,0.0,0.0,-0.29967664723902754
1666090021762567371,0.4650000000000003,0.0,0.0,0.0,0.0,-0.3017933273744492
1666090021812139876,0.4800000000000003,0.0,0.0,0.0,0.0,-0.30391000750987085
1666090021862773712,0.49500000000000033,0.0,0.0,0.0,0.0,-0.3060266876452925
1666090021912107438,0.5100000000000003,0.0,0.0,0.0,0.0,-0.30814336778071416
1666090021962440710,0.5250000000000004,0.0,0.0,0.0,0.0,-0.3102600479161358
1666090022012309828,0.5400000000000004,0.0,0.0,0.0,0.0,-0.3123767280515575
1666090022062034440,0.5550000000000004,0.0,0.0,0.0,0.0,-0.32456261541002335
1666090022112079885,0.5700000000000004,0.0,0.0,0.0,0.0,-0.3367485027684892
1666090022162281354,0.5850000000000004,0.0,0.0,0.0,0.0,-0.3375518080487312
1666090022212071002,0.6000000000000004,0.0,0.0,0.0,0.0,-0.33835511332897317
1666090022262199366,0.6150000000000004,0.0,0.0,0.0,0.0,-0.3522483879991727
1666090022313821093,0.6300000000000004,0.0,0.0,0.0,0.0,-0.3519903444099587
1666090022362119956,0.6450000000000005,0.0,0.0,0.0,0.0,-0.35173230082074464
1666090022412099954,0.6600000000000005,0.0,0.0,0.0,0.0,-0.3514742572315306
1666090022462300438,0.6750000000000005,0.0,0.0,0.0,0.0,-0.3512162136423166
1666090022513014963,0.6900000000000005,0.0,0.0,0.0,0.0,-0.3509581700531026
1666090022562364117,0.7050000000000005,0.0,0.0,0.0,0.0,-0.35070012646388854
1666090022612309549,0.7200000000000005,0.0,0.0,0.0,0.0,-0.3504420828746745
1666090022662154331,0.7350000000000005,0.0,0.0,0.0,0.0,-0.3501840392854605
1666090022712098966,0.7500000000000006,0.0,0.0,0.0,0.0,-0.34992599569624644
1666090022762319340,0.7650000000000006,0.0,0.0,0.0,0.0,-0.34966795210703244
1666090022812279589,0.7800000000000006,0.0,0.0,0.0,0.0,-0.42420973360329106
1666090022862252120,0.7950000000000006,0.0,0.0,0.0,0.0,-0.49875151509954974
1666090022913865708,0.7975077717640254,0.0,0.0,0.0,0.0,-0.5987515150995497
1666090022962164835,0.7999999999999999,0.0,0.0,0.0,0.0,-0.6981317007977323
1666090023012035692,0.7999999999999999,0.0,0.0,0.0,0.0,-0.6981317007977323
1666090023062114453,0.7999999999999999,0.0,0.0,0.0,0.0,-0.7981317007977323
1666090023112192185,0.7999999999999999,0.0,0.0,0.0,0.0,-0.8726646259971653
1666090023162093046,0.7999999999999999,0.0,0.0,0.0,0.0,-0.8726646259971653
1666090023213304270,0.7999999999999999,0.0,0.0,0.0,0.0,-0.8726646259971653
1666090023262244686,0.7999999999999999,0.0,0.0,0.0,0.0,-0.8726646259971653
1666090023312293133,0.7999999999999999,0.0,0.0,0.0,0.0,-0.8726646259971653
1666090023363171485,0.7999999999999999,0.0,0.0,0.0,0.0,-0.8726646259971653
1666090023412151340,0.7999999999999999,0.0,0.0,0.0,0.0,-0.8726646259971653
1666090023462168128,0.7999999999999999,0.0,0.0,0.0,0.0,-0.8726646259971653
1666090023512348478,0.7999999999999999,0.0,0.0,0.0,0.0,-0.8726646259971653
1666090023562007681,0.7999999999999999,0.0,0.0,0.0,0.0,-0.8726646259971653
1666090023612326034,0.7999999999999999,0.0,0.0,0.0,0.0,-0.8726646259971653
1666090023662702768,0.7999999999999999,0.0,0.0,0.0,0.0,-0.8726646259971653
1666090023712682834,0.7225467562675475,0.0,0.0,0.0,0.0,-0.8726646259971653
1666090023762439851,0.7375467562675475,0.0,0.0,0.0,0.0,-0.9177206130738327
1666090023812225824,0.7525467562675475,0.0,0.0,0.0,0.0,-0.9627766001505
1666090023862293864,0.6438710689544678,0.0,0.0,0.0,0.0,-1.0471975511965983
1666090023912083167,0.6438710689544678,0.0,0.0,0.0,0.0,-1.0471975511965983
1666090023962493075,0.601950705051422,0.0,0.0,0.0,0.0,-1.0471975511965983
1666090024012681067,0.6035854816436768,0.0,0.0,0.0,0.0,-1.0471975511965983
1666090024062244708,0.6035854816436768,0.0,0.0,0.0,0.0,-1.0471975511965983
1666090024112515787,0.6185854816436768,0.0,0.0,0.0,0.0,-1.0471975511965983
1666090024162003947,0.6060365438461304,0.0,0.0,0.0,0.0,-1.0471975511965983
1666090024212558494,0.6060365438461304,0.0,0.0,0.0,0.0,-1.0471975511965983
1666090024264861765,0.5741685032844543,0.0,0.0,0.0,0.0,-1.0471975511965983
1666090024312391688,0.5745238661766052,0.0,0.0,0.0,0.0,-1.0471975511965983
1666090024362078695,0.5745238661766052,0.0,0.0,0.0,0.0,-1.0471975511965983
1666090024413406681,0.5745238661766052,0.0,0.0,0.0,0.0,-1.0471975511965983
1666090024462132946,0.5594157576560974,0.0,0.0,0.0,0.0,-1.0471975511965983
1666090024512206446,0.5071007013320923,0.0,0.0,0.0,0.0,-1.0471975511965983
1666090024562127113,0.5071007013320923,0.0,0.0,0.0,0.0,-1.0471975511965983
1666090024612328897,0.47699889540672297,0.0,0.0,0.0,0.0,-1.0471975511965983
1666090024662058660,0.448975145816803,0.0,0.0,0.0,0.0,-1.0471975511965983
1666090024712102964,0.4483354687690735,0.0,0.0,0.0,0.0,-0.8726646259971653
1666090024762021714,0.4483354687690735,0.0,0.0,0.0,0.0,-0.8726646259971653
1666090024812540694,0.4207949042320251,0.0,0.0,0.0,0.0,-0.8726646259971653
1666090024862000657,0.3834896385669708,0.0,0.0,0.0,0.0,-0.8726646259971653
1666090024912121828,0.3834896385669708,0.0,0.0,0.0,0.0,-0.8726646259971653
1666090024962246030,0.2334896385669708,0.0,0.0,0.0,0.0,-0.7606934955346609
1666090025012226597,0.08348963856697078,0.0,0.0,0.0,0.0,-0.6487223650721565
1666090025062292519,0.0,0.0,0.0,0.0,0.0,-0.586399503657159
1666090025112930707,0.0,0.0,0.0,0.0,0.0,-0.5235987755982994
1666090025162099562,0.0,0.0,0.0,0.0,0.0,-0.5235987755982994
1666090025213444218,0.0,0.0,0.0,0.0,0.0,-0.36493157781454005
1666090025262130453,0.0,0.0,0.0,0.0,0.0,-4.996003610813204e-16
1666090025312193190,0.0,0.0,0.0,0.0,0.0,-4.996003610813204e-16
1666090025362122186,0.0,0.0,0.0,0.0,0.0,-4.996003610813204e-16
1666090025412397323,0.0,0.0,0.0,0.0,0.0,-4.996003610813204e-16
1666090025462097807,0.0,0.0,0.0,0.0,0.0,-4.996003610813204e-16
1666090025512579667,0.0,0.0,0.0,0.0,0.0,0.0999999999999995
1666090025562370725,0.0,0.0,0.0,0.0,0.0,0.1999999999999995
1666090025612238770,0.0,0.0,0.0,0.0,0.0,0.2999999999999995
1666090025662093962,0.0,0.0,0.0,0.0,0.0,0.3124982395508394
1666090025712236918,0.0,0.0,0.0,0.0,0.0,0.3124982395508394
1666090025762243273,0.0,0.0,0.0,0.0,0.0,0.39538023491469426
1666090025812066095,0.0,0.0,0.0,0.0,0.0,0.39538023491469426
1666090025862271621,0.0,0.0,0.0,0.0,0.0,0.4953802349146943
1666090025912608178,0.0,0.0,0.0,0.0,0.0,0.5450843597615858
1666090025962174425,0.0,0.0,0.0,0.0,0.0,0.5450843597615858
1666090026016883685,0.0,0.0,0.0,0.0,0.0,0.5951937085104506
1666090026062174292,0.0,0.0,0.0,0.0,0.0,0.5951937085104506
1666090026112447246,0.0,0.0,0.0,0.0,0.0,0.6207715791844378
1666090026162216291,0.0,0.0,0.0,0.0,0.0,0.6283495717293367
1666090026212216504,0.0,0.0,0.0,0.0,0.0,0.6283495717293367
1666090026262276342,0.0,0.0,0.0,0.0,0.0,0.6652712173005536
1666090026312028273,0.0,0.0,0.0,0.0,0.0,0.6652712173005536
1666090026362266234,0.0,0.0,0.0,0.0,0.0,0.6619369074375482
1666090026412194314,0.0,0.0,0.0,0.0,0.0,0.6496332600327539
1666090026462500990,0.0,0.0,0.0,0.0,0.0,0.6496332600327539
1666090026512264218,0.0,0.0,0.0,0.0,0.0,0.6496332600327539
1666090026562656034,0.0,0.0,0.0,0.0,0.0,0.6639010310065304
1666090026612099705,0.0,0.0,0.0,0.0,0.0,0.6639010310065304
1666090026662132067,0.015,0.0,0.0,0.0,0.0,0.635506974556529
1666090026712423733,0.03,0.0,0.0,0.0,0.0,0.6071129181065277
1666090026762150850,0.045,0.0,0.0,0.0,0.0,0.5833706021759029
1666090026812203711,0.06,0.0,0.0,0.0,0.0,0.5627339837120445
1666090026862087257,0.075,0.0,0.0,0.0,0.0,0.5420973652481862
1666090026912489938,0.09,0.0,0.0,0.0,0.0,0.5232948440638746
1666090026962474976,0.105,0.0,0.0,0.0,0.0,0.504492322879563
1666090027012231944,0.12,0.0,0.0,0.0,0.0,0.4871423401060782
1666090027062644812,0.135,0.0,0.0,0.0,0.0,0.4697923573325934
1666090027112135519,0.15000000000000002,0.0,0.0,0.0,0.0,0.45482772325388926
1666090027162117593,0.16500000000000004,0.0,0.0,0.0,0.0,0.43986308917518513
1666090027213544027,0.18000000000000005,0.0,0.0,0.0,0.0,0.424898455096481
1666090027262193305,0.19500000000000006,0.0,0.0,0.0,0.0,0.41021355057821063
1666090027312050074,0.21000000000000008,0.0,0.0,0.0,0.0,0.39552864605994026
1666090027362051304,0.2250000000000001,0.0,0.0,0.0,0.0,0.3860759018106053
1666090027412751625,0.2400000000000001,0.0,0.0,0.0,0.0,0.3705727516771411
1666090027462108193,0.2550000000000001,0.0,0.0,0.0,0.0,0.3605629849312754
1666090027512116349,0.27000000000000013,0.0,0.0,0.0,0.0,0.35055321818540974
1666090027562323746,0.28500000000000014,0.0,0.0,0.0,0.0,0.33325216176787303
1666090027612464489,0.30000000000000016,0.0,0.0,0.0,0.0,0.3160845396010217
1666090027662410647,0.31500000000000017,0.0,0.0,0.0,0.0,0.2989169174341703
1666090027712689074,0.3300000000000002,0.0,0.0,0.0,0.0,0.2892155487406585
1666090027762249206,0.3450000000000002,0.0,0.0,0.0,0.0,0.27951418004714673
1666090027812153859,0.3600000000000002,0.0,0.0,0.0,0.0,0.25910402388105386
1666090027862426976,0.3750000000000002,0.0,0.0,0.0,0.0,0.23715388055069908
1666090027912853490,0.39000000000000024,0.0,0.0,0.0,0.0,0.2144099862120771
1666090027962156525,0.40500000000000025,0.0,0.0,0.0,0.0,0.189423948748714
1666090028012796502,0.42000000000000026,0.0,0.0,0.0,0.0,0.16443791128535085
1666090028062599101,0.4350000000000003,0.0,0.0,0.0,0.0,0.13893730942366156
1666090028112814395,0.4500000000000003,0.0,0.0,0.0,0.0,0.1344960940566486
1666090028162094176,0.4650000000000003,0.0,0.0,0.0,0.0,0.13057742979126857
1666090028212499802,0.4800000000000003,0.0,0.0,0.0,0.0,0.12665876552588853
1666090028262926644,0.49500000000000033,0.0,0.0,0.0,0.0,0.09283518932110149
1666090028312368330,0.5100000000000003,0.0,0.0,0.0,0.0,0.06638791651509302
1666090028363177239,0.5250000000000004,0.0,0.0,0.0,0.0,0.03994064370908453
1666090028413043570,0.5400000000000004,0.0,0.0,0.0,0.0,0.06202163804936701
1666090028462287733,0.5550000000000004,0.0,0.0,0.0,0.0,0.08410263238964949
1666090028512755656,0.5700000000000004,0.0,0.0,0.0,0.0,0.10700338454698335
1666090028562289254,0.5846419930458069,0.0,0.0,0.0,0.0,0.12935756146907806
1666090028612879727,0.5419740676879883,0.0,0.0,0.0,0.0,0.03524528071284294
1666090028662390706,0.5419740676879883,0.0,0.0,0.0,0.0,0.03524528071284294
1666090028712331957,0.5287784934043884,0.0,0.0,0.0,0.0,0.05353255569934845
1666090028762288453,0.5287784934043884,0.0,0.0,0.0,0.0,0.05353255569934845
1666090028812410442,0.5437784934043884,0.0,0.0,0.0,0.0,0.08528254667410923
1666090028862590040,0.5169489979743958,0.0,0.0,0.0,0.0,0.07142897695302963
1666090028912230014,0.5169489979743958,0.0,0.0,0.0,0.0,0.07142897695302963
1666090028962105838,0.4949725568294525,0.0,0.0,0.0,0.0,0.0886634811758995
1666090029012361791,0.4954700767993927,0.0,0.0,0.0,0.0,0.0890020802617073
1666090029062262426,0.4954700767993927,0.0,0.0,0.0,0.0,0.0890020802617073
1666090029112772206,0.47318753600120544,0.0,0.0,0.0,0.0,0.10403099656105042
1666090029165192270,0.47318753600120544,0.0,0.0,0.0,0.0,0.10403099656105042
1666090029212326850,0.4653766453266144,0.0,0.0,0.0,0.0,0.1114032194018364
1666090029262191815,0.4653766453266144,0.0,0.0,0.0,0.0,0.1114032194018364
1666090029312064357,0.46413773245946216,0.0,0.0,0.0,0.0,0.2114032194018364
1666090029362132473,0.46289881959230994,0.0,0.0,0.0,0.0,0.3114032194018364
1666090029412305015,0.4616599067251578,0.0,0.0,0.0,0.0,0.41140321940183644
1666090029462273816,0.4766599067251578,0.0,0.0,0.0,0.0,0.49250855805369664
1666090029513737146,0.4916599067251578,0.0,0.0,0.0,0.0,0.5736138967055568
1666090029562323019,0.48085989324767897,0.0,0.0,0.0,0.0,0.6736138967055568
1666090029612180192,0.4699527535027191,0.0,0.0,0.0,0.0,0.7736138967055568
1666090029662349796,0.4740391671657562,0.0,0.0,0.0,0.0,0.8726646259971643
1666090029712169974,0.47903287410736084,0.0,0.0,0.0,0.0,0.8726646259971643
1666090029762013750,0.47903287410736084,0.0,0.0,0.0,0.0,0.8726646259971643
1666090029812562327,0.49403287410736085,0.0,0.0,0.0,0.0,0.8726646259971643
1666090029862182076,0.4949299395084381,0.0,0.0,0.0,0.0,0.8726646259971643
1666090029912157203,0.4949299395084381,0.0,0.0,0.0,0.0,0.8726646259971643
1666090029962195111,0.5099299395084381,0.0,0.0,0.0,0.0,0.8981442316658844
1666090030012124860,0.514243483543396,0.0,0.0,0.0,0.0,0.8726646259971643
1666090030062490747,0.514243483543396,0.0,0.0,0.0,0.0,0.8726646259971643
1666090030112391723,0.529243483543396,0.0,0.0,0.0,0.0,0.8726646259971643
1666090030162020822,0.5337115526199341,0.0,0.0,0.0,0.0,0.8726646259971643
1666090030212980427,0.5487115526199341,0.0,0.0,0.0,0.0,0.898665390095152
1666090030262068058,0.5637115526199341,0.0,0.0,0.0,0.0,0.9246661541931397
1666090030312249383,0.5547366888416864,0.0,0.0,0.0,0.0,1.0246661541931397
1666090030362239955,0.5697366888416864,0.0,0.0,0.0,0.0,1.028267414155939
1666090030412199851,0.5847366888416864,0.0,0.0,0.0,0.0,1.0318686741187382
1666090030462397291,0.5997366888416864,0.0,0.0,0.0,0.0,1.0354699340815374
1666090030512265037,0.597136378288269,0.0,0.0,0.0,0.0,1.0471975511965972
1666090030562146835,0.6121363782882691,0.0,0.0,0.0,0.0,1.0471975511965972
1666090030612444344,0.6271363782882691,0.0,0.0,0.0,0.0,1.0471975511965972
1666090030662187307,0.6421363782882691,0.0,0.0,0.0,0.0,1.0471975511965972
1666090030712529907,0.6571363782882691,0.0,0.0,0.0,0.0,1.0471975511965972
1666090030762044064,0.6721363782882691,0.0,0.0,0.0,0.0,1.0471975511965972
1666090030812784521,0.6871363782882691,0.0,0.0,0.0,0.0,1.0471975511965972
1666090030862367661,0.7021363782882691,0.0,0.0,0.0,0.0,1.0471975511965972
1666090030912299241,0.7171363782882691,0.0,0.0,0.0,0.0,1.0471975511965972
1666090030962408322,0.7321363782882692,0.0,0.0,0.0,0.0,1.0083846955901805
1666090031012371972,0.7471363782882692,0.0,0.0,0.0,0.0,0.9695718399837638
1666090031062231810,0.7621363782882692,0.0,0.0,0.0,0.0,0.9307589843773472
1666090031112223523,0.7771363782882692,0.0,0.0,0.0,0.0,0.9077444037242565
1666090031162009727,0.7921363782882692,0.0,0.0,0.0,0.0,0.8847298230711658
1666090031212225742,0.7999999999999999,0.0,0.0,0.0,0.0,0.8726646259971643
1666090031262324133,0.7999999999999999,0.0,0.0,0.0,0.0,0.8726646259971643
1666090031312780946,0.7999999999999999,0.0,0.0,0.0,0.0,0.8726646259971643
1666090031362142996,0.7999999999999999,0.0,0.0,0.0,0.0,0.8726646259971643
1666090031412320997,0.7999999999999999,0.0,0.0,0.0,0.0,0.8726646259971643
1666090031462548014,0.7999999999999999,0.0,0.0,0.0,0.0,0.8726646259971643
1666090031513210049,0.7999999999999999,0.0,0.0,0.0,0.0,0.8726646259971643
1666090031562168317,0.7999999999999999,0.0,0.0,0.0,0.0,0.8726646259971643
1666090031612470879,0.7999999999999999,0.0,0.0,0.0,0.0,0.8726646259971643
1666090031662044635,0.7999999999999999,0.0,0.0,0.0,0.0,0.8726646259971643
1666090031712020675,0.7999999999999999,0.0,0.0,0.0,0.0,0.6981317007977313
1666090031762053464,0.7999999999999999,0.0,0.0,0.0,0.0,0.6981317007977313
1666090031817540528,0.7999999999999999,0.0,0.0,0.0,0.0,0.35902348160743713
1666090031862214912,0.7999999999999999,0.0,0.0,0.0,0.0,0.35902348160743713
1666090031912374779,0.7999999999999999,0.0,0.0,0.0,0.0,0.36482253670692444
1666090031962067328,0.7999999999999999,0.0,0.0,0.0,0.0,0.36482253670692444
1666090032012385113,0.7999999999999999,0.0,0.0,0.0,0.0,0.37024110555648804
1666090032062431174,0.7999999999999999,0.0,0.0,0.0,0.0,0.3757544159889221
1666090032112274683,0.7999999999999999,0.0,0.0,0.0,0.0,0.3757544159889221
1666090032162047707,0.7999999999999999,0.0,0.0,0.0,0.0,0.3757544159889221
1666090032212844459,0.7999999999999999,0.0,0.0,0.0,0.0,0.3757544159889221
1666090032262123462,0.7999999999999999,0.0,0.0,0.0,0.0,0.3757544159889221
1666090032312316619,0.7999999999999999,0.0,0.0,0.0,0.0,0.3757544159889221
1666090032362263567,0.6499999999999999,0.0,0.0,0.0,0.0,0.3053004629909992
1666090032412241063,0.4999999999999999,0.0,0.0,0.0,0.0,0.23484650999307632
1666090032462129360,0.34999999999999987,0.0,0.0,0.0,0.0,0.1643925569951534
1666090032512377628,0.19999999999999984,0.0,0.0,0.0,0.0,0.09393860399723047
1666090032562201359,0.04999999999999982,0.0,0.0,0.0,0.0,0.02348465099930755
1666090032612530974,0.0,0.0,0.0,0.0,0.0,0.0
1666090033062966966,0.015,0.0,0.0,0.0,0.0,-0.05468218561206168
1666090033112558317,0.03,0.0,0.0,0.0,0.0,-0.10936437122412336
1666090033162220144,0.042382237523006655,0.0,0.0,0.0,0.0,-0.20936437122412338
1666090033212616574,0.057382237523006654,0.0,0.0,0.0,0.0,-0.27211025751714846
1666090033262034950,0.07238223752300665,0.0,0.0,0.0,0.0,-0.33485614381017353
1666090033312498409,0.08738223752300665,0.0,0.0,0.0,0.0,-0.3976020301031986
1666090033362051392,0.10238223752300665,0.0,0.0,0.0,0.0,-0.46285324312154746
1666090033412714095,0.11738223752300665,0.0,0.0,0.0,0.0,-0.5277424311295895
1666090033464104207,0.13238223752300665,0.0,0.0,0.0,0.0,-0.5926316191376315
1666090033513394680,0.14738223752300667,0.0,0.0,0.0,0.0,-0.6569604302897842
1666090033562344213,0.16238223752300668,0.0,0.0,0.0,0.0,-0.721289241441937
1666090033612498305,0.16861215759068765,0.0,0.0,0.0,0.0,-0.8212892414419369
1666090033662165130,0.17484207765836862,0.0,0.0,0.0,0.0,-0.9212892414419369
1666090033712191750,0.18984207765836864,0.0,0.0,0.0,0.0,-0.9725045064214026
1666090033762161542,0.20484207765836865,0.0,0.0,0.0,0.0,-1.0237197714008683
1666090033812321264,0.20915509014729577,0.0,0.0,0.0,0.0,-1.1237197714008684
1666090033862022444,0.2241550901472958,0.0,0.0,0.0,0.0,-1.1621087922346198
1666090033912132789,0.2391550901472958,0.0,0.0,0.0,0.0,-1.2004978130683712
1666090033963917849,0.2541550901472958,0.0,0.0,0.0,0.0,-1.2341425335516094
1666090034012189580,0.26915509014729583,0.0,0.0,0.0,0.0,-1.2678671014060248
1666090034062125800,0.28415509014729584,0.0,0.0,0.0,0.0,-1.2992179510382862
1666090034112350767,0.29915509014729585,0.0,0.0,0.0,0.0,-1.3305688006705476
1666090034162132751,0.29709544064931565,0.0,0.0,0.0,0.0,-1.4305688006705477
1666090034212181386,0.2950357911513355,0.0,0.0,0.0,0.0,-1.5305688006705478
1666090034263587546,0.3100357911513355,0.0,0.0,0.0,0.0,-1.5345597269786109
1666090034312455088,0.3250357911513355,0.0,0.0,0.0,0.0,-1.5380970947891053
1666090034362329591,0.34003579115133553,0.0,0.0,0.0,0.0,-1.5416344625995997
1666090034412555313,0.35503579115133554,0.0,0.0,0.0,0.0,-1.5288730700140711
1666090034462036623,0.37003579115133556,0.0,0.0,0.0,0.0,-1.5161116774285426
1666090034512440714,0.38503579115133557,0.0,0.0,0.0,0.0,-1.5049025095714403
1666090034562215887,0.4000357911513356,0.0,0.0,0.0,0.0,-1.495713453330341
1666090034612163843,0.4150357911513356,0.0,0.0,0.0,0.0,-1.4865243970892414
1666090034662216172,0.4300357911513356,0.0,0.0,0.0,0.0,-1.477335340848142
1666090034714117058,0.2800357911513356,0.0,0.0,0.0,0.0,-0.9620286950130815
1666090034762116270,0.2950357911513356,0.0,0.0,0.0,0.0,-0.9450280093842884
1666090034812050698,0.3100357911513356,0.0,0.0,0.0,0.0,-0.9058677094153752
1666090034862283521,0.32503579115133563,0.0,0.0,0.0,0.0,-0.8817526175688873
1666090034912797708,0.34003579115133564,0.0,0.0,0.0,0.0,-0.8578200789052672
1666090034962625890,0.35503579115133566,0.0,0.0,0.0,0.0,-0.8338875402416471
1666090035013600815,0.20503579115133563,0.0,0.0,0.0,0.0,-0.48157621233124553
1666090035063924620,0.22003579115133565,0.0,0.0,0.0,0.0,-0.4747422763212417
1666090035112174367,0.23503579115133566,0.0,0.0,0.0,0.0,-0.4634218820551074
1666090035162113602,0.2500357911513357,0.0,0.0,0.0,0.0,-0.45210148778897313
1666090035212375552,0.2650357911513357,0.0,0.0,0.0,0.0,-0.4428653260219479
1666090035264426663,0.2800357911513357,0.0,0.0,0.0,0.0,-0.43362916425492265
1666090035312032317,0.2950357911513357,0.0,0.0,0.0,0.0,-0.4238002863199888
1666090035364298898,0.3100357911513357,0.0,0.0,0.0,0.0,-0.4139714083850549
1666090035413322161,0.32503579115133574,0.0,0.0,0.0,0.0,-0.4030702645819334
1666090035462095559,0.34003579115133575,0.0,0.0,0.0,0.0,-0.3921691207788119
1666090035512135925,0.35503579115133577,0.0,0.0,0.0,0.0,-0.38126797697569037
1666090035562737234,0.3700357911513358,0.0,0.0,0.0,0.0,-0.3682282289925312
1666090035612571469,0.3850357911513358,0.0,0.0,0.0,0.0,-0.35518848100937206
1666090035662089635,0.4000357911513358,0.0,0.0,0.0,0.0,-0.33604027274539167
1666090035711982309,0.4150357911513358,0.0,0.0,0.0,0.0,-0.3168920644814113
1666090035762092321,0.43003579115133583,0.0,0.0,0.0,0.0,-0.2977438562174309
1666090035812933188,0.44503579115133585,0.0,0.0,0.0,0.0,-0.2785956479534505
1666090035862065365,0.46003579115133586,0.0,0.0,0.0,0.0,-0.2594474396894701
1666090035912060138,0.4750357911513359,0.0,0.0,0.0,0.0,-0.23259843878364753
1666090035962106361,0.4900357911513359,0.0,0.0,0.0,0.0,-0.20574943787782496
1666090036012077404,0.5050357911513359,0.0,0.0,0.0,0.0,-0.17765741401687674
1666090036062363076,0.5200357911513359,0.0,0.0,0.0,0.0,-0.14751614767767493
1666090036112142913,0.5350357911513359,0.0,0.0,0.0,0.0,-0.11737488133847311
1666090036162930860,0.5500357911513359,0.0,0.0,0.0,0.0,-0.08397477030843653
1666090036212109094,0.565035791151336,0.0,0.0,0.0,0.0,-0.04496791439208257
1666090036262004036,0.580035791151336,0.0,0.0,0.0,0.0,-0.0059610584757286075
1666090036312309299,0.595035791151336,0.0,0.0,0.0,0.0,0.0465292194437576
1666090036362167006,0.610035791151336,0.0,0.0,0.0,0.0,0.09901949736324382
1666090036414144205,0.625035791151336,0.0,0.0,0.0,0.0,0.15150977528273005
1666090036462372403,0.6226503578747864,0.0,0.0,0.0,0.0,0.25150977528273005
1666090036512337884,0.6202649245982367,0.0,0.0,0.0,0.0,0.3515097752827301
1666090036562279035,0.6011288574906957,0.0,0.0,0.0,0.0,0.45150977528273006
1666090036612094148,0.5873338580131531,0.0,0.0,0.0,0.0,0.5235987755982984
1666090036661990995,0.5007116794586182,0.0,0.0,0.0,0.0,0.5235987755982984
1666090036712186439,0.5007827281951904,0.0,0.0,0.0,0.0,0.5235987755982984
1666090036762436532,0.5157827281951904,0.0,0.0,0.0,0.0,0.5235987755982984
1666090036812235520,0.5182934999465942,0.0,0.0,0.0,0.0,0.5235987755982984
1666090036862201094,0.48423260450363154,0.0,0.0,0.0,0.0,0.5235987755982984
1666090036912055972,0.4505729377269745,0.0,0.0,0.0,0.0,0.5235987755982984
1666090036962461882,0.36231279373168945,0.0,0.0,0.0,0.0,0.5235987755982984
1666090037012144428,0.36231279373168945,0.0,0.0,0.0,0.0,0.5235987755982984
1666090037062221374,0.34252065420150757,0.0,0.0,0.0,0.0,0.5235987755982984
1666090037112331175,0.34252065420150757,0.0,0.0,0.0,0.0,0.5235987755982984
1666090037162567925,0.33739277720451355,0.0,0.0,0.0,0.0,0.5235987755982984
1666090037212053427,0.35239277720451356,0.0,0.0,0.0,0.0,0.5235987755982984
1666090037262102951,0.3673927772045136,0.0,0.0,0.0,0.0,0.5235987755982984
1666090037312630596,0.3734508454799652,0.0,0.0,0.0,0.0,0.5235987755982984
1666090037362016637,0.3734508454799652,0.0,0.0,0.0,0.0,0.5235987755982984
1666090037412330752,0.3884508454799652,0.0,0.0,0.0,0.0,0.5235987755982984
1666090037462340450,0.39033955335617065,0.0,0.0,0.0,0.0,0.5235987755982984
1666090037512689976,0.40533955335617067,0.0,0.0,0.0,0.0,0.5235987755982984
1666090037563711064,0.4203395533561707,0.0,0.0,0.0,0.0,0.5235987755982984
1666090037612140252,0.4353395533561707,0.0,0.0,0.0,0.0,0.5235987755982984
1666090037663615794,0.42808887362480164,0.0,0.0,0.0,0.0,0.5235987755982984
1666090037712394412,0.42808887362480164,0.0,0.0,0.0,0.0,0.5235987755982984
1666090037762124195,0.4416263997554779,0.0,0.0,0.0,0.0,0.5235987755982984
1666090037812754802,0.4416263997554779,0.0,0.0,0.0,0.0,0.5235987755982984
1666090037862892862,0.4506228268146515,0.0,0.0,0.0,0.0,0.5235987755982984
1666090037912390185,0.4529629349708557,0.0,0.0,0.0,0.0,0.5235987755982984
1666090037962178989,0.46274587512016296,0.0,0.0,0.0,0.0,0.5235987755982984
1666090038012557030,0.4628880321979522,0.0,0.0,0.0,0.0,0.5235987755982984
1666090038062317662,0.47788803219795223,0.0,0.0,0.0,0.0,0.5235987755982984
1666090038112167723,0.49288803219795224,0.0,0.0,0.0,0.0,0.5235987755982984
1666090038162883041,0.47687566182477886,0.0,0.0,0.0,0.0,0.6235987755982983
1666090038212054496,0.4649411737918854,0.0,0.0,0.0,0.0,0.6981317007977313
1666090038262122230,0.45698118209838867,0.0,0.0,0.0,0.0,0.6981317007977313
1666090038312245038,0.4573365449905395,0.0,0.0,0.0,0.0,0.6981317007977313
1666090038362155070,0.4573365449905395,0.0,0.0,0.0,0.0,0.6981317007977313
1666090038412847141,0.4377002418041229,0.0,0.0,0.0,0.0,0.6981317007977313
1666090038462329343,0.45270024180412294,0.0,0.0,0.0,0.0,0.6981317007977313
1666090038512108322,0.46770024180412295,0.0,0.0,0.0,0.0,0.6981317007977313
1666090038562063956,0.48270024180412296,0.0,0.0,0.0,0.0,0.6981317007977313
1666090038616429677,0.497700241804123,0.0,0.0,0.0,0.0,0.6981317007977313
1666090038662211015,0.43592688441276545,0.0,0.0,0.0,0.0,0.6981317007977313
1666090038712232546,0.43592688441276545,0.0,0.0,0.0,0.0,0.6981317007977313
1666090038762324564,0.4501018524169922,0.0,0.0,0.0,0.0,0.6981317007977313
1666090038812088418,0.4501018524169922,0.0,0.0,0.0,0.0,0.6981317007977313
1666090038862114024,0.4501018524169922,0.0,0.0,0.0,0.0,0.6981317007977313
1666090038912450373,0.4511636793613434,0.0,0.0,0.0,0.0,0.6981317007977313
1666090038962526168,0.4511636793613434,0.0,0.0,0.0,0.0,0.6981317007977313
1666090039012073598,0.4512810220112842,0.0,0.0,0.0,0.0,0.7981317007977313
1666090039062926028,0.44849154353141785,0.0,0.0,0.0,0.0,0.8726646259971643
1666090039112127310,0.44849154353141785,0.0,0.0,0.0,0.0,0.8726646259971643
1666090039162037557,0.44849154353141785,0.0,0.0,0.0,0.0,0.8726646259971643
1666090039212111944,0.45155206322669983,0.0,0.0,0.0,0.0,0.8726646259971643
1666090039262413354,0.45155206322669983,0.0,0.0,0.0,0.0,0.8726646259971643
1666090039312196832,0.46655206322669984,0.0,0.0,0.0,0.0,0.8726646259971643
1666090039362062386,0.48155206322669986,0.0,0.0,0.0,0.0,0.8726646259971643
1666090039412288140,0.49655206322669987,0.0,0.0,0.0,0.0,0.8726646259971643
1666090039462016781,0.5115520632266999,0.0,0.0,0.0,0.0,0.8726646259971643
1666090039512048127,0.4272339046001434,0.0,0.0,0.0,0.0,0.8726646259971643
1666090039561987079,0.4272339046001434,0.0,0.0,0.0,0.0,0.8726646259971643
1666090039612142845,0.4299751818180084,0.0,0.0,0.0,0.0,0.8726646259971643
1666090039662073988,0.4359563887119293,0.0,0.0,0.0,0.0,0.6981317007977313
1666090039712215196,0.4361695945262909,0.0,0.0,0.0,0.0,0.6981317007977313
1666090039762020322,0.4361695945262909,0.0,0.0,0.0,0.0,0.6981317007977313
1666090039812103642,0.4415145814418793,0.0,0.0,0.0,0.0,0.6981317007977313
1666090039862033993,0.4415145814418793,0.0,0.0,0.0,0.0,0.6981317007977313
1666090039912267555,0.4486475884914398,0.0,0.0,0.0,0.0,0.6981317007977313
1666090039962871908,0.4585176110267639,0.0,0.0,0.0,0.0,0.6981317007977313
1666090040012200189,0.4585176110267639,0.0,0.0,0.0,0.0,0.6981317007977313
1666090040062645574,0.4585176110267639,0.0,0.0,0.0,0.0,0.6981317007977313
1666090040113103600,0.465761512517929,0.0,0.0,0.0,0.0,0.5235987755982984
1666090040162440121,0.465761512517929,0.0,0.0,0.0,0.0,0.5235987755982984
1666090040212125834,0.48076151251792903,0.0,0.0,0.0,0.0,0.5235987755982984
1666090040262113028,0.49576151251792905,0.0,0.0,0.0,0.0,0.45736954215251846
1666090040312276487,0.510761512517929,0.0,0.0,0.0,0.0,0.39114030870673855
1666090040362236330,0.5202907919883728,0.0,0.0,0.0,0.0,0.3490658503988654
1666090040412147236,0.5352907919883728,0.0,0.0,0.0,0.0,0.3490658503988654
1666090040462794023,0.5438724756240845,0.0,0.0,0.0,0.0,0.3490658503988654
1666090040512401222,0.5588724756240845,0.0,0.0,0.0,0.0,0.3490658503988654
1666090040562615649,0.5738724756240845,0.0,0.0,0.0,0.0,0.3490658503988654
1666090040612212644,0.5739061832427979,0.0,0.0,0.0,0.0,0.3490658503988654
1666090040662953708,0.5802244544029236,0.0,0.0,0.0,0.0,0.3490658503988654
1666090040712155403,0.5802244544029236,0.0,0.0,0.0,0.0,0.3490658503988654
1666090040762361473,0.579176664352417,0.0,0.0,0.0,0.0,0.17453292519943245
1666090040812258708,0.579176664352417,0.0,0.0,0.0,0.0,0.17453292519943245
1666090040862299987,0.579176664352417,0.0,0.0,0.0,0.0,0.17453292519943245
1666090040912299207,0.574651300907135,0.0,0.0,0.0,0.0,0.17453292519943245
1666090040962249993,0.574651300907135,0.0,0.0,0.0,0.0,0.17453292519943245
1666090041012092778,0.5665197968482971,0.0,0.0,0.0,0.0,0.17453292519943245
1666090041062106356,0.5665197968482971,0.0,0.0,0.0,0.0,0.17453292519943245
1666090041112212415,0.5576278467754243,0.0,0.0,0.0,0.0,0.27453292519943245
1666090041162600080,0.5510004162788391,0.0,0.0,0.0,0.0,0.3490658503988654
1666090041212679657,0.5381338596343994,0.0,0.0,0.0,0.0,0.3490658503988654
1666090041262033999,0.5381338596343994,0.0,0.0,0.0,0.0,0.3490658503988654
1666090041312589889,0.5449380278587341,0.0,0.0,0.0,0.0,0.3490658503988654
1666090041362134825,0.49120405316352844,0.0,0.0,0.0,0.0,0.3490658503988654
1666090041412821039,0.49120405316352844,0.0,0.0,0.0,0.0,0.3490658503988654
1666090041462621949,0.49120405316352844,0.0,0.0,0.0,0.0,0.3490658503988654
1666090041512181932,0.47149235010147095,0.0,0.0,0.0,0.0,0.3490658503988654
1666090041562109891,0.47149235010147095,0.0,0.0,0.0,0.0,0.3490658503988654
1666090041612204058,0.44916984438896174,0.0,0.0,0.0,0.0,0.3490658503988654
1666090041662296642,0.44916984438896174,0.0,0.0,0.0,0.0,0.3490658503988654
1666090041712139437,0.46416984438896175,0.0,0.0,0.0,0.0,0.3490658503988654
1666090041762140859,0.39644172787666315,0.0,0.0,0.0,0.0,0.3490658503988654
1666090041812090331,0.39644172787666315,0.0,0.0,0.0,0.0,0.3490658503988654
1666090041862244079,0.38870948553085327,0.0,0.0,0.0,0.0,0.3490658503988654
1666090041912194880,0.38870948553085327,0.0,0.0,0.0,0.0,0.3490658503988654
1666090041962184091,0.38298604313847645,0.0,0.0,0.0,0.0,0.4490658503988654
1666090042012078933,0.37872019410133356,0.0,0.0,0.0,0.0,0.5235987755982984
1666090042062119595,0.36875924468040466,0.0,0.0,0.0,0.0,0.3490658503988654
1666090042112065168,0.36875924468040466,0.0,0.0,0.0,0.0,0.3490658503988654
1666090042162589198,0.21875924468040464,0.0,0.0,0.0,0.0,0.3593913006409734
1666090042213680371,0.06875924468040462,0.0,0.0,0.0,0.0,0.3646722790983107
1666090042262605860,0.0,0.0,0.0,0.0,0.0,0.3761140642795414
1666090042312652968,0.0,0.0,0.0,0.0,0.0,0.3761140642795414
1666090042362420448,0.0,0.0,0.0,0.0,0.0,0.40039884887881055
1666090042412634354,0.0,0.0,0.0,0.0,0.0,0.38720917262354826
1666090042462010244,0.0,0.0,0.0,0.0,0.0,0.38720917262354826
1666090042512497356,0.0,0.0,0.0,0.0,0.0,0.3972887862867939
1666090042562451707,0.0,0.0,0.0,0.0,0.0,0.38547030557857076
1666090042612716041,0.0,0.0,0.0,0.0,0.0,0.39488174072052623
1666090042662108649,0.0,0.0,0.0,0.0,0.0,0.39488174072052623
1666090042712575730,0.0,0.0,0.0,0.0,0.0,0.36355611375761077
1666090042762150037,0.0,0.0,0.0,0.0,0.0,0.32586199248179243
1666090042812118070,0.0,0.0,0.0,0.0,0.0,0.3247571488125689
1666090042862041474,0.0,0.0,0.0,0.0,0.0,0.30021802889746024
1666090042912268307,0.0,0.0,0.0,0.0,0.0,0.30021802889746024
1666090042962529319,0.0,0.0,0.0,0.0,0.0,0.2685324010440587
1666090043012130514,0.015,0.0,0.0,0.0,0.0,0.2716464088162475
1666090043062170999,0.03,0.0,0.0,0.0,0.0,0.27476041658843636
1666090043112191995,0.045,0.0,0.0,0.0,0.0,0.27082936555257
1666090043162211413,0.06,0.0,0.0,0.0,0.0,0.2668983145167036
1666090043213111292,0.075,0.0,0.0,0.0,0.0,0.26313648148037827
1666090043262367447,0.09,0.0,0.0,0.0,0.0,0.2594921036864105
1666090043312215045,0.105,0.0,0.0,0.0,0.0,0.2522109833314286
1666090043362978996,0.12,0.0,0.0,0.0,0.0,0.2449298629764467
1666090043412214337,0.135,0.0,0.0,0.0,0.0,0.23728608170701335
1666090043462096406,0.15000000000000002,0.0,0.0,0.0,0.0,0.2262969191474302
1666090043512269872,0.16500000000000004,0.0,0.0,0.0,0.0,0.21530775658784704
1666090043563065656,0.18000000000000005,0.0,0.0,0.0,0.0,0.2014895037343888
1666090043612234705,0.19500000000000006,0.0,0.0,0.0,0.0,0.18731906701857426
1666090043662200764,0.21000000000000008,0.0,0.0,0.0,0.0,0.17314863030275973
1666090043712383282,0.2250000000000001,0.0,0.0,0.0,0.0,0.1587150760634405
1666090043762421862,0.2400000000000001,0.0,0.0,0.0,0.0,0.1442815218241213
1666090043812171222,0.2550000000000001,0.0,0.0,0.0,0.0,0.1289626093234194
1666090043862283224,0.27000000000000013,0.0,0.0,0.0,0.0,0.11363181448351387
1666090043912117253,0.28500000000000014,0.0,0.0,0.0,0.0,0.10502885115372015
1666090043962351271,0.30000000000000016,0.0,0.0,0.0,0.0,0.08621844054023566
1666090044012225192,0.31500000000000017,0.0,0.0,0.0,0.0,0.06734325693145336
1666090044062136332,0.3300000000000002,0.0,0.0,0.0,0.0,0.04846807332267106
1666090044112159004,0.3450000000000002,0.0,0.0,0.0,0.0,0.026562224303418674
1666090044163383197,0.3600000000000002,0.0,0.0,0.0,0.0,0.0046563752841662885
1666090044212751828,0.3750000000000002,0.0,0.0,0.0,0.0,-0.03173903981525092
1666090044262177431,0.39000000000000024,0.0,0.0,0.0,0.0,-0.06885597340604072
1666090044312023425,0.40500000000000025,0.0,0.0,0.0,0.0,-0.10597290699683054
1666090044362379708,0.2550000000000002,0.0,0.0,0.0,0.0,-0.19334346607823483
1666090044412185402,0.1050000000000002,0.0,0.0,0.0,0.0,-0.2807140251596391
1666090044464970579,0.0,0.0,0.0,0.0,0.0,-0.3532039346716334
1666090044512042012,0.0,0.0,0.0,0.0,0.0,-0.36760764581935296
1666090044562317817,0.0,0.0,0.0,0.0,0.0,-0.36760764581935296
1666090044613291135,0.0,0.0,0.0,0.0,0.0,0.0
1666090044662296146,0.0,0.0,0.0,0.0,0.0,-0.1
1666090044712301547,0.0,0.0,0.0,0.0,0.0,-0.2
1666090044762402314,0.0,0.0,0.0,0.0,0.0,-0.30000000000000004
1666090044813115676,0.0,0.0,0.0,0.0,0.0,-0.4
1666090044862087448,0.0,0.0,0.0,0.0,0.0,-0.41706743398807644
1666090044912265682,0.0,0.0,0.0,0.0,0.0,-0.41843161122188216
1666090044962187419,0.0,0.0,0.0,0.0,0.0,-0.4130582199113876
1666090045012179000,0.0,0.0,0.0,0.0,0.0,-0.4130582199113876
1666090045062165043,0.0,0.0,0.0,0.0,0.0,-0.41498104795562285
1666090045112255473,0.0,0.0,0.0,0.0,0.0,-0.40754224811552114
1666090045162251895,0.0,0.0,0.0,0.0,0.0,-0.40293070060918157
1666090045212664436,0.0,0.0,0.0,0.0,0.0,-0.40070282873192586
1666090045262309147,0.0,0.0,0.0,0.0,0.0,-0.40070282873192586
1666090045312841638,0.0,0.0,0.0,0.0,0.0,-0.38727104563596154
1666090045362285427,0.0,0.0,0.0,0.0,0.0,-0.38727104563596154
1666090045413597401,0.0,0.0,0.0,0.0,0.0,-0.3912752215105253
1666090045462197909,0.0,0.0,0.0,0.0,0.0,-0.37553315418029787
1666090045513007819,0.0,0.0,0.0,0.0,0.0,-0.37553315418029787
1666090045562381033,0.0,0.0,0.0,0.0,0.0,-0.3709884175836316
1666090045612105170,0.0,0.0,0.0,0.0,0.0,-0.3573485078453442
1666090045662357761,0.0,0.0,0.0,0.0,0.0,-0.35527668575527366
1666090045712109094,0.0,0.0,0.0,0.0,0.0,-0.35527668575527366
1666090045762333352,0.0,0.0,0.0,0.0,0.0,-0.35527668575527366
1666090045812224752,0.0,0.0,0.0,0.0,0.0,-0.3475821326345993
1666090045862261789,0.0,0.0,0.0,0.0,0.0,-0.3325623483737921
1666090045912448906,0.0,0.0,0.0,0.0,0.0,-0.3325623483737921
1666090045962562645,0.0,0.0,0.0,0.0,0.0,-0.3312684799655376
1666090046012122236,0.0,0.0,0.0,0.0,0.0,-0.32283217823126925
1666090046062293873,0.0,0.0,0.0,0.0,0.0,-0.32283217823126925
1666090046112105473,0.0,0.0,0.0,0.0,0.0,-0.32226338791688613
1666090046162269522,0.0,0.0,0.0,0.0,0.0,-0.32226338791688613
1666090046212206864,0.0,0.0,0.0,0.0,0.0,-0.32226338791688613
1666090046262580697,0.0,0.0,0.0,0.0,0.0,-0.31662269825555645
1666090046312049849,0.0,0.0,0.0,0.0,0.0,-0.31662269825555645
1666090046363261012,0.0,0.0,0.0,0.0,0.0,-0.31662269825555645
1666090046412082315,0.0,0.0,0.0,0.0,0.0,-0.3200831226146977
1666090046462224328,0.0,0.0,0.0,0.0,0.0,-0.3200831226146977
1666090046512747357,0.0,0.0,0.0,0.0,0.0,-0.31356762638406266
1666090046562262451,0.0,0.0,0.0,0.0,0.0,-0.30884232306623527
1666090046611962678,0.0,0.0,0.0,0.0,0.0,-0.30884232306623527
1666090046662672553,0.0,0.0,0.0,0.0,0.0,-0.3161492096095081
1666090046712598203,0.0,0.0,0.0,0.0,0.0,-0.3161492096095081
1666090046763099439,0.0,0.0,0.0,0.0,0.0,-0.30830637254554905
1666090046812174897,0.0,0.0,0.0,0.0,0.0,-0.30830637254554905
1666090046862544925,0.0,0.0,0.0,0.0,0.0,-0.3007144609452389
1666090046912137904,0.0,0.0,0.0,0.0,0.0,-0.3007144609452389
1666090046962584421,0.0,0.0,0.0,0.0,0.0,-0.289909820643727
1666090047012827694,0.0,0.0,0.0,0.0,0.0,-0.29742704347159843
1666090047062168480,0.0,0.0,0.0,0.0,0.0,-0.29742704347159843
1666090047111975565,0.0,0.0,0.0,0.0,0.0,-0.3109723459404477
1666090047162594877,0.0,0.0,0.0,0.0,0.0,-0.3109723459404477
1666090047212144852,0.0,0.0,0.0,0.0,0.0,-0.311714400494521
1666090047262876775,0.0,0.0,0.0,0.0,0.0,-0.30770902777350206
1666090047312175296,0.0,0.0,0.0,0.0,0.0,-0.30770902777350206
1666090047363726199,0.0,0.0,0.0,0.0,0.0,-0.30770902777350206
1666090047412494478,0.0,0.0,0.0,0.0,0.0,-0.31359784923595424
1666090047462157761,0.0,0.0,0.0,0.0,0.0,-0.304242052706895
1666090047512620001,0.0,0.0,0.0,0.0,0.0,-0.304489910254328
1666090047562340074,0.0,0.0,0.0,0.0,0.0,-0.304489910254328
1666090047612254629,0.0,0.0,0.0,0.0,0.0,-0.3122100429491612
1666090047662254062,0.0,0.0,0.0,0.0,0.0,-0.3122100429491612
1666090047712065490,0.0,0.0,0.0,0.0,0.0,-0.31431598162256863
1666090047762051048,0.0,0.0,0.0,0.0,0.0,-0.31431598162256863
1666090047812260383,0.0,0.0,0.0,0.0,0.0,-0.3156795549292485
1666090047862977589,0.0,0.0,0.0,0.0,0.0,-0.3156795549292485
1666090047912546572,0.0,0.0,0.0,0.0,0.0,-0.31483176489278514
1666090047962210146,0.0,0.0,0.0,0.0,0.0,-0.31468960715870814
1666090048012666882,0.0,0.0,0.0,0.0,0.0,-0.3151984225465
1666090048062266909,0.0,0.0,0.0,0.0,0.0,-0.3173454527285809
1666090048111999830,0.0,0.0,0.0,0.0,0.0,-0.3173454527285809
1666090048162810035,0.0,0.0,0.0,0.0,0.0,-0.3252089941305972
1666090048212104146,0.0,0.0,0.0,0.0,0.0,-0.3252089941305972
1666090048262321864,0.0,0.0,0.0,0.0,0.0,-0.3237819966438095
1666090048312067405,0.0,0.0,0.0,0.0,0.0,-0.3237819966438095
1666090048362295015,0.0,0.0,0.0,0.0,0.0,-0.3285463078017961
1666090048412356364,0.0,0.0,0.0,0.0,0.0,-0.3199380889226665
1666090048462068914,0.0,0.0,0.0,0.0,0.0,-0.3199380889226665
1666090048512216350,0.0,0.0,0.0,0.0,0.0,-0.3199380889226665
1666090048563763832,0.0,0.0,0.0,0.0,0.0,-0.31813407365262736
1666090048612321462,0.0,0.0,0.0,0.0,0.0,-0.3002822212641055
1666090048662533786,0.0,0.0,0.0,0.0,0.0,-0.292942044919337
1666090048712059818,0.0,0.0,0.0,0.0,0.0,-0.292942044919337
1666090048764258182,0.0,0.0,0.0,0.0,0.0,-0.2852335278135117
1666090048812415382,0.0,0.0,0.0,0.0,0.0,-0.2852335278135117
1666090048862373759,0.0,0.0,0.0,0.0,0.0,-0.2852335278135117
1666090048912416283,0.0,0.0,0.0,0.0,0.0,-0.2814082923423196
1666090048962827427,0.0,0.0,0.0,0.0,0.0,-0.2624917731295073
1666090049012205060,0.0,0.0,0.0,0.0,0.0,-0.2624917731295073
1666090049062387694,0.0,0.0,0.0,0.0,0.0,-0.25826688290172295
1666090049112739924,0.0,0.0,0.0,0.0,0.0,-0.25826688290172295
1666090049162933615,0.0,0.0,0.0,0.0,0.0,-0.25887634858299746
1666090049212138228,0.0,0.0,0.0,0.0,0.0,-0.25887634858299746
1666090049262719240,0.0,0.0,0.0,0.0,0.0,-0.254550595943745
1666090049312259858,0.0,0.0,0.0,0.0,0.0,-0.254550595943745
1666090049363863420,0.0,0.0,0.0,0.0,0.0,-0.2513309703077218
1666090049412189453,0.0,0.0,0.0,0.0,0.0,-0.2513309703077218
1666090049463438807,0.0,0.0,0.0,0.0,0.0,-0.24309359757096896
1666090049512306467,0.0,0.0,0.0,0.0,0.0,-0.23784460222580006
1666090049562513390,0.0,0.0,0.0,0.0,0.0,-0.2363036494853033
1666090049612148309,0.0,0.0,0.0,0.0,0.0,-0.2363036494853033
1666090049662443781,0.0,0.0,0.0,0.0,0.0,-0.24238962403737535
1666090049712385506,0.0,0.0,0.0,0.0,0.0,-0.23556683127020167
1666090049762094877,0.0,0.0,0.0,0.0,0.0,-0.23556683127020167
1666090049812326016,0.0,0.0,0.0,0.0,0.0,-0.23556683127020167
1666090049862511163,0.0,0.0,0.0,0.0,0.0,-0.23758606019968087
1666090049912233899,0.0,0.0,0.0,0.0,0.0,-0.23758606019968087
1666090049962440992,0.0,0.0,0.0,0.0,0.0,-0.232003320035344
1666090050013489007,0.0,0.0,0.0,0.0,0.0,-0.22953559013178382
1666090050062294871,0.0,0.0,0.0,0.0,0.0,-0.22924665325181576
1666090050112331471,0.0,0.0,0.0,0.0,0.0,-0.22945939947450583
1666090050162330841,0.0,0.0,0.0,0.0,0.0,-0.2287506358659663
1666090050212147775,0.0,0.0,0.0,0.0,0.0,-0.2287506358659663
1666090050262085653,0.0,0.0,0.0,0.0,0.0,-0.2287506358659663
1666090050312669598,0.0,0.0,0.0,0.0,0.0,-0.22769075679278555
1666090050362442134,0.0,0.0,0.0,0.0,0.0,-0.22769075679278555
1666090050412552045,0.0,0.0,0.0,0.0,0.0,-0.2185112316879092
1666090050462521727,0.0,0.0,0.0,0.0,0.0,-0.2185112316879092
1666090050512331162,0.0,0.0,0.0,0.0,0.0,-0.2173647600610762
1666090050562198307,0.0,0.0,0.0,0.0,0.0,-0.2173647600610762
1666090050612563344,0.0,0.0,0.0,0.0,0.0,-0.21311997553159642
1666090050662663639,0.0,0.0,0.0,0.0,0.0,-0.21180364064048943
1666090050714324705,0.0,0.0,0.0,0.0,0.0,-0.17453292519943345
1666090050762937540,0.0,0.0,0.0,0.0,0.0,-0.17453292519943345
1666090050812607915,0.0,0.0,0.0,0.0,0.0,-0.17453292519943345
