%time,field.linear.x,field.linear.y,field.linear.z,field.angular.x,field.angular.y,field.angular.z
1666091411180718623,0.38819256424903864,0.0,0.0,0.0,0.0,-1.3962634015954642
1666091411226910739,0.39789554476737976,0.0,0.0,0.0,0.0,-1.3962634015954642
1666091411303119107,0.4310007691383362,0.0,0.0,0.0,0.0,-1.3962634015954642
1666091411340787409,0.4310007691383362,0.0,0.0,0.0,0.0,-1.3962634015954642
1666091411387127113,0.43800458312034607,0.0,0.0,0.0,0.0,-1.3962634015954642
1666091411472905399,0.45012539625167847,0.0,0.0,0.0,0.0,-1.2217304763960313
1666091411518700178,0.4550196528434753,0.0,0.0,0.0,0.0,-1.2217304763960313
1666091411573132519,0.5032973885536194,0.0,0.0,0.0,0.0,-1.2217304763960313
1666091411683688506,0.4912492334842682,0.0,0.0,0.0,0.0,-1.2217304763960313
1666091411776447902,0.39362239837646484,0.0,0.0,0.0,0.0,-1.2217304763960313
1666091411822640439,0.5091398358345032,0.0,0.0,0.0,0.0,-1.2217304763960313
1666091411857655842,0.5143202543258667,0.0,0.0,0.0,0.0,-1.2217304763960313
1666091411995200887,0.4024974405765533,0.0,0.0,0.0,0.0,-1.0471975511965983
1666091412039128929,0.5226985216140747,0.0,0.0,0.0,0.0,-1.2217304763960313
1666091412154579539,0.5195260047912598,0.0,0.0,0.0,0.0,-1.2217304763960313
1666091412206019679,0.5204586386680603,0.0,0.0,0.0,0.0,-1.2217304763960313
1666091412336286427,0.5125591158866882,0.0,0.0,0.0,0.0,-1.0471975511965983
1666091412409487881,0.38861578702926636,0.0,0.0,0.0,0.0,-1.0471975511965983
1666091412412494832,0.38769182562828064,0.0,0.0,0.0,0.0,-1.0471975511965983
1666091412509307680,0.4856281578540802,0.0,0.0,0.0,0.0,-1.0471975511965983
1666091412544548033,0.4852727949619293,0.0,0.0,0.0,0.0,-1.0471975511965983
1666091412636870562,0.46599361300468445,0.0,0.0,0.0,0.0,-1.0471975511965983
1666091412695727511,0.3247247338294983,0.0,0.0,0.0,0.0,-1.0471975511965983
1666091412804420014,0.43220213055610657,0.0,0.0,0.0,0.0,-1.0471975511965983
1666091412900875673,0.4047088027000427,0.0,0.0,0.0,0.0,-1.0471975511965983
1666091412989243766,0.0,0.0,0.0,0.0,0.0,-0.778117232872473
1666091412991282067,0.0,0.0,0.0,0.0,0.0,-0.7755455370225762
1666091413053117106,0.0,0.0,0.0,0.0,0.0,-0.7462366532899747
1666091413145005226,0.0,0.0,0.0,0.0,0.0,-0.7051973859188788
1666091413190604885,0.0,0.0,0.0,0.0,0.0,-0.647317014232029
1666091413282616544,0.0,0.0,0.0,0.0,0.0,-0.5935316977795762
1666091413312827693,0.0,0.0,0.0,0.0,0.0,-0.5368381658915569
1666091413397631942,0.0,0.0,0.0,0.0,0.0,-0.49762042357745045
1666091413485670581,0.0,0.0,0.0,0.0,0.0,-0.4327765370934659
1666091413573392224,0.0,0.0,0.0,0.0,0.0,-0.37458760958008375
1666091413637835306,0.0,0.0,0.0,0.0,0.0,-0.3146907414350032
1666091413694520083,0.0,0.0,0.0,0.0,0.0,-0.25581803916554113
1666091413833125080,0.0,0.0,0.0,0.0,0.0,-0.17453292519943345
1666091413917670952,0.0,0.0,0.0,0.0,0.0,-0.17453292519943345
1666091413941240133,0.0,0.0,0.0,0.0,0.0,-0.17453292519943345
1666091413955446308,0.0,0.0,0.0,0.0,0.0,-0.17453292519943345
1666091414045268010,0.0,0.0,0.0,0.0,0.0,-4.996003610813204e-16
1666091414152466146,0.0,0.0,0.0,0.0,0.0,-4.996003610813204e-16
1666091414181618024,0.0,0.0,0.0,0.0,0.0,-4.996003610813204e-16
1666091414261595823,0.0,0.0,0.0,0.0,0.0,-0.17453292519943345
1666091414349201192,0.0,0.0,0.0,0.0,0.0,-0.17453292519943345
1666091414437299581,0.0,0.0,0.0,0.0,0.0,-0.17453292519943345
1666091414472952508,0.0,0.0,0.0,0.0,0.0,-0.24321725534573416
1666091414557537113,0.0,0.0,0.0,0.0,0.0,-0.2928306994020331
1666091414733304735,0.0,0.0,0.0,0.0,0.0,-0.3859539834450393
1666091414789384014,0.0,0.0,0.0,0.0,0.0,-0.4081001109131863
1666091414791748596,0.0,0.0,0.0,0.0,0.0,-0.40160985524456194
1666091414902042585,0.0,0.0,0.0,0.0,0.0,-0.45102188813274374
1666091414996669613,0.0,0.0,0.0,0.0,0.0,-0.4826967253695412
1666091415113564092,0.0,0.0,0.0,0.0,0.0,-0.5129371665670647
1666091415206636767,0.0,0.0,0.0,0.0,0.0,-0.5653964864512284
1666091415262424535,0.0,0.0,0.0,0.0,0.0,-0.5816788990945267
1666091415317999773,0.0,0.0,0.0,0.0,0.0,-0.5814358507479838
1666091415363799008,0.4067221283912658,0.0,0.0,0.0,0.0,-0.17253872752189636
1666091415486177619,0.32436448335647583,0.0,0.0,0.0,0.0,-0.07420019060373306
1666091415529611447,0.44632238149642944,0.0,0.0,0.0,0.0,-0.1902402937412262
1666091415619245799,0.4626155793666839,0.0,0.0,0.0,0.0,-0.19828957319259644
1666091415694508177,0.4780345559120178,0.0,0.0,0.0,0.0,-0.20565132796764374
1666091415779129213,0.3983428180217743,0.0,0.0,0.0,0.0,-0.11319377273321152
1666091415898298473,0.505707323551178,0.0,0.0,0.0,0.0,-0.21212857961654663
1666091416036978621,0.514474630355835,0.0,0.0,0.0,0.0,-0.2139820009469986
1666091416123622056,0.5320243835449219,0.0,0.0,0.0,0.0,-0.21225981414318085
1666091416186748193,0.5395649671554565,0.0,0.0,0.0,0.0,-0.21019691228866577
1666091416199755777,0.539351761341095,0.0,0.0,0.0,0.0,-0.2098408341407776
1666091416332641454,0.5497811436653137,0.0,0.0,0.0,0.0,-0.2062276005744934
1666091416382123182,0.476739764213562,0.0,0.0,0.0,0.0,-0.10735172778367996
1666091416495208160,0.5683803558349609,0.0,0.0,0.0,0.0,-0.19780902564525604
1666091416598441515,0.571399986743927,0.0,0.0,0.0,0.0,-0.19495339691638947
1666091416630959891,0.5709735155105591,0.0,0.0,0.0,0.0,-0.19503715634346008
1666091416721195536,0.5743623375892639,0.0,0.0,0.0,0.0,-0.1923571527004242
1666091416763732609,0.5805050134658813,0.0,0.0,0.0,0.0,-0.1919095367193222
1666091416884162436,0.5862897038459778,0.0,0.0,0.0,0.0,-0.1909470111131668
1666091416976816135,0.5907487273216248,0.0,0.0,0.0,0.0,-0.1904924064874649
1666091417039201548,0.5265954732894897,0.0,0.0,0.0,0.0,-0.09548667818307877
1666091417113507558,0.5911093950271606,0.0,0.0,0.0,0.0,-0.19131317734718323
1666091417116295180,0.5910383462905884,0.0,0.0,0.0,0.0,-0.1916377991437912
1666091417272049799,0.5190993547439575,0.0,0.0,0.0,0.0,-0.09610488265752792
1666091417319550991,0.5784406065940857,0.0,0.0,0.0,0.0,-0.19167187809944153
1666091417368001012,0.5719752907752991,0.0,0.0,0.0,0.0,-0.19211195409297943
1666091417440555879,0.482136607170105,0.0,0.0,0.0,0.0,-0.0974210724234581
1666091417513189015,0.542993664741516,0.0,0.0,0.0,0.0,-0.19438979029655457
1666091417620101442,0.5331620573997498,0.0,0.0,0.0,0.0,-0.1950429379940033
1666091417694860114,0.5213867425918579,0.0,0.0,0.0,0.0,-0.19702452421188354
1666091417787089320,0.5109255909919739,0.0,0.0,0.0,0.0,-0.19902528822422028
1666091417880377884,0.48985195159912104,0.0,0.0,0.0,0.0,-0.20265477895736694
1666091417920566397,0.489994078874588,0.0,0.0,0.0,0.0,-0.20284326374530792
1666091417964465867,0.48000815510749817,0.0,0.0,0.0,0.0,-0.2036043256521225
1666091418044696296,0.4733511507511139,0.0,0.0,0.0,0.0,-0.2056085765361786
1666091418088165536,0.4661927223205566,0.0,0.0,0.0,0.0,-0.2082926332950592
1666091418178179665,0.4590802490711212,0.0,0.0,0.0,0.0,-0.3490658503988664
1666091418267190257,0.4584737122058868,0.0,0.0,0.0,0.0,-0.5235987755982994
1666091418346306195,0.45797666907310486,0.0,0.0,0.0,0.0,-0.8726646259971653
1666091418428151559,0.4549463093280792,0.0,0.0,0.0,0.0,-0.8726646259971653
1666091418560214631,0.4521876573562622,0.0,0.0,0.0,0.0,-1.0471975511965983
1666091418610308174,0.3199199140071869,0.0,0.0,0.0,0.0,-0.8726646259971653
1666091418706722217,0.4278403520584106,0.0,0.0,0.0,0.0,-1.0471975511965983
1666091418735000004,0.4294751286506653,0.0,0.0,0.0,0.0,-1.0471975511965983
1666091418822334838,0.41530835628509516,0.0,0.0,0.0,0.0,-1.0471975511965983
1666091418838677239,0.41466864943504333,0.0,0.0,0.0,0.0,-1.0471975511965983
1666091418944056914,0.41361159086227417,0.0,0.0,0.0,0.0,-1.0471975511965983
1666091419031878264,0.41315406560897827,0.0,0.0,0.0,0.0,-1.0471975511965983
1666091419125331392,0.4167333543300628,0.0,0.0,0.0,0.0,-0.8726646259971653
1666091419247357327,0.3171187937259674,0.0,0.0,0.0,0.0,-0.8726646259971653
1666091419298407642,0.32307800650596613,0.0,0.0,0.0,0.0,-0.6981317007977323
1666091419387493369,0.4237919747829437,0.0,0.0,0.0,0.0,-0.6981317007977323
1666091419461346334,0.42369049787521357,0.0,0.0,0.0,0.0,-0.6981317007977323
1666091419555201798,0.43023261427879333,0.0,0.0,0.0,0.0,-0.5235987755982994
1666091419639955128,0.425973504781723,0.0,0.0,0.0,0.0,-0.3490658503988664
1666091419700358954,0.4228798449039459,0.0,0.0,0.0,0.0,-0.3490658503988664
1666091419848156108,0.40767353773117065,0.0,0.0,0.0,0.0,-0.08700213581323624
1666091419963742873,0.39779084920883173,0.0,0.0,0.0,0.0,-0.07138650864362717
1666091419980626566,0.3980040550231933,0.0,0.0,0.0,0.0,-0.06894654780626297
1666091420055898841,0.0,0.0,0.0,0.0,0.0,-4.996003610813204e-16
1666091420149263186,0.0,0.0,0.0,0.0,0.0,-4.996003610813204e-16
1666091420197100089,0.0,0.0,0.0,0.0,0.0,-4.996003610813204e-16
1666091420366854183,0.0,0.0,0.0,0.0,0.0,-4.996003610813204e-16
1666091420454267073,0.0,0.0,0.0,0.0,0.0,0.17453292519943245
1666091420494011306,0.0,0.0,0.0,0.0,0.0,0.17453292519943245
1666091420616240224,0.4206862449645996,0.0,0.0,0.0,0.0,0.09816157072782516
1666091420618634195,0.42018872499465937,0.0,0.0,0.0,0.0,0.09858044236898422
1666091420756949095,0.41709333658218384,0.0,0.0,0.0,0.0,-0.019404051825404167
1666091420776497178,0.42810115218162537,0.0,0.0,0.0,0.0,-0.016593443229794502
1666091420832069881,0.4405258893966674,0.0,0.0,0.0,0.0,-0.014922364614903927
1666091420897354230,0.45159265398979187,0.0,0.0,0.0,0.0,-0.014087430201470852
1666091420919024091,0.4513794183731079,0.0,0.0,0.0,0.0,-0.013773271813988686
1666091421057045648,0.46976831555366516,0.0,0.0,0.0,0.0,-0.011422687210142612
1666091421145765999,0.5075878500938416,0.0,0.0,0.0,0.0,0.10280296951532364
1666091421225638744,0.5192558765411377,0.0,0.0,0.0,0.0,0.10372237116098404
1666091421359877991,0.4997444450855255,0.0,0.0,0.0,0.0,-0.0051653701812028885
1666091421418366230,0.5434309244155883,0.0,0.0,0.0,0.0,0.1069931909441948
1666091421564602349,0.5482783913612366,0.0,0.0,0.0,0.0,0.10881707072257996
1666091421612787012,0.5472122430801392,0.0,0.0,0.0,0.0,0.10886593908071518
1666091421654718882,0.5496507883071899,0.0,0.0,0.0,0.0,0.1101338341832161
1666091421743831508,0.5413011908531189,0.0,0.0,0.0,0.0,0.01013131346553564
1666091421841674758,0.5470243692398071,0.0,0.0,0.0,0.0,0.01312871091067791
1666091421861430133,0.546029269695282,0.0,0.0,0.0,0.0,0.013055405579507351
1666091421951225571,0.5472320914268494,0.0,0.0,0.0,0.0,0.015635473653674126
1666091422038733092,0.5813966393470764,0.0,0.0,0.0,0.0,0.12228890508413315
1666091422118283581,0.5415316820144652,0.0,0.0,0.0,0.0,0.020228611305356026
1666091422203541307,0.5351912379264832,0.0,0.0,0.0,0.0,0.02245485410094261
1666091422319003851,0.5171961188316345,0.0,0.0,0.0,0.0,0.025042392313480377
1666091422345696150,0.5159878134727478,0.0,0.0,0.0,0.0,0.024839933961629868
1666091422419928319,0.5039243102073669,0.0,0.0,0.0,0.0,0.025181151926517487
1666091422465219578,0.4907519519329071,0.0,0.0,0.0,0.0,0.02516842819750309
1666091422553208266,0.4760415852069855,0.0,0.0,0.0,0.0,0.024830209091305733
1666091422599068028,0.5051045417785645,0.0,0.0,0.0,0.0,0.13259302079677582
1666091422720612172,0.441000759601593,0.0,0.0,0.0,0.0,0.022481227293610573
1666091422807503660,0.42531684041023254,0.0,0.0,0.0,0.0,0.02114362269639969
1666091422896221744,0.3985699415206909,0.0,0.0,0.0,0.0,0.018546132370829582
1666091422941864664,0.3977881073951721,0.0,0.0,0.0,0.0,0.018472827970981598
1666091423034089219,0.3779758512973785,0.0,0.0,0.0,0.0,0.01739242486655712
1666091423088095250,0.4299681484699249,0.0,0.0,0.0,0.0,0.13379763066768646
1666091423099014428,0.43025243282318115,0.0,0.0,0.0,0.0,0.1337522566318512
1666091423188007811,0.3665950000286102,0.0,0.0,0.0,0.0,0.018090415745973587
1666091423279385166,0.42429226636886597,0.0,0.0,0.0,0.0,0.13575342297554016
1666091423359430956,0.3580092191696167,0.0,0.0,0.0,0.0,0.020161446183919907
1666091423445710460,0.353129506111145,0.0,0.0,0.0,0.0,0.02120785601437092
1666091423569137912,0.34561821818351746,0.0,0.0,0.0,0.0,0.023947568610310555
1666091423617762843,0.3394985496997833,0.0,0.0,0.0,0.0,0.024485377594828606
1666091423657008690,0.0,0.0,0.0,0.0,0.0,0.4268366521145012
1666091423701551197,0.0,0.0,0.0,0.0,0.0,0.42767738213002315
1666091423826599997,0.0,0.0,0.0,0.0,0.0,0.46301345899946583
1666091423894048903,0.0,0.0,0.0,0.0,0.0,0.46832108398097555
1666091423998548488,0.0,0.0,0.0,0.0,0.0,0.4901940726161402
1666091424085597227,0.0,0.0,0.0,0.0,0.0,0.5028657806385894
1666091424217562419,0.0,0.0,0.0,0.0,0.0,0.521670097931089
1666091424306716302,0.0,0.0,0.0,0.0,0.0,0.5154239199340055
1666091424365125416,0.0,0.0,0.0,0.0,0.0,0.5028583230247048
1666091424382225229,0.0,0.0,0.0,0.0,0.0,0.4941167763451517
1666091424513311630,0.0,0.0,0.0,0.0,0.0,0.5064939550467478
1666091424558129281,0.0,0.0,0.0,0.0,0.0,0.47739130646686867
1666091424648532299,0.342121422290802,0.0,0.0,0.0,0.0,0.03727848827838898
1666091424729013181,0.36336848139762873,0.0,0.0,0.0,0.0,0.037500686943531036
1666091424861745668,0.45316547155380243,0.0,0.0,0.0,0.0,0.1507004052400589
1666091424903307365,0.40795785188674927,0.0,0.0,0.0,0.0,0.03848448768258095
1666091425027528718,0.4289159178733825,0.0,0.0,0.0,0.0,0.03745516017079353
1666091425072624066,0.44888558983802795,0.0,0.0,0.0,0.0,0.0351250059902668
1666091425159181016,0.46923014521598816,0.0,0.0,0.0,0.0,0.03134416788816452
1666091425250904259,0.48781496286392206,0.0,0.0,0.0,0.0,0.026261918246746063
1666091425288185960,0.504163920879364,0.0,0.0,0.0,0.0,0.02124616503715515
1666091425426749498,0.5378531813621521,0.0,0.0,0.0,0.0,0.011558448895812035
1666091425476727390,0.5374267101287842,0.0,0.0,0.0,0.0,0.010839372873306274
1666091425548455310,0.5501506328582764,0.0,0.0,0.0,0.0,0.005430188495665789
1666091425595485623,0.5876909494400023,0.0,0.0,0.0,0.0,0.10537112504243851
1666091425675972890,0.5834196209907532,0.0,0.0,0.0,0.0,-0.006956994999200106
1666091425735498687,0.5909454822540283,0.0,0.0,0.0,0.0,-0.010441215708851814
1666091425739604022,0.5904480218887328,0.0,0.0,0.0,0.0,-0.010566879995167255
1666091425848289548,0.5968692898750305,0.0,0.0,0.0,0.0,-0.013063296675682068
1666091425986397647,0.6011692285537719,0.0,0.0,0.0,0.0,-0.015051179565489292
1666091426035852841,0.6046584844589233,0.0,0.0,0.0,0.0,-0.016030097380280495
1666091426108434203,0.6096590161323547,0.0,0.0,0.0,0.0,-0.01688215136528015
1666091426150979391,0.6145268678665161,0.0,0.0,0.0,0.0,-0.017908036708831787
1666091426240259929,0.6264594793319702,0.0,0.0,0.0,0.0,0.08239229768514633
1666091426317000893,0.6062484979629517,0.0,0.0,0.0,0.0,-0.020645255222916603
1666091426390467978,0.6027776002883911,0.0,0.0,0.0,0.0,-0.021003924310207367
1666091426407660288,0.6022800207138062,0.0,0.0,0.0,0.0,-0.02090618386864662
1666091426499407154,0.5917231440544128,0.0,0.0,0.0,0.0,-0.021860284730792046
1666091426601696361,0.5934346914291382,0.0,0.0,0.0,0.0,0.08083927631378174
1666091426711074324,0.5615265965461731,0.0,0.0,0.0,0.0,-0.022805292159318924
1666091426803169574,0.54295814037323,0.0,0.0,0.0,0.0,0.08689345419406891
1666091426843468244,0.5051872730255127,0.0,0.0,0.0,0.0,-0.02059945836663246
1666091426861347802,0.5058980584144592,0.0,0.0,0.0,0.0,-0.020494738593697548
1666091426970912743,0.4878883361816406,0.0,0.0,0.0,0.0,-0.019766515120863914
1666091427061715103,0.4494404196739196,0.0,0.0,0.0,0.0,0.17453292519943245
1666091427092946876,0.43159428238868713,0.0,0.0,0.0,0.0,0.17453292519943245
1666091427221573441,0.4163437187671661,0.0,0.0,0.0,0.0,0.17453292519943245
1666091427271449472,0.40484464168548584,0.0,0.0,0.0,0.0,0.17453292519943245
1666091427333103698,0.39585116505622864,0.0,0.0,0.0,0.0,0.17453292519943245
1666091427361800294,0.3964908719062805,0.0,0.0,0.0,0.0,0.17453292519943245
1666091427449046604,0.3766359090805053,0.0,0.0,0.0,0.0,0.3490658503988654
1666091427466612156,0.3770623803138733,0.0,0.0,0.0,0.0,0.3490658503988654
1666091427531024248,0.3719339668750763,0.0,0.0,0.0,0.0,0.3490658503988654
1666091427626290890,0.36876410245895386,0.0,0.0,0.0,0.0,0.3490658503988654
1666091427700691742,0.36420977115631104,0.0,0.0,0.0,0.0,0.3490658503988654
1666091427837237467,0.0,0.0,0.0,0.0,0.0,0.2410268801218561
1666091427881512738,0.0,0.0,0.0,0.0,0.0,0.22363644626066098
1666091428005023457,0.0,0.0,0.0,0.0,0.0,0.22397627366413753
1666091428092641301,0.0,0.0,0.0,0.0,0.0,0.17453292519943245
1666091428137988721,0.0,0.0,0.0,0.0,0.0,0.17453292519943245
1666091428182323787,0.0,0.0,0.0,0.0,0.0,0.17453292519943245
1666091428258496043,0.0,0.0,0.0,0.0,0.0,0.17453292519943245
1666091428344863974,0.0,0.0,0.0,0.0,0.0,0.17453292519943245
1666091428441749245,0.0,0.0,0.0,0.0,0.0,-4.996003610813204e-16
1666091428511133274,0.0,0.0,0.0,0.0,0.0,-4.996003610813204e-16
1666091428520134061,0.0,0.0,0.0,0.0,0.0,-4.996003610813204e-16
1666091428696802773,0.0,0.0,0.0,0.0,0.0,-4.996003610813204e-16
1666091428754429263,0.4176967740058899,0.0,0.0,0.0,0.0,-4.996003610813204e-16
1666091428913492172,0.46090787649154663,0.0,0.0,0.0,0.0,-4.996003610813204e-16
1666091428969392130,0.48561394214630127,0.0,0.0,0.0,0.0,-0.06710506230592728
1666091428999450098,0.4851875007152557,0.0,0.0,0.0,0.0,-0.06703175604343414
1666091429148272846,0.5208632946014404,0.0,0.0,0.0,0.0,-0.07174340635538101
1666091429162775201,0.5196549892425537,0.0,0.0,0.0,0.0,-0.0717189684510231
1666091429254872283,0.5451575517654419,0.0,0.0,0.0,0.0,-0.0739646628499031
1666091429352061334,0.5543515682220458,0.0,0.0,0.0,0.0,-0.07417727261781693
1666091429385385042,0.553925096988678,0.0,0.0,0.0,0.0,-0.07433085888624191
1666091429441795054,0.5639017224311829,0.0,0.0,0.0,0.0,-0.07456294447183609
1666091429553667906,0.5876851677894592,0.0,0.0,0.0,0.0,-0.07413480430841446
1666091429670638082,0.578029990196228,0.0,0.0,0.0,0.0,-4.996003610813204e-16
1666091429682776145,0.6004857420921326,0.0,0.0,0.0,0.0,-0.07481459528207779
1666091429753280819,0.6121267080307007,0.0,0.0,0.0,0.0,-0.07365576922893524
1666091429851158301,0.6220087409019469,0.0,0.0,0.0,0.0,-0.07373294234275818
1666091429983821809,0.6280773282051086,0.0,0.0,0.0,0.0,-0.07480364292860031
1666091430061669438,0.6413738131523132,0.0,0.0,0.0,0.0,-0.07504981011152267
1666091430150169082,0.6569977402687073,0.0,0.0,0.0,0.0,-0.07496751844882965
1666091430282650750,0.6649352312088013,0.0,0.0,0.0,0.0,-0.07519998401403427
1666091430326780092,0.6731181740760802,0.0,0.0,0.0,0.0,-0.07747537642717361
1666091430406228161,0.663399040699005,0.0,0.0,0.0,0.0,0.01673230342566967
1666091430534632340,0.6720949411392212,0.0,0.0,0.0,0.0,-0.08481237292289734
1666091430623095106,0.6637629270553589,0.0,0.0,0.0,0.0,-0.08884842693805695
1666091430668419932,0.6531448364257812,0.0,0.0,0.0,0.0,-0.09264576435089111
1666091430702435539,0.6420066356658936,0.0,0.0,0.0,0.0,-0.09612087905406952
1666091430794174060,0.6267539262771605,0.0,0.0,0.0,0.0,-0.09988531470298767
1666091430933010070,0.609277069568634,0.0,0.0,0.0,0.0,-0.10302837193012238
1666091431011602827,0.5767462253570557,0.0,0.0,0.0,0.0,-0.10972701758146286
1666091431027395153,0.576461911201477,0.0,0.0,0.0,0.0,-0.1098003163933754
1666091431126743484,0.5617320537567139,0.0,0.0,0.0,0.0,-0.11262873560190201
1666091431259754321,0.5213799476623535,0.0,0.0,0.0,0.0,-0.1179649606347084
1666091431302809927,0.5011509656906128,0.0,0.0,0.0,0.0,-0.12201554328203201
1666091431347299648,0.5007955431938171,0.0,0.0,0.0,0.0,-0.12229479104280472
1666091431382381130,0.48131418228149414,0.0,0.0,0.0,0.0,-0.12661556899547577
1666091431511224482,0.4598847925662994,0.0,0.0,0.0,0.0,-0.12956663966178894
1666091431630438931,0.438706487417221,0.0,0.0,0.0,0.0,-0.13148340582847595
1666091431715087883,0.0,0.0,0.0,0.0,0.0,-0.3879870250134416
1666091431765026651,0.0,0.0,0.0,0.0,0.0,-0.4123357630852904
1666091431802818233,0.0,0.0,0.0,0.0,0.0,-0.4108149517882385
1666091431925391317,0.0,0.0,0.0,0.0,0.0,-0.4427008805544997
1666091432013173850,0.0,0.0,0.0,0.0,0.0,-0.4596823708212809
1666091432057633922,0.0,0.0,0.0,0.0,0.0,-0.48097500191418885
1666091432152951074,0.0,0.0,0.0,0.0,0.0,-0.49530163299048907
1666091432181098487,0.0,0.0,0.0,0.0,0.0,-0.5002070518249886
1666091432315759192,0.0,0.0,0.0,0.0,0.0,-0.5406788752859556
1666091432379374492,0.0,0.0,0.0,0.0,0.0,-0.5235987755982994
1666091432495289823,0.0,0.0,0.0,0.0,0.0,-0.5235987755982994
1666091432520948788,0.0,0.0,0.0,0.0,0.0,-0.5235987755982994
1666091432614210199,0.0,0.0,0.0,0.0,0.0,-0.4634076756735382
1666091432705344844,0.0,0.0,0.0,0.0,0.0,-0.45299506381325333
1666091432752932900,0.0,0.0,0.0,0.0,0.0,-0.43926844092377015
1666091432824757046,0.0,0.0,0.0,0.0,0.0,-0.38682960490422374
1666091432919781826,0.4198903739452362,0.0,0.0,0.0,0.0,-0.1348116099834442
1666091432963171592,0.39879998564720154,0.0,0.0,0.0,0.0,-0.01739407517015934
1666091433012652604,0.48046144843101496,0.0,0.0,0.0,0.0,-0.13427938520908356
1666091433094484299,0.5121195912361145,0.0,0.0,0.0,0.0,-0.13572268187999725
1666091433175724457,0.5435101985931395,0.0,0.0,0.0,0.0,-0.1339111179113388
1666091433267178038,0.5542373657226562,0.0,0.0,0.0,0.0,-4.996003610813204e-16
1666091433380102546,0.6108125448226929,0.0,0.0,0.0,0.0,-4.996003610813204e-16
1666091433428614063,0.6101018190383911,0.0,0.0,0.0,0.0,-4.996003610813204e-16
1666091433485665103,0.6336294412612915,0.0,0.0,0.0,0.0,0.3490658503988654
1666091433547422568,0.6240509152412415,0.0,0.0,0.0,0.0,0.3490658503988654
1666091433642160893,0.6714218258857727,0.0,0.0,0.0,0.0,0.3490658503988654
1666091433772018903,0.6781892776489258,0.0,0.0,0.0,0.0,0.3490658503988654
1666091433806066517,0.6838908791542053,0.0,0.0,0.0,0.0,0.3490658503988654
1666091433903451276,0.667370080947876,0.0,0.0,0.0,0.0,0.3490658503988654
1666091433997741623,0.7059707641601562,0.0,0.0,0.0,0.0,0.3490658503988654
1666091434033659637,0.7051888704299927,0.0,0.0,0.0,0.0,0.3490658503988654
1666091434066113467,0.6812939047813416,0.0,0.0,0.0,0.0,0.3490658503988654
1666091434150852653,0.703713595867157,0.0,0.0,0.0,0.0,0.3490658503988654
1666091434238697471,0.6793869137763977,0.0,0.0,0.0,0.0,0.3490658503988654
1666091434328541562,0.704090416431427,0.0,0.0,0.0,0.0,0.3490658503988654
1666091434371737602,0.7052058577537536,0.0,0.0,0.0,0.0,0.3490658503988654
1666091434406560140,0.7032104730606079,0.0,0.0,0.0,0.0,0.3490658503988654
1666091434494278745,0.6999137997627258,0.0,0.0,0.0,0.0,0.3490658503988654
1666091434589853036,0.6666916012763977,0.0,0.0,0.0,0.0,0.3490658503988654
1666091434631119291,0.6683324575424194,0.0,0.0,0.0,0.0,0.3490658503988654
1666091434707951931,0.6872921586036682,0.0,0.0,0.0,0.0,0.3490658503988654
1666091434752170837,0.646740734577179,0.0,0.0,0.0,0.0,0.3490658503988654
1666091434839585681,0.1,0.0,0.0,0.0,0.0,-0.026030229404568672
1666091434928492667,0.1,0.0,0.0,0.0,0.0,-0.12257882952690125
1666091434984730503,0.6263569593429565,0.0,0.0,0.0,0.0,0.17453292519943245
1666091435092201877,0.6402057409286499,0.0,0.0,0.0,0.0,0.17453292519943245
1666091435187155366,0.6317960619926453,0.0,0.0,0.0,0.0,0.17453292519943245
1666091435263486851,0.5910038352012634,0.0,0.0,0.0,0.0,-4.996003610813204e-16
1666091435370454527,0.6087964773178101,0.0,0.0,0.0,0.0,-0.11918436735868454
1666091435396425729,0.60666424036026,0.0,0.0,0.0,0.0,-0.1187131255865097
1666091435482192854,0.5987249612808228,0.0,0.0,0.0,0.0,-0.11755980551242828
1666091435536444248,0.5926848053932189,0.0,0.0,0.0,0.0,-0.11661101877689362
1666091435603972705,0.59063321352005,0.0,0.0,0.0,0.0,-0.11543568968772888
1666091435690907494,0.5879381895065308,0.0,0.0,0.0,0.0,-0.11550657451152802
1666091435777872431,0.5841671228408813,0.0,0.0,0.0,0.0,-0.11558645218610764
1666091435866416402,0.5793769955635071,0.0,0.0,0.0,0.0,-0.11501487344503403
1666091435987335850,0.5367308259010315,0.0,0.0,0.0,0.0,-0.009736528620123863
1666091436151752259,0.547202706336975,0.0,0.0,0.0,0.0,-0.3490658503988664
1666091436174210597,0.545710027217865,0.0,0.0,0.0,0.0,-0.3490658503988664
1666091436297031805,0.5330212712287903,0.0,0.0,0.0,0.0,-0.3490658503988664
1666091436383072740,0.5043407678604126,0.0,0.0,0.0,0.0,-0.3490658503988664
1666091436428493943,0.5043407678604126,0.0,0.0,0.0,0.0,-0.3490658503988664
1666091436474591444,0.4900937080383301,0.0,0.0,0.0,0.0,-0.3490658503988664
1666091436591773315,0.4343118965625763,0.0,0.0,0.0,0.0,-0.0067243329249322414
1666091436685489976,0.4609392583370209,0.0,0.0,0.0,0.0,-0.12057540565729141
1666091436728568372,0.4489484131336212,0.0,0.0,0.0,0.0,-0.17453292519943345
1666091436787208145,0.43668684363365173,0.0,0.0,0.0,0.0,-0.17453292519943345
1666091436846266563,0.4241222143173218,0.0,0.0,0.0,0.0,-0.3490658503988664
1666091436987898611,0.4170045256614685,0.0,0.0,0.0,0.0,-0.3490658503988664
1666091437064669957,0.40603721141815186,0.0,0.0,0.0,0.0,-0.3490658503988664
1666091437124249001,0.0,0.0,0.0,0.0,0.0,-0.33324293504330527
1666091437245454306,0.0,0.0,0.0,0.0,0.0,-0.34099023755114033
1666091437366887491,0.0,0.0,0.0,0.0,0.0,-0.3399792703244911
1666091437454899423,0.0,0.0,0.0,0.0,0.0,-0.33470727902509584
1666091437504756411,0.0,0.0,0.0,0.0,0.0,-0.32288848982690854
1666091437540951073,0.0,0.0,0.0,0.0,0.0,-0.3217140034144006
1666091437629597252,0.0,0.0,0.0,0.0,0.0,-0.3091276850222085
1666091437705192339,0.0,0.0,0.0,0.0,0.0,-0.2852344128581721
1666091437845164356,0.0,0.0,0.0,0.0,0.0,-0.25879446618757185
1666091437905066251,0.0,0.0,0.0,0.0,0.0,-0.17453292519943345
1666091437973901929,0.0,0.0,0.0,0.0,0.0,-0.17453292519943345
1666091438010381005,0.0,0.0,0.0,0.0,0.0,-0.17453292519943345
1666091438097369620,0.0,0.0,0.0,0.0,0.0,-0.17453292519943345
1666091438184894594,0.0,0.0,0.0,0.0,0.0,-4.996003610813204e-16
1666091438265268021,0.39441320300102234,0.0,0.0,0.0,0.0,-4.996003610813204e-16
1666091438399907448,0.4243559241294861,0.0,0.0,0.0,0.0,-4.996003610813204e-16
1666091438545370559,0.4719174802303314,0.0,0.0,0.0,0.0,-4.996003610813204e-16
1666091438569096902,0.49116548895835876,0.0,0.0,0.0,0.0,0.0658445879817009
1666091438649669436,0.49813458323478693,0.0,0.0,0.0,0.0,-4.996003610813204e-16
1666091438709503558,0.4976370632648468,0.0,0.0,0.0,0.0,-4.996003610813204e-16
1666091438755737964,0.5099068880081177,0.0,0.0,0.0,0.0,-4.996003610813204e-16
1666091438827163631,0.5214279890060425,0.0,0.0,0.0,0.0,-4.996003610813204e-16
1666091438920361008,0.5328357219696045,0.0,0.0,0.0,0.0,-4.996003610813204e-16
1666091439051860076,0.5593414306640625,0.0,0.0,0.0,0.0,0.07629680633544922
1666091439071146440,0.5721800327301025,0.0,0.0,0.0,0.0,0.07641029357910156
1666091439127519260,0.5683049559593201,0.0,0.0,0.0,0.0,-4.996003610813204e-16
1666091439215739345,0.5759512782096862,0.0,0.0,0.0,0.0,-4.996003610813204e-16
1666091439308110558,0.5846623182296753,0.0,0.0,0.0,0.0,-4.996003610813204e-16
1666091439391378725,0.5932989120483398,0.0,0.0,0.0,0.0,-4.996003610813204e-16
1666091439524282191,0.5974540710449219,0.0,0.0,0.0,0.0,-0.02930190972983837
1666091439572716458,0.6041913628578186,0.0,0.0,0.0,0.0,-0.02950953133404255
1666091439685066662,0.6086063385009766,0.0,0.0,0.0,0.0,-0.02948838099837303
1666091439778855133,0.6195473074913025,0.0,0.0,0.0,0.0,-0.029197629541158676
1666091439816888811,0.6191208958625793,0.0,0.0,0.0,0.0,-0.029051024466753006
1666091439903328967,0.6184024810791016,0.0,0.0,0.0,0.0,-0.02900473028421402
1666091439949639435,0.6169015169143677,0.0,0.0,0.0,0.0,-0.029159730300307274
1666091440026617799,0.611948549747467,0.0,0.0,0.0,0.0,-0.02889024280011654
1666091440159875949,0.6051721572875975,0.0,0.0,0.0,0.0,-0.028577448800206184
1666091440248017270,0.5951775312423706,0.0,0.0,0.0,0.0,0.07547652721405029
1666091440265425526,0.5646855235099792,0.0,0.0,0.0,0.0,-0.028129292652010918
1666091440416495833,0.5448960661888123,0.0,0.0,0.0,0.0,-0.026754580438137054
1666091440468243949,0.5231425166130066,0.0,0.0,0.0,0.0,-0.026386896148324013
1666091440532048327,0.5004069805145264,0.0,0.0,0.0,0.0,-0.025978628545999527
1666091440620731722,0.4765147864818573,0.0,0.0,0.0,0.0,-0.025561662390828133
1666091440710692339,0.45413848757743835,0.0,0.0,0.0,0.0,-0.02461693249642849
1666091440760575605,0.4283305406570434,0.0,0.0,0.0,0.0,-0.023869890719652176
1666091440828462607,0.4025738537311554,0.0,0.0,0.0,0.0,-0.024042664095759392
1666091440917503555,0.3800199329853058,0.0,0.0,0.0,0.0,-0.024112554267048836
1666091440991632902,0.0,0.0,0.0,0.0,0.0,0.21882428481203325
1666091441045226206,0.0,0.0,0.0,0.0,0.0,0.21743861759554553
1666091441090579608,0.0,0.0,0.0,0.0,0.0,0.2324321137040616
1666091441133452500,0.0,0.0,0.0,0.0,0.0,0.24778889014730174
1666091441210332204,0.0,0.0,0.0,0.0,0.0,0.26595152607199
1666091441297555921,0.0,0.0,0.0,0.0,0.0,0.2827562806373028
1666091441341555734,0.0,0.0,0.0,0.0,0.0,0.29205510895145004
1666091441436274632,0.0,0.0,0.0,0.0,0.0,0.3075743872855327
1666091441509754272,0.0,0.0,0.0,0.0,0.0,0.31295935880600334
1666091441641043367,0.0,0.0,0.0,0.0,0.0,0.3275749893939997
1666091441733394844,0.0,0.0,0.0,0.0,0.0,0.3240613834322287
1666091441819190285,0.0,0.0,0.0,0.0,0.0,0.3174018675163309
1666091441849240684,0.0,0.0,0.0,0.0,0.0,0.30975294497962647
1666091441895291099,0.36788538098335266,0.0,0.0,0.0,0.0,-0.00033883590367622674
1666091442029106721,0.39169675111770624,0.0,0.0,0.0,0.0,0.0005867764120921493
1666091442116591442,0.4158397614955902,0.0,0.0,0.0,0.0,0.004253118298947811
1666091442148251927,0.4824320077896118,0.0,0.0,0.0,0.0,0.1194341704249382
1666091442192054113,0.5045726299285889,0.0,0.0,0.0,0.0,0.11781174689531326
1666091442282093648,0.4948600232601166,0.0,0.0,0.0,0.0,0.007397576700896025
1666091442371621500,0.5220392346382141,0.0,0.0,0.0,0.0,0.007834963500499725
1666091442412211008,0.5529152154922485,0.0,0.0,0.0,0.0,0.008493443951010704
1666091442539654351,0.6074919104576111,0.0,0.0,0.0,0.0,0.009018386714160442
1666091442577264927,0.6067101359367371,0.0,0.0,0.0,0.0,0.008596017025411129
1666091442707782743,0.6302269101142883,0.0,0.0,0.0,0.0,0.009709713980555534
1666091442832875773,0.691271424293518,0.0,0.0,0.0,0.0,0.1072963997721672
1666091442875352082,0.6904895305633544,0.0,0.0,0.0,0.0,0.10735224932432175
1666091442914849488,0.6799774765968322,0.0,0.0,0.0,0.0,0.17453292519943245
1666091443004894907,0.6896638274192809,0.0,0.0,0.0,0.0,0.17453292519943245
1666091443046891625,0.6985498666763306,0.0,0.0,0.0,0.0,0.17453292519943245
1666091443135423796,0.7035790085792542,0.0,0.0,0.0,0.0,0.17453292519943245
1666091443169745592,0.705964207649231,0.0,0.0,0.0,0.0,0.17453292519943245
1666091443255679661,0.7046906352043152,0.0,0.0,0.0,0.0,0.17453292519943245
1666091443408502392,0.7040939331054686,0.0,0.0,0.0,0.0,0.17453292519943245
1666091443432010445,0.6984838247299193,0.0,0.0,0.0,0.0,0.3490658503988654
1666091443570088847,0.6949704885482788,0.0,0.0,0.0,0.0,0.3490658503988654
1666091443605660056,0.7147979736328125,0.0,0.0,0.0,0.0,0.3490658503988654
1666091443686953317,0.68258798122406,0.0,0.0,0.0,0.0,0.3490658503988654
1666091443770337321,0.6754577159881592,0.0,0.0,0.0,0.0,0.3490658503988654
1666091443867921601,0.6680664420127869,0.0,0.0,0.0,0.0,0.3490658503988654
1666091443967932510,0.6835299134254456,0.0,0.0,0.0,0.0,0.3490658503988654
1666091443970464936,0.6832455992698669,0.0,0.0,0.0,0.0,0.3490658503988654
1666091444032600852,0.6401268839836121,0.0,0.0,0.0,0.0,0.3490658503988654
1666091444123798598,0.6259939670562744,0.0,0.0,0.0,0.0,0.3490658503988654
1666091444208810716,0.6082624197006226,0.0,0.0,0.0,0.0,0.3490658503988654
1666091444253276804,0.6260010600090027,0.0,0.0,0.0,0.0,0.3490658503988654
1666091444361666226,0.5428150296211243,0.0,0.0,0.0,0.0,0.3490658503988654
1666091444371574294,0.5423174500465393,0.0,0.0,0.0,0.0,0.3490658503988654
1666091444459306832,0.5179604887962341,0.0,0.0,0.0,0.0,0.3490658503988654
1666091444596603995,0.4939236342906952,0.0,0.0,0.0,0.0,0.3490658503988654
1666091444673052494,0.4641972780227661,0.0,0.0,0.0,0.0,0.3490658503988654
1666091444762464870,0.42715251445770264,0.0,0.0,0.0,0.0,0.3490658503988654
1666091444851220564,0.44922593235969543,0.0,0.0,0.0,0.0,0.3490658503988654
1666091445024027866,0.408271849155426,0.0,0.0,0.0,0.0,0.5235987755982984
1666091445075438687,0.0,0.0,0.0,0.0,0.0,0.3490658503988654
1666091445189208077,0.0,0.0,0.0,0.0,0.0,0.3588761250291936
1666091445278037825,0.0,0.0,0.0,0.0,0.0,0.36898666170626665
1666091445409480073,0.0,0.0,0.0,0.0,0.0,0.3811447308201498
1666091445486873736,0.0,0.0,0.0,0.0,0.0,0.35956206229007115
1666091445622118607,0.0,0.0,0.0,0.0,0.0,0.3490658503988654
1666091445628641455,0.0,0.0,0.0,0.0,0.0,0.30190885827868713
1666091445697738440,0.0,0.0,0.0,0.0,0.0,0.28781452621441855
1666091445793513677,0.0,0.0,0.0,0.0,0.0,0.2602363330821257
1666091445929788092,0.0,0.0,0.0,0.0,0.0,0.2438657824094499
1666091445990592827,0.3859065473079681,0.0,0.0,0.0,0.0,0.17453292519943245
1666091446069335968,0.41892126202583313,0.0,0.0,0.0,0.0,0.17453292519943245
1666091446097390850,0.41835263371467585,0.0,0.0,0.0,0.0,0.17453292519943245
1666091446230748313,0.39613696932792664,0.0,0.0,0.0,0.0,0.17453292519943245
1666091446309368495,0.41024586558341974,0.0,0.0,0.0,0.0,0.17453292519943245
1666091446409191264,0.4334365129470825,0.0,0.0,0.0,0.0,0.17453292519943245
1666091446443650769,0.43293899297714233,0.0,0.0,0.0,0.0,0.17453292519943245
1666091446558951927,0.46558448672294617,0.0,0.0,0.0,0.0,-4.996003610813204e-16
1666091446598463642,0.479137122631073,0.0,0.0,0.0,0.0,-4.996003610813204e-16
1666091446646354292,0.4787106513977051,0.0,0.0,0.0,0.0,-4.996003610813204e-16
1666091446733306161,0.4896208941936493,0.0,0.0,0.0,0.0,-0.05786207690834999
1666091446791080387,0.48527541756629944,0.0,0.0,0.0,0.0,-4.996003610813204e-16
1666091446896038169,0.49202826619148254,0.0,0.0,0.0,0.0,-0.07037483155727386
1666091446984774959,0.4808453917503357,0.0,0.0,0.0,0.0,-0.07718196511268616
1666091447116148245,0.4656568169593811,0.0,0.0,0.0,0.0,-0.08337295800447464
1666091447159198314,0.4407632052898407,0.0,0.0,0.0,0.0,-0.08872799575328827
1666091447242419052,0.3845175504684448,0.0,0.0,0.0,0.0,0.02950219437479973
1666091447376702125,0.0,0.0,0.0,0.0,0.0,-0.17453292519943345
1666091447420920360,0.0,0.0,0.0,0.0,0.0,-0.21796057168229407
1666091447494648518,0.0,0.0,0.0,0.0,0.0,-0.2473546176618531
1666091447581830091,0.0,0.0,0.0,0.0,0.0,-0.27533496599555213
1666091447668570995,0.0,0.0,0.0,0.0,0.0,-0.3090037508290071
1666091447765986604,0.0,0.0,0.0,0.0,0.0,-0.36787275085276433
1666091447790490367,0.0,0.0,0.0,0.0,0.0,-0.3605044779811806
1666091447894984032,0.0,0.0,0.0,0.0,0.0,-0.4029926202532242
1666091447909431305,0.0,0.0,0.0,0.0,0.0,-0.3938018977243492
1666091447993338588,0.0,0.0,0.0,0.0,0.0,-0.4126974425602216
1666091448153294376,0.0,0.0,0.0,0.0,0.0,-0.4326894642731791
1666091448221124263,0.0,0.0,0.0,0.0,0.0,-0.4278862398852498
1666091448229597313,0.0,0.0,0.0,0.0,0.0,-0.42231235269470124
1666091448319356939,0.0,0.0,0.0,0.0,0.0,-0.4426565360836254
1666091448361796037,0.0,0.0,0.0,0.0,0.0,-0.444342092492205
1666091448455516571,0.0,0.0,0.0,0.0,0.0,-0.4304417234403214
1666091448473109644,0.0,0.0,0.0,0.0,0.0,-0.40172334248922054
1666091448586073701,0.0,0.0,0.0,0.0,0.0,-0.3906845877752038
1666091448676814967,0.0,0.0,0.0,0.0,0.0,-0.3618667609499261
1666091448688142101,0.0,0.0,0.0,0.0,0.0,-0.35450005414991426
1666091448757267667,0.0,0.0,0.0,0.0,0.0,-0.3490658503988664
1666091448888972885,0.0,0.0,0.0,0.0,0.0,-0.3179498957174647
1666091448950218198,0.0,0.0,0.0,0.0,0.0,-0.2841095946000438
1666091449015615752,0.0,0.0,0.0,0.0,0.0,-0.25795384485100775
1666091449105545778,0.0,0.0,0.0,0.0,0.0,-0.23922346629679753
1666091449149704806,0.0,0.0,0.0,0.0,0.0,-0.21980282527604586
1666091449272487934,0.0,0.0,0.0,0.0,0.0,-0.17453292519943345
1666091449365600259,0.0,0.0,0.0,0.0,0.0,-0.17453292519943345
1666091449412885713,0.0,0.0,0.0,0.0,0.0,-0.17453292519943345
1666091449499331105,0.0,0.0,0.0,0.0,0.0,-0.17453292519943345
1666091449533474040,0.0,0.0,0.0,0.0,0.0,-0.17453292519943345
1666091449621324479,0.0,0.0,0.0,0.0,0.0,-0.17453292519943345
1666091449712876008,0.0,0.0,0.0,0.0,0.0,-0.17453292519943345
1666091449771788875,0.0,0.0,0.0,0.0,0.0,-4.996003610813204e-16
1666091449880844154,0.0,0.0,0.0,0.0,0.0,-4.996003610813204e-16
1666091449926324034,0.0,0.0,0.0,0.0,0.0,-4.996003610813204e-16
1666091450018606135,0.0,0.0,0.0,0.0,0.0,-4.996003610813204e-16
1666091450072508461,0.0,0.0,0.0,0.0,0.0,-4.996003610813204e-16
1666091450182333649,0.0,0.0,0.0,0.0,0.0,-4.996003610813204e-16
1666091450269311459,0.0,0.0,0.0,0.0,0.0,-4.996003610813204e-16
1666091450352421466,0.0,0.0,0.0,0.0,0.0,-4.996003610813204e-16
1666091450398104060,0.0,0.0,0.0,0.0,0.0,-4.996003610813204e-16
1666091450489417625,0.0,0.0,0.0,0.0,0.0,-4.996003610813204e-16
1666091450576040359,0.0,0.0,0.0,0.0,0.0,0.17453292519943245
1666091450592844785,0.0,0.0,0.0,0.0,0.0,0.17453292519943245
1666091450658069934,0.0,0.0,0.0,0.0,0.0,0.17453292519943245
1666091450792939473,0.0,0.0,0.0,0.0,0.0,0.2467351922976228
1666091450869653100,0.0,0.0,0.0,0.0,0.0,0.2904327430570522
1666091450969406035,0.0,0.0,0.0,0.0,0.0,0.42232263319487684
1666091451010876643,0.0,0.0,0.0,0.0,0.0,0.41508026207123017
1666091451057303624,0.0,0.0,0.0,0.0,0.0,0.50379753279412
1666091451177539098,0.0,0.0,0.0,0.0,0.0,0.652075675841623
1666091451238649191,0.0,0.0,0.0,0.0,0.0,0.7100808889784301
1666091451350542222,0.0,0.0,0.0,0.0,0.0,0.7762580115053983
1666091451446794231,0.0,0.0,0.0,0.0,0.0,0.8726646259971643
1666091451519220383,0.0,0.0,0.0,0.0,0.0,0.8956098216051697
1666091451619000594,0.0,0.0,0.0,0.0,0.0,0.9290534053871524
1666091451757690596,0.0,0.0,0.0,0.0,0.0,0.9617203797815592
1666091451830961240,0.0,0.0,0.0,0.0,0.0,0.9370887555643653
1666091451873115234,0.0,0.0,0.0,0.0,0.0,0.920451701837247
1666091451917565855,0.0,0.0,0.0,0.0,0.0,0.9043729878335887
1666091452011337850,0.0,0.0,0.0,0.0,0.0,0.8994149785093734
1666091452052924254,0.0,0.0,0.0,0.0,0.0,0.8411688701026234
1666091452265196759,0.0,0.0,0.0,0.0,0.0,0.8065802193707013
1666091452358657187,0.0,0.0,0.0,0.0,0.0,0.7153004414646759
1666091452401848382,0.0,0.0,0.0,0.0,0.0,0.6385064188029618
1666091452415315440,0.0,0.0,0.0,0.0,0.0,0.6309918278646708
1666091452561139777,0.0,0.0,0.0,0.0,0.0,0.5975931920683534
1666091452604964877,0.0,0.0,0.0,0.0,0.0,0.5292847342226363
1666091452738562065,0.0,0.0,0.0,0.0,0.0,0.465857880003782
1666091452861638742,0.0,0.0,0.0,0.0,0.0,0.43623703627880234
1666091452910302725,0.0,0.0,0.0,0.0,0.0,0.40549176906095596
1666091452953130764,0.0,0.0,0.0,0.0,0.0,0.3878924181149822
1666091453000881640,0.0,0.0,0.0,0.0,0.0,0.3884522507403809
1666091453073820601,0.0,0.0,0.0,0.0,0.0,0.3764547695769636
1666091453253587445,0.0,0.0,0.0,0.0,0.0,0.3677820566709437
1666091453391430164,0.0,0.0,0.0,0.0,0.0,0.3585956041412398
1666091453421092541,0.0,0.0,0.0,0.0,0.0,0.3490658503988654
1666091453469042109,0.0,0.0,0.0,0.0,0.0,0.3490658503988654
1666091453571218040,0.0,0.0,0.0,0.0,0.0,0.3718776269518138
1666091453674587997,0.0,0.0,0.0,0.0,0.0,0.3984412012765089
1666091453728976492,0.0,0.0,0.0,0.0,0.0,0.39285460326126764
1666091453773576907,0.0,0.0,0.0,0.0,0.0,0.4272611493541666
1666091453817439425,0.0,0.0,0.0,0.0,0.0,0.45797802455273334
1666091453897846053,0.0,0.0,0.0,0.0,0.0,0.5050579191522927
1666091454036671442,0.0,0.0,0.0,0.0,0.0,0.6042133182624922
1666091454117237793,0.0,0.0,0.0,0.0,0.0,0.6248149531197217
1666091454153590517,0.0,0.0,0.0,0.0,0.0,0.61566616113986
1666091454245523215,0.0,0.0,0.0,0.0,0.0,0.699593522815349
1666091454334267589,0.0,0.0,0.0,0.0,0.0,0.7229707312686445
1666091454391290278,0.0,0.0,0.0,0.0,0.0,0.7189231315406529
1666091454457744551,0.0,0.0,0.0,0.0,0.0,0.7317829318949072
1666091454545190104,0.0,0.0,0.0,0.0,0.0,0.7446952815922009
1666091454635218339,0.0,0.0,0.0,0.0,0.0,0.7477901365024219
1666091454746318143,0.0,0.0,0.0,0.0,0.0,0.7303911991474555
1666091454759863750,0.0,0.0,0.0,0.0,0.0,0.6987906454549653
1666091454841807702,0.0,0.0,0.0,0.0,0.0,0.7006868490703881
1666091454929105239,0.0,0.0,0.0,0.0,0.0,0.68322841730148
1666091455058425995,0.0,0.0,0.0,0.0,0.0,0.6744014679794692
