%time,field.linear.x,field.linear.y,field.linear.z,field.angular.x,field.angular.y,field.angular.z
1666091411212658836,0.015,0.0,0.0,0.0,0.0,-0.0539524786221709
1666091411260587973,0.03,0.0,0.0,0.0,0.0,-0.10653774402877624
1666091411311087368,0.045,0.0,0.0,0.0,0.0,-0.15478175339831046
1666091411360874352,0.06,0.0,0.0,0.0,0.0,-0.20302576276784468
1666091411411166760,0.075,0.0,0.0,0.0,0.0,-0.2503758886172868
1666091411460694442,0.09,0.0,0.0,0.0,0.0,-0.29772601446672897
1666091411511391668,0.105,0.0,0.0,0.0,0.0,-0.33621279455277775
1666091411560730514,0.12,0.0,0.0,0.0,0.0,-0.37416142149341614
1666091411611301900,0.135,0.0,0.0,0.0,0.0,-0.40733027733016997
1666091411660742599,0.15000000000000002,0.0,0.0,0.0,0.0,-0.4404991331669238
1666091411710817585,0.16500000000000004,0.0,0.0,0.0,0.0,-0.4748390495640601
1666091411760640222,0.18000000000000005,0.0,0.0,0.0,0.0,-0.5091789659611964
1666091411810825901,0.19500000000000006,0.0,0.0,0.0,0.0,-0.5592124490498315
1666091411860886287,0.21000000000000008,0.0,0.0,0.0,0.0,-0.5903340903349205
1666091411910739906,0.2250000000000001,0.0,0.0,0.0,0.0,-0.6214557316200094
1666091411960788383,0.2400000000000001,0.0,0.0,0.0,0.0,-0.6525773729050984
1666091412010933829,0.2550000000000001,0.0,0.0,0.0,0.0,-0.6890044246381618
1666091412060835980,0.27000000000000013,0.0,0.0,0.0,0.0,-0.7188547604868148
1666091412110952556,0.28500000000000014,0.0,0.0,0.0,0.0,-0.7487050963354679
1666091412161161681,0.30000000000000016,0.0,0.0,0.0,0.0,-0.7789592283121061
1666091412210713953,0.31500000000000017,0.0,0.0,0.0,0.0,-0.8090853724332214
1666091412260839106,0.3300000000000002,0.0,0.0,0.0,0.0,-0.8392115165543368
1666091412310904408,0.3450000000000002,0.0,0.0,0.0,0.0,-0.8693376606754522
1666091412360662722,0.3600000000000002,0.0,0.0,0.0,0.0,-0.8852597926567486
1666091412410613873,0.3750000000000002,0.0,0.0,0.0,0.0,-0.9701453271910067
1666091412460986042,0.38769182562828064,0.0,0.0,0.0,0.0,-1.0471975511965983
1666091412510714902,0.40269182562828065,0.0,0.0,0.0,0.0,-1.0471975511965983
1666091412561179653,0.41769182562828067,0.0,0.0,0.0,0.0,-1.0471975511965983
1666091412611722906,0.4326918256282807,0.0,0.0,0.0,0.0,-1.0471975511965983
1666091412660981871,0.4476918256282807,0.0,0.0,0.0,0.0,-1.0471975511965983
1666091412710710199,0.3247247338294983,0.0,0.0,0.0,0.0,-1.0471975511965983
1666091412760757480,0.3247247338294983,0.0,0.0,0.0,0.0,-1.0471975511965983
1666091412811533645,0.3397247338294983,0.0,0.0,0.0,0.0,-1.0471975511965983
1666091412861289103,0.3547247338294983,0.0,0.0,0.0,0.0,-1.0471975511965983
1666091412910704157,0.36972473382949833,0.0,0.0,0.0,0.0,-1.0471975511965983
1666091412961530266,0.38472473382949834,0.0,0.0,0.0,0.0,-1.0471975511965983
1666091413010666354,0.23472473382949832,0.0,0.0,0.0,0.0,-0.9412833779109216
1666091413060699765,0.0847247338294983,0.0,0.0,0.0,0.0,-0.8166394675065156
1666091413111331514,0.0,0.0,0.0,0.0,0.0,-0.7462366532899747
1666091413160617187,0.0,0.0,0.0,0.0,0.0,-0.7051973859188788
1666091413210771704,0.0,0.0,0.0,0.0,0.0,-0.647317014232029
1666091413261703710,0.0,0.0,0.0,0.0,0.0,-0.647317014232029
1666091413311100595,0.0,0.0,0.0,0.0,0.0,-0.5935316977795762
1666091413360974981,0.0,0.0,0.0,0.0,0.0,-0.5368381658915569
1666091413411398035,0.0,0.0,0.0,0.0,0.0,-0.49762042357745045
1666091413461262898,0.0,0.0,0.0,0.0,0.0,-0.49762042357745045
1666091413511074568,0.0,0.0,0.0,0.0,0.0,-0.4327765370934659
1666091413561206686,0.0,0.0,0.0,0.0,0.0,-0.4327765370934659
1666091413610926173,0.0,0.0,0.0,0.0,0.0,-0.37458760958008375
1666091413660655993,0.0,0.0,0.0,0.0,0.0,-0.3146907414350032
1666091413710724174,0.0,0.0,0.0,0.0,0.0,-0.25581803916554113
1666091413760852503,0.0,0.0,0.0,0.0,0.0,-0.25581803916554113
1666091413811274585,0.0,0.0,0.0,0.0,0.0,-0.25581803916554113
1666091413861137373,0.0,0.0,0.0,0.0,0.0,-0.17453292519943345
1666091413910833075,0.0,0.0,0.0,0.0,0.0,-0.17453292519943345
1666091413960700489,0.0,0.0,0.0,0.0,0.0,-0.17453292519943345
1666091414010733998,0.0,0.0,0.0,0.0,0.0,-0.17453292519943345
1666091414060753753,0.0,0.0,0.0,0.0,0.0,-4.996003610813204e-16
1666091414111311936,0.0,0.0,0.0,0.0,0.0,-4.996003610813204e-16
1666091414161108234,0.0,0.0,0.0,0.0,0.0,-4.996003610813204e-16
1666091414210725387,0.0,0.0,0.0,0.0,0.0,-4.996003610813204e-16
1666091414260827848,0.0,0.0,0.0,0.0,0.0,-4.996003610813204e-16
1666091414310856633,0.0,0.0,0.0,0.0,0.0,-0.1000000000000005
1666091414361193444,0.0,0.0,0.0,0.0,0.0,-0.17453292519943345
1666091414410876282,0.0,0.0,0.0,0.0,0.0,-0.17453292519943345
1666091414460889506,0.0,0.0,0.0,0.0,0.0,-0.17453292519943345
1666091414511127611,0.0,0.0,0.0,0.0,0.0,-0.24321725534573416
1666091414561280620,0.0,0.0,0.0,0.0,0.0,-0.2928306994020331
1666091414610625014,0.0,0.0,0.0,0.0,0.0,-0.2928306994020331
1666091414660625760,0.0,0.0,0.0,0.0,0.0,-0.2928306994020331
1666091414710644520,0.0,0.0,0.0,0.0,0.0,-0.2928306994020331
1666091414761044131,0.0,0.0,0.0,0.0,0.0,-0.3859539834450393
1666091414810699563,0.0,0.0,0.0,0.0,0.0,-0.40160985524456194
1666091414860652966,0.0,0.0,0.0,0.0,0.0,-0.40160985524456194
1666091414910812914,0.0,0.0,0.0,0.0,0.0,-0.45102188813274374
1666091414960821542,0.0,0.0,0.0,0.0,0.0,-0.45102188813274374
1666091415011051969,0.0,0.0,0.0,0.0,0.0,-0.4826967253695412
1666091415060655180,0.0,0.0,0.0,0.0,0.0,-0.4826967253695412
1666091415110839331,0.0,0.0,0.0,0.0,0.0,-0.4826967253695412
1666091415160731853,0.0,0.0,0.0,0.0,0.0,-0.5129371665670647
1666091415212583942,0.0,0.0,0.0,0.0,0.0,-0.5653964864512284
1666091415260736282,0.0,0.0,0.0,0.0,0.0,-0.5653964864512284
1666091415310850017,0.0,0.0,0.0,0.0,0.0,-0.5816788990945267
1666091415360607297,0.0,0.0,0.0,0.0,0.0,-0.5814358507479838
1666091415410960039,0.015,0.0,0.0,0.0,0.0,-0.5663556364683935
1666091415460767915,0.03,0.0,0.0,0.0,0.0,-0.5512754221888032
1666091415510760694,0.045,0.0,0.0,0.0,0.0,-0.5269649877499107
1666091415560738201,0.06,0.0,0.0,0.0,0.0,-0.5143794190325697
1666091415611425164,0.075,0.0,0.0,0.0,0.0,-0.5017938503152286
1666091415660669464,0.09,0.0,0.0,0.0,0.0,-0.49004880084049435
1666091415711127905,0.105,0.0,0.0,0.0,0.0,-0.4790550323008182
1666091415760754423,0.12,0.0,0.0,0.0,0.0,-0.468061263761142
1666091415811389902,0.135,0.0,0.0,0.0,0.0,-0.44893732011765075
1666091415860751241,0.15000000000000002,0.0,0.0,0.0,0.0,-0.42981337647415946
1666091415911116328,0.16500000000000004,0.0,0.0,0.0,0.0,-0.42063371742113354
1666091415960627570,0.18000000000000005,0.0,0.0,0.0,0.0,-0.4114540583681076
1666091416010662021,0.19500000000000006,0.0,0.0,0.0,0.0,-0.4022743993150817
1666091416060837736,0.21000000000000008,0.0,0.0,0.0,0.0,-0.39343367862193807
1666091416110822153,0.2250000000000001,0.0,0.0,0.0,0.0,-0.38459295792879444
1666091416160699859,0.2400000000000001,0.0,0.0,0.0,0.0,-0.37617344047243584
1666091416210909753,0.2550000000000001,0.0,0.0,0.0,0.0,-0.36783880070349867
1666091416260747680,0.27000000000000013,0.0,0.0,0.0,0.0,-0.3595041609345615
1666091416310828288,0.28500000000000014,0.0,0.0,0.0,0.0,-0.35116952116562433
1666091416361042368,0.30000000000000016,0.0,0.0,0.0,0.0,-0.3429584802328339
1666091416411230067,0.31500000000000017,0.0,0.0,0.0,0.0,-0.32296240689606676
1666091416460631992,0.3300000000000002,0.0,0.0,0.0,0.0,-0.30296633355929964
1666091416510766326,0.3450000000000002,0.0,0.0,0.0,0.0,-0.2963493469658124
1666091416560634309,0.3600000000000002,0.0,0.0,0.0,0.0,-0.28973236037232514
1666091416610787163,0.3750000000000002,0.0,0.0,0.0,0.0,-0.2830072679362449
1666091416661307952,0.39000000000000024,0.0,0.0,0.0,0.0,-0.2762739515977896
1666091416710737386,0.40500000000000025,0.0,0.0,0.0,0.0,-0.2695406352593343
1666091416760847815,0.42000000000000026,0.0,0.0,0.0,0.0,-0.26270468663661617
1666091416810622225,0.4350000000000003,0.0,0.0,0.0,0.0,-0.25608852415154126
1666091416861076279,0.4500000000000003,0.0,0.0,0.0,0.0,-0.24947236166646633
1666091416911559511,0.4650000000000003,0.0,0.0,0.0,0.0,-0.24303108082479985
1666091416960802274,0.4800000000000003,0.0,0.0,0.0,0.0,-0.23658979998313337
1666091417011051653,0.49500000000000033,0.0,0.0,0.0,0.0,-0.23034628893648304
1666091417061813972,0.5100000000000003,0.0,0.0,0.0,0.0,-0.16632147934535715
1666091417110839976,0.5250000000000004,0.0,0.0,0.0,0.0,-0.1022966697542312
1666091417160636883,0.5400000000000004,0.0,0.0,0.0,0.0,-0.12258968155901646
1666091417210865058,0.5550000000000004,0.0,0.0,0.0,0.0,-0.14288269336380174
1666091417261084999,0.5700000000000004,0.0,0.0,0.0,0.0,-0.163175705168587
1666091417311057669,0.5190993547439575,0.0,0.0,0.0,0.0,-0.09610488265752792
1666091417360753379,0.5340993547439575,0.0,0.0,0.0,0.0,-0.12026185418972872
1666091417410638322,0.5490993547439575,0.0,0.0,0.0,0.0,-0.14871663607701843
1666091417461006865,0.482136607170105,0.0,0.0,0.0,0.0,-0.0974210724234581
1666091417510618567,0.482136607170105,0.0,0.0,0.0,0.0,-0.0974210724234581
1666091417561214706,0.497136607170105,0.0,0.0,0.0,0.0,-0.12132184623904503
1666091417610717898,0.512136607170105,0.0,0.0,0.0,0.0,-0.14522262005463196
1666091417660739553,0.527136607170105,0.0,0.0,0.0,0.0,-0.18076548648214422
1666091417711957163,0.5213867425918579,0.0,0.0,0.0,0.0,-0.19702452421188354
1666091417760604882,0.5213867425918579,0.0,0.0,0.0,0.0,-0.19702452421188354
1666091417810725568,0.5109255909919739,0.0,0.0,0.0,0.0,-0.19902528822422028
1666091417861156583,0.5109255909919739,0.0,0.0,0.0,0.0,-0.19902528822422028
1666091417910889715,0.48985195159912104,0.0,0.0,0.0,0.0,-0.20265477895736694
1666091417961196714,0.489994078874588,0.0,0.0,0.0,0.0,-0.20284326374530792
1666091418010795386,0.48000815510749817,0.0,0.0,0.0,0.0,-0.2036043256521225
1666091418060732258,0.4733511507511139,0.0,0.0,0.0,0.0,-0.2056085765361786
1666091418111364204,0.4661927223205566,0.0,0.0,0.0,0.0,-0.2082926332950592
1666091418160725102,0.4661927223205566,0.0,0.0,0.0,0.0,-0.2082926332950592
1666091418210889844,0.46114028877121843,0.0,0.0,0.0,0.0,-0.3082926332950592
1666091418261130439,0.4590802490711212,0.0,0.0,0.0,0.0,-0.3490658503988664
1666091418310786674,0.4587327290461509,0.0,0.0,0.0,0.0,-0.4490658503988664
1666091418360783087,0.4585542441173458,0.0,0.0,0.0,0.0,-0.5490658503988664
1666091418410811283,0.4583757591885407,0.0,0.0,0.0,0.0,-0.6490658503988663
1666091418460810018,0.4568420075607489,0.0,0.0,0.0,0.0,-0.7490658503988663
1666091418510936727,0.4553082559329571,0.0,0.0,0.0,0.0,-0.8490658503988663
1666091418560694602,0.45373324367387363,0.0,0.0,0.0,0.0,-0.9490658503988663
1666091418610793120,0.3199199140071869,0.0,0.0,0.0,0.0,-0.8726646259971653
1666091418660700839,0.3199199140071869,0.0,0.0,0.0,0.0,-0.8726646259971653
1666091418710641508,0.3349199140071869,0.0,0.0,0.0,0.0,-0.896923180959191
1666091418761009245,0.3499199140071869,0.0,0.0,0.0,0.0,-0.9207623268176217
1666091418810879422,0.36491991400718693,0.0,0.0,0.0,0.0,-0.9446014726760525
1666091418860856571,0.37991991400718694,0.0,0.0,0.0,0.0,-0.9755357499913
1666091418910800693,0.39491991400718696,0.0,0.0,0.0,0.0,-1.0064700273065474
1666091418960753436,0.40991991400718697,0.0,0.0,0.0,0.0,-1.039153711231058
1666091419010725185,0.41361159086227417,0.0,0.0,0.0,0.0,-1.0471975511965983
1666091419061112690,0.41315406560897827,0.0,0.0,0.0,0.0,-1.0471975511965983
1666091419110745802,0.41315406560897827,0.0,0.0,0.0,0.0,-1.0471975511965983
1666091419160755350,0.4167333543300628,0.0,0.0,0.0,0.0,-0.8726646259971653
1666091419210756344,0.4167333543300628,0.0,0.0,0.0,0.0,-0.8726646259971653
1666091419261008965,0.3171187937259674,0.0,0.0,0.0,0.0,-0.8726646259971653
1666091419310776482,0.32307800650596613,0.0,0.0,0.0,0.0,-0.6981317007977323
1666091419360738652,0.32307800650596613,0.0,0.0,0.0,0.0,-0.6981317007977323
1666091419410689852,0.33807800650596614,0.0,0.0,0.0,0.0,-0.6981317007977323
1666091419460654520,0.35307800650596616,0.0,0.0,0.0,0.0,-0.6981317007977323
1666091419510993917,0.36807800650596617,0.0,0.0,0.0,0.0,-0.6981317007977323
1666091419560900101,0.3830780065059662,0.0,0.0,0.0,0.0,-0.656011028303745
1666091419611048768,0.3980780065059662,0.0,0.0,0.0,0.0,-0.6138903558097576
1666091419660617698,0.4130780065059662,0.0,0.0,0.0,0.0,-0.4714886126361776
1666091419710830999,0.4228798449039459,0.0,0.0,0.0,0.0,-0.3490658503988664
1666091419760664560,0.4228798449039459,0.0,0.0,0.0,0.0,-0.3490658503988664
1666091419810868541,0.4228798449039459,0.0,0.0,0.0,0.0,-0.3490658503988664
1666091419860826484,0.40767353773117065,0.0,0.0,0.0,0.0,-0.08700213581323624
1666091419910997924,0.40767353773117065,0.0,0.0,0.0,0.0,-0.08700213581323624
1666091419960699689,0.40767353773117065,0.0,0.0,0.0,0.0,-0.08700213581323624
1666091420011263255,0.3980040550231933,0.0,0.0,0.0,0.0,-0.06894654780626297
1666091420060825951,0.24800405502319328,0.0,0.0,0.0,0.0,-0.042961932724045526
1666091420110824287,0.09800405502319326,0.0,0.0,0.0,0.0,-0.016977317641828076
1666091420160738618,0.0,0.0,0.0,0.0,0.0,-4.996003610813204e-16
1666091420210991085,0.0,0.0,0.0,0.0,0.0,-4.996003610813204e-16
1666091420260606728,0.0,0.0,0.0,0.0,0.0,-4.996003610813204e-16
1666091420310733345,0.0,0.0,0.0,0.0,0.0,-4.996003610813204e-16
1666091420360996442,0.0,0.0,0.0,0.0,0.0,-4.996003610813204e-16
1666091420410737291,0.0,0.0,0.0,0.0,0.0,-4.996003610813204e-16
1666091420460730732,0.0,0.0,0.0,0.0,0.0,0.0999999999999995
1666091420511526286,0.0,0.0,0.0,0.0,0.0,0.17453292519943245
1666091420560697936,0.0,0.0,0.0,0.0,0.0,0.17453292519943245
1666091420610764533,0.0,0.0,0.0,0.0,0.0,0.17453292519943245
1666091420661259233,0.015,0.0,0.0,0.0,0.0,0.171821554868229
1666091420710820189,0.03,0.0,0.0,0.0,0.0,0.16911018453702556
1666091420761132069,0.045,0.0,0.0,0.0,0.0,0.16180519300603316
1666091420811089768,0.06,0.0,0.0,0.0,0.0,0.15482014603267205
1666091420860718385,0.075,0.0,0.0,0.0,0.0,0.1481290437170041
1666091420910914404,0.09,0.0,0.0,0.0,0.0,0.14166782605118347
1666091420960667305,0.105,0.0,0.0,0.0,0.0,0.13521583584522687
1666091421010923905,0.12,0.0,0.0,0.0,0.0,0.12876384563927026
1666091421060885352,0.135,0.0,0.0,0.0,0.0,0.12275187171472375
1666091421110669622,0.15000000000000002,0.0,0.0,0.0,0.0,0.11673989779017724
1666091421160667841,0.16500000000000004,0.0,0.0,0.0,0.0,0.11615527523080353
1666091421211828947,0.18000000000000005,0.0,0.0,0.0,0.0,0.11557065267142982
1666091421261050577,0.19500000000000006,0.0,0.0,0.0,0.0,0.11504678783976158
1666091421310763157,0.21000000000000008,0.0,0.0,0.0,0.0,0.11452292300809333
1666091421360638974,0.2250000000000001,0.0,0.0,0.0,0.0,0.10832668895325405
1666091421410670341,0.2400000000000001,0.0,0.0,0.0,0.0,0.10213045489841477
1666091421460795755,0.2550000000000001,0.0,0.0,0.0,0.0,0.10237084252807771
1666091421511251188,0.27000000000000013,0.0,0.0,0.0,0.0,0.10261123015774065
1666091421561002795,0.28500000000000014,0.0,0.0,0.0,0.0,0.10285161778740361
1666091421610939168,0.30000000000000016,0.0,0.0,0.0,0.0,0.10319149298021756
1666091421661880222,0.31500000000000017,0.0,0.0,0.0,0.0,0.1036086161094938
1666091421711139398,0.3300000000000002,0.0,0.0,0.0,0.0,0.10402573923877005
1666091421761160014,0.3450000000000002,0.0,0.0,0.0,0.0,0.0973602946148562
1666091421810818822,0.3600000000000002,0.0,0.0,0.0,0.0,0.09069484999094234
1666091421861469786,0.3750000000000002,0.0,0.0,0.0,0.0,0.08447377788716687
1666091421910782676,0.39000000000000024,0.0,0.0,0.0,0.0,0.07821008052984578
1666091421960730734,0.40500000000000025,0.0,0.0,0.0,0.0,0.0722404397610638
1666091422010739215,0.42000000000000026,0.0,0.0,0.0,0.0,0.06627079899228182
1666091422061044767,0.4350000000000003,0.0,0.0,0.0,0.0,0.07147705108512004
1666091422110676526,0.4500000000000003,0.0,0.0,0.0,0.0,0.07668330317795825
1666091422160716851,0.4650000000000003,0.0,0.0,0.0,0.0,0.06743163906066159
1666091422210957755,0.4800000000000003,0.0,0.0,0.0,0.0,0.05782001524085656
1666091422260758685,0.49500000000000033,0.0,0.0,0.0,0.0,0.04820839142105153
1666091422311185070,0.5100000000000003,0.0,0.0,0.0,0.0,0.0385967676012465
1666091422360778577,0.5159878134727478,0.0,0.0,0.0,0.0,0.024839933961629868
1666091422410746587,0.5159878134727478,0.0,0.0,0.0,0.0,0.024839933961629868
1666091422461058025,0.5039243102073669,0.0,0.0,0.0,0.0,0.025181151926517487
1666091422510833936,0.4907519519329071,0.0,0.0,0.0,0.0,0.02516842819750309
1666091422560724379,0.4760415852069855,0.0,0.0,0.0,0.0,0.024830209091305733
1666091422610808133,0.4910415852069855,0.0,0.0,0.0,0.0,0.08044885104195951
1666091422660643630,0.5051045417785645,0.0,0.0,0.0,0.0,0.13259302079677582
1666091422711406202,0.5051045417785645,0.0,0.0,0.0,0.0,0.13259302079677582
1666091422761315547,0.441000759601593,0.0,0.0,0.0,0.0,0.022481227293610573
1666091422810773868,0.42531684041023254,0.0,0.0,0.0,0.0,0.02114362269639969
1666091422860775706,0.42531684041023254,0.0,0.0,0.0,0.0,0.02114362269639969
1666091422911019186,0.3985699415206909,0.0,0.0,0.0,0.0,0.018546132370829582
1666091422960991937,0.3977881073951721,0.0,0.0,0.0,0.0,0.018472827970981598
1666091423010663123,0.3977881073951721,0.0,0.0,0.0,0.0,0.018472827970981598
1666091423060689188,0.3779758512973785,0.0,0.0,0.0,0.0,0.01739242486655712
1666091423111175050,0.3929758512973785,0.0,0.0,0.0,0.0,0.05078017566311443
1666091423160984375,0.4079758512973785,0.0,0.0,0.0,0.0,0.08416792645967175
1666091423210843204,0.3665950000286102,0.0,0.0,0.0,0.0,0.018090415745973587
1666091423260752468,0.3665950000286102,0.0,0.0,0.0,0.0,0.018090415745973587
1666091423311534806,0.3815950000286102,0.0,0.0,0.0,0.0,0.04868016843954416
1666091423360959085,0.3580092191696167,0.0,0.0,0.0,0.0,0.020161446183919907
1666091423411213677,0.3580092191696167,0.0,0.0,0.0,0.0,0.020161446183919907
1666091423460985558,0.353129506111145,0.0,0.0,0.0,0.0,0.02120785601437092
1666091423510837745,0.353129506111145,0.0,0.0,0.0,0.0,0.02120785601437092
1666091423560682865,0.353129506111145,0.0,0.0,0.0,0.0,0.02120785601437092
1666091423610916568,0.34561821818351746,0.0,0.0,0.0,0.0,0.023947568610310555
1666091423660766827,0.2598332633821987,0.0,0.0,0.0,0.0,0.12394756861031056
1666091423711082158,0.17428576299981197,0.0,0.0,0.0,0.0,0.22394756861031057
1666091423760772550,0.08873826261742519,0.0,0.0,0.0,0.0,0.3239475686103106
1666091423810822883,0.003190762235038405,0.0,0.0,0.0,0.0,0.4239475686103106
1666091423860751487,0.0,0.0,0.0,0.0,0.0,0.46301345899946583
1666091423910996140,0.0,0.0,0.0,0.0,0.0,0.46832108398097555
1666091423960644167,0.0,0.0,0.0,0.0,0.0,0.46832108398097555
1666091424011203872,0.0,0.0,0.0,0.0,0.0,0.4901940726161402
1666091424060787316,0.0,0.0,0.0,0.0,0.0,0.4901940726161402
1666091424110957404,0.0,0.0,0.0,0.0,0.0,0.5028657806385894
1666091424160905914,0.0,0.0,0.0,0.0,0.0,0.5028657806385894
1666091424210707618,0.0,0.0,0.0,0.0,0.0,0.5028657806385894
1666091424260687940,0.0,0.0,0.0,0.0,0.0,0.521670097931089
1666091424311204163,0.0,0.0,0.0,0.0,0.0,0.5154239199340055
1666091424360791258,0.0,0.0,0.0,0.0,0.0,0.5154239199340055
1666091424412007894,0.0,0.0,0.0,0.0,0.0,0.4941167763451517
1666091424460818861,0.0,0.0,0.0,0.0,0.0,0.4941167763451517
1666091424510870330,0.0,0.0,0.0,0.0,0.0,0.4941167763451517
1666091424561602204,0.0,0.0,0.0,0.0,0.0,0.47739130646686867
1666091424610734724,0.0,0.0,0.0,0.0,0.0,0.47739130646686867
1666091424662010181,0.015,0.0,0.0,0.0,0.0,0.4580949635818687
1666091424711720412,0.03,0.0,0.0,0.0,0.0,0.4387986206968687
1666091424761075836,0.045,0.0,0.0,0.0,0.0,0.4207421176313606
1666091424810812317,0.06,0.0,0.0,0.0,0.0,0.4026856145658525
1666091424860812359,0.075,0.0,0.0,0.0,0.0,0.3846291115003444
1666091424910953521,0.09,0.0,0.0,0.0,0.0,0.36903503757223505
1666091424960799984,0.105,0.0,0.0,0.0,0.0,0.3534409636441257
1666091425010683546,0.12,0.0,0.0,0.0,0.0,0.33784688971601634
1666091425060864734,0.135,0.0,0.0,0.0,0.0,0.3232607978946645
1666091425111308269,0.15000000000000002,0.0,0.0,0.0,0.0,0.3094913321450701
1666091425160692331,0.16500000000000004,0.0,0.0,0.0,0.0,0.29642174104793007
1666091425210824544,0.18000000000000005,0.0,0.0,0.0,0.0,0.28335214995079006
1666091425261207113,0.19500000000000006,0.0,0.0,0.0,0.0,0.2708239952448557
1666091425310932367,0.21000000000000008,0.0,0.0,0.0,0.0,0.2587149902792462
1666091425360614912,0.2250000000000001,0.0,0.0,0.0,0.0,0.24660598531363676
1666091425410795155,0.2400000000000001,0.0,0.0,0.0,0.0,0.2344969803480273
1666091425463794621,0.2550000000000001,0.0,0.0,0.0,0.0,0.2232697107365698
1666091425510703995,0.27000000000000013,0.0,0.0,0.0,0.0,0.2119872967379223
1666091425560733085,0.28500000000000014,0.0,0.0,0.0,0.0,0.20092768715566853
1666091425611907926,0.30000000000000016,0.0,0.0,0.0,0.0,0.19619233436646147
1666091425660619157,0.31500000000000017,0.0,0.0,0.0,0.0,0.1914569815772544
1666091425710829840,0.3300000000000002,0.0,0.0,0.0,0.0,0.18036908257172923
1666091425761260545,0.3450000000000002,0.0,0.0,0.0,0.0,0.1693724951615664
1666091425810703110,0.3600000000000002,0.0,0.0,0.0,0.0,0.1583759077514036
1666091425860907434,0.3750000000000002,0.0,0.0,0.0,0.0,0.14751933758241703
1666091425910645123,0.39000000000000024,0.0,0.0,0.0,0.0,0.13666276741343047
1666091425960806750,0.40500000000000025,0.0,0.0,0.0,0.0,0.12580619724444392
1666091426010770620,0.42000000000000026,0.0,0.0,0.0,0.0,0.11503559541394406
1666091426061196908,0.4350000000000003,0.0,0.0,0.0,0.0,0.10438899340335138
1666091426110809421,0.4500000000000003,0.0,0.0,0.0,0.0,0.09397403051273824
1666091426160783612,0.4650000000000003,0.0,0.0,0.0,0.0,0.08377368433168084
1666091426210625023,0.4800000000000003,0.0,0.0,0.0,0.0,0.07357333815062343
1666091426261536695,0.49500000000000033,0.0,0.0,0.0,0.0,0.07447655311233993
1666091426310741576,0.5100000000000003,0.0,0.0,0.0,0.0,0.07537976807405643
1666091426360659774,0.5250000000000004,0.0,0.0,0.0,0.0,0.060414595838235816
1666091426410666489,0.5400000000000004,0.0,0.0,0.0,0.0,0.04463028723769061
1666091426462389923,0.5550000000000004,0.0,0.0,0.0,0.0,0.0288459786371454
1666091426511038119,0.5700000000000004,0.0,0.0,0.0,0.0,0.008134409132309589
1666091426560667898,0.5850000000000004,0.0,0.0,0.0,0.0,-0.012577160372526236
1666091426611225591,0.5934346914291382,0.0,0.0,0.0,0.0,0.08083927631378174
1666091426660607998,0.5934346914291382,0.0,0.0,0.0,0.0,0.08083927631378174
1666091426710674347,0.5934346914291382,0.0,0.0,0.0,0.0,0.08083927631378174
1666091426761280899,0.5626486161402567,0.0,0.0,0.0,0.0,-0.019160723686218267
1666091426810759712,0.5440821851324626,0.0,0.0,0.0,0.0,0.08083927631378174
1666091426861407353,0.5057389307242827,0.0,0.0,0.0,0.0,-0.019160723686218267
1666091426910670177,0.5058980584144592,0.0,0.0,0.0,0.0,-0.020494738593697548
1666091426960725973,0.5058980584144592,0.0,0.0,0.0,0.0,-0.020494738593697548
1666091427010677970,0.4878883361816406,0.0,0.0,0.0,0.0,-0.019766515120863914
1666091427060906636,0.4878883361816406,0.0,0.0,0.0,0.0,-0.019766515120863914
1666091427110785569,0.4589155024461679,0.0,0.0,0.0,0.0,0.08023348487913609
1666091427160606246,0.43159428238868713,0.0,0.0,0.0,0.0,0.17453292519943245
1666091427210654420,0.43159428238868713,0.0,0.0,0.0,0.0,0.17453292519943245
1666091427260911069,0.4163437187671661,0.0,0.0,0.0,0.0,0.17453292519943245
1666091427310715775,0.40484464168548584,0.0,0.0,0.0,0.0,0.17453292519943245
1666091427361833106,0.39585116505622864,0.0,0.0,0.0,0.0,0.17453292519943245
1666091427410587808,0.3964908719062805,0.0,0.0,0.0,0.0,0.17453292519943245
1666091427461862561,0.3851148161832199,0.0,0.0,0.0,0.0,0.27453292519943245
1666091427510822584,0.3770623803138733,0.0,0.0,0.0,0.0,0.3490658503988654
1666091427561038972,0.3719339668750763,0.0,0.0,0.0,0.0,0.3490658503988654
1666091427610891173,0.3719339668750763,0.0,0.0,0.0,0.0,0.3490658503988654
1666091427660676343,0.36876410245895386,0.0,0.0,0.0,0.0,0.3490658503988654
1666091427711241822,0.36420977115631104,0.0,0.0,0.0,0.0,0.3490658503988654
1666091427760635171,0.36420977115631104,0.0,0.0,0.0,0.0,0.3490658503988654
1666091427812481046,0.36420977115631104,0.0,0.0,0.0,0.0,0.3490658503988654
1666091427860790292,0.214209771156311,0.0,0.0,0.0,0.0,0.30456993945693683
1666091427912045463,0.06420977115631099,0.0,0.0,0.0,0.0,0.24789640904836047
1666091427961129205,0.0,0.0,0.0,0.0,0.0,0.22363644626066098
1666091428011177875,0.0,0.0,0.0,0.0,0.0,0.22397627366413753
1666091428061132349,0.0,0.0,0.0,0.0,0.0,0.22397627366413753
1666091428110651266,0.0,0.0,0.0,0.0,0.0,0.17453292519943245
1666091428161112041,0.0,0.0,0.0,0.0,0.0,0.17453292519943245
1666091428210880042,0.0,0.0,0.0,0.0,0.0,0.17453292519943245
1666091428260662868,0.0,0.0,0.0,0.0,0.0,0.17453292519943245
1666091428310789074,0.0,0.0,0.0,0.0,0.0,0.17453292519943245
1666091428360707235,0.0,0.0,0.0,0.0,0.0,0.17453292519943245
1666091428410680685,0.0,0.0,0.0,0.0,0.0,0.17453292519943245
1666091428463174966,0.0,0.0,0.0,0.0,0.0,0.07453292519943244
1666091428510589858,0.0,0.0,0.0,0.0,0.0,-4.996003610813204e-16
1666091428560837720,0.0,0.0,0.0,0.0,0.0,-4.996003610813204e-16
1666091428610644796,0.0,0.0,0.0,0.0,0.0,-4.996003610813204e-16
1666091428660624078,0.0,0.0,0.0,0.0,0.0,-4.996003610813204e-16
1666091428710914235,0.0,0.0,0.0,0.0,0.0,-4.996003610813204e-16
1666091428760707417,0.015,0.0,0.0,0.0,0.0,-4.996003610813204e-16
1666091428810791617,0.03,0.0,0.0,0.0,0.0,-4.996003610813204e-16
1666091428860651360,0.045,0.0,0.0,0.0,0.0,-4.996003610813204e-16
1666091428910884547,0.06,0.0,0.0,0.0,0.0,-4.996003610813204e-16
1666091428960737250,0.075,0.0,0.0,0.0,0.0,-4.996003610813204e-16
1666091429011207955,0.09,0.0,0.0,0.0,0.0,-0.0024512603111953232
1666091429061061193,0.105,0.0,0.0,0.0,0.0,-0.004902520622390147
1666091429111021007,0.12,0.0,0.0,0.0,0.0,-0.0073537809335849705
1666091429160707979,0.135,0.0,0.0,0.0,0.0,-0.009763191808400122
1666091429210912335,0.15000000000000002,0.0,0.0,0.0,0.0,-0.012179218314307027
1666091429260745815,0.16500000000000004,0.0,0.0,0.0,0.0,-0.014524565540731948
1666091429311026139,0.18000000000000005,0.0,0.0,0.0,0.0,-0.01686991276715687
1666091429360667069,0.19500000000000006,0.0,0.0,0.0,0.0,-0.019166177751012967
1666091429410697198,0.21000000000000008,0.0,0.0,0.0,0.0,-0.021471589726856317
1666091429460677225,0.2250000000000001,0.0,0.0,0.0,0.0,-0.02372184811979068
1666091429511376363,0.2400000000000001,0.0,0.0,0.0,0.0,-0.025972106512725045
1666091429561068280,0.2550000000000001,0.0,0.0,0.0,0.0,-0.02804996468403713
1666091429610623126,0.27000000000000013,0.0,0.0,0.0,0.0,-0.030127822855349214
1666091429660805463,0.28500000000000014,0.0,0.0,0.0,0.0,-0.0322056810266613
1666091429710861236,0.30000000000000016,0.0,0.0,0.0,0.0,-0.03423155297127868
1666091429760651886,0.31500000000000017,0.0,0.0,0.0,0.0,-0.03612617854688525
1666091429810726613,0.3300000000000002,0.0,0.0,0.0,0.0,-0.038020804122491814
1666091429861404987,0.3450000000000002,0.0,0.0,0.0,0.0,-0.039855276856593534
1666091429910680930,0.3600000000000002,0.0,0.0,0.0,0.0,-0.041689749590695255
1666091429960666820,0.3750000000000002,0.0,0.0,0.0,0.0,-0.043524222324796975
1666091430010718952,0.39000000000000024,0.0,0.0,0.0,0.0,-0.045378166778789274
1666091430060767015,0.40500000000000025,0.0,0.0,0.0,0.0,-0.04723211123278157
1666091430110807874,0.42000000000000026,0.0,0.0,0.0,0.0,-0.04899738919490609
1666091430161652957,0.4350000000000003,0.0,0.0,0.0,0.0,-0.05064108393379761
1666091430210652831,0.4500000000000003,0.0,0.0,0.0,0.0,-0.05228477867268914
1666091430261466535,0.4650000000000003,0.0,0.0,0.0,0.0,-0.05392847341158066
1666091430310626465,0.4800000000000003,0.0,0.0,0.0,0.0,-0.05552435352289323
1666091430363324962,0.49500000000000033,0.0,0.0,0.0,0.0,-0.05722934760301792
1666091430410729159,0.5100000000000003,0.0,0.0,0.0,0.0,-0.050641277024793596
1666091430460654329,0.5250000000000004,0.0,0.0,0.0,0.0,-0.044053206446569265
1666091430511824238,0.5400000000000004,0.0,0.0,0.0,0.0,-0.037465135868344934
1666091430560892593,0.5550000000000004,0.0,0.0,0.0,0.0,-0.04284163666158701
1666091430610696751,0.5700000000000004,0.0,0.0,0.0,0.0,-0.048218137454829085
1666091430661025990,0.5850000000000004,0.0,0.0,0.0,0.0,-0.054718087503195116
1666091430710659879,0.6000000000000004,0.0,0.0,0.0,0.0,-0.06561229071320288
1666091430760709986,0.6150000000000004,0.0,0.0,0.0,0.0,-0.07650649392321064
1666091430810854653,0.6267539262771605,0.0,0.0,0.0,0.0,-0.09988531470298767
1666091430860647905,0.6267539262771605,0.0,0.0,0.0,0.0,-0.09988531470298767
1666091430910858376,0.6267539262771605,0.0,0.0,0.0,0.0,-0.09988531470298767
1666091430961209038,0.609277069568634,0.0,0.0,0.0,0.0,-0.10302837193012238
1666091431010681859,0.609277069568634,0.0,0.0,0.0,0.0,-0.10302837193012238
1666091431061268161,0.576461911201477,0.0,0.0,0.0,0.0,-0.1098003163933754
1666091431110666095,0.576461911201477,0.0,0.0,0.0,0.0,-0.1098003163933754
1666091431161587636,0.5617320537567139,0.0,0.0,0.0,0.0,-0.11262873560190201
1666091431210628706,0.5617320537567139,0.0,0.0,0.0,0.0,-0.11262873560190201
1666091431260719936,0.5213799476623535,0.0,0.0,0.0,0.0,-0.1179649606347084
1666091431310827564,0.5011509656906128,0.0,0.0,0.0,0.0,-0.12201554328203201
1666091431360861866,0.5007955431938171,0.0,0.0,0.0,0.0,-0.12229479104280472
1666091431411075305,0.48131418228149414,0.0,0.0,0.0,0.0,-0.12661556899547577
1666091431460789934,0.48131418228149414,0.0,0.0,0.0,0.0,-0.12661556899547577
1666091431510632197,0.48131418228149414,0.0,0.0,0.0,0.0,-0.12661556899547577
1666091431561060749,0.4598847925662994,0.0,0.0,0.0,0.0,-0.12956663966178894
1666091431611390060,0.4598847925662994,0.0,0.0,0.0,0.0,-0.12956663966178894
1666091431660753912,0.438706487417221,0.0,0.0,0.0,0.0,-0.13148340582847595
1666091431711476976,0.438706487417221,0.0,0.0,0.0,0.0,-0.13148340582847595
1666091431760738574,0.288706487417221,0.0,0.0,0.0,0.0,-0.21918564862926143
1666091431810728321,0.13870648741722097,0.0,0.0,0.0,0.0,-0.31874834197569435
1666091431860966974,0.0,0.0,0.0,0.0,0.0,-0.4108149517882385
1666091431911110117,0.0,0.0,0.0,0.0,0.0,-0.4108149517882385
1666091431961075000,0.0,0.0,0.0,0.0,0.0,-0.4427008805544997
1666091432010750215,0.0,0.0,0.0,0.0,0.0,-0.4427008805544997
1666091432060789389,0.0,0.0,0.0,0.0,0.0,-0.48097500191418885
1666091432110701349,0.0,0.0,0.0,0.0,0.0,-0.48097500191418885
1666091432161089050,0.0,0.0,0.0,0.0,0.0,-0.49530163299048907
1666091432210640330,0.0,0.0,0.0,0.0,0.0,-0.5002070518249886
1666091432260934482,0.0,0.0,0.0,0.0,0.0,-0.5002070518249886
1666091432311529668,0.0,0.0,0.0,0.0,0.0,-0.5002070518249886
1666091432364076585,0.0,0.0,0.0,0.0,0.0,-0.5406788752859556
1666091432410699504,0.0,0.0,0.0,0.0,0.0,-0.5235987755982994
1666091432460641035,0.0,0.0,0.0,0.0,0.0,-0.5235987755982994
1666091432510933288,0.0,0.0,0.0,0.0,0.0,-0.5235987755982994
1666091432561374305,0.0,0.0,0.0,0.0,0.0,-0.5235987755982994
1666091432611659418,0.0,0.0,0.0,0.0,0.0,-0.5235987755982994
1666091432664315921,0.0,0.0,0.0,0.0,0.0,-0.4634076756735382
1666091432710777505,0.0,0.0,0.0,0.0,0.0,-0.45299506381325333
1666091432760628850,0.0,0.0,0.0,0.0,0.0,-0.43926844092377015
1666091432810688246,0.0,0.0,0.0,0.0,0.0,-0.43926844092377015
1666091432861979260,0.0,0.0,0.0,0.0,0.0,-0.38682960490422374
1666091432910685005,0.0,0.0,0.0,0.0,0.0,-0.38682960490422374
1666091432961061063,0.015,0.0,0.0,0.0,0.0,-0.37782661231762843
1666091433011769574,0.03,0.0,0.0,0.0,0.0,-0.36373987896849846
1666091433061006773,0.045,0.0,0.0,0.0,0.0,-0.3560990310815603
1666091433111101846,0.06,0.0,0.0,0.0,0.0,-0.3490223738399407
1666091433160868992,0.075,0.0,0.0,0.0,0.0,-0.3419457165983211
1666091433211018574,0.09,0.0,0.0,0.0,0.0,-0.33528520207873297
1666091433261156783,0.105,0.0,0.0,0.0,0.0,-0.3286246875591448
1666091433310663603,0.12,0.0,0.0,0.0,0.0,-0.3176519353138866
1666091433361401833,0.135,0.0,0.0,0.0,0.0,-0.30667918306862835
1666091433410668847,0.15000000000000002,0.0,0.0,0.0,0.0,-0.29701111568351213
1666091433460934228,0.16500000000000004,0.0,0.0,0.0,0.0,-0.2873281138980292
1666091433511242396,0.18000000000000005,0.0,0.0,0.0,0.0,-0.2669582680796335
1666091433560956122,0.19500000000000006,0.0,0.0,0.0,0.0,-0.24614902873338101
1666091433610690534,0.21000000000000008,0.0,0.0,0.0,0.0,-0.22533978938712848
1666091433660753985,0.2250000000000001,0.0,0.0,0.0,0.0,-0.20666688725413995
1666091433710707482,0.2400000000000001,0.0,0.0,0.0,0.0,-0.18799398512115142
1666091433760947651,0.2550000000000001,0.0,0.0,0.0,0.0,-0.1693210829881629
1666091433810883056,0.27000000000000013,0.0,0.0,0.0,0.0,-0.15119105416558754
1666091433861471361,0.28500000000000014,0.0,0.0,0.0,0.0,-0.13306102534301217
1666091433911300504,0.30000000000000016,0.0,0.0,0.0,0.0,-0.11414766497182244
1666091433960876639,0.31500000000000017,0.0,0.0,0.0,0.0,-0.0952343046006327
1666091434010776610,0.3300000000000002,0.0,0.0,0.0,0.0,-0.07818826705532293
1666091434061710951,0.3450000000000002,0.0,0.0,0.0,0.0,-0.0611067055621265
1666091434110917941,0.3600000000000002,0.0,0.0,0.0,0.0,-0.04281143392044957
1666091434161089042,0.3750000000000002,0.0,0.0,0.0,0.0,-0.02570952309856402
1666091434210762346,0.39000000000000024,0.0,0.0,0.0,0.0,-0.008607612276678472
1666091434264774034,0.40500000000000025,0.0,0.0,0.0,0.0,0.009931933517291491
1666091434311186893,0.42000000000000026,0.0,0.0,0.0,0.0,0.028471479311261455
1666091434360657350,0.4350000000000003,0.0,0.0,0.0,0.0,0.04539889145955132
1666091434410816827,0.4500000000000003,0.0,0.0,0.0,0.0,0.062381838963843646
1666091434460770696,0.4650000000000003,0.0,0.0,0.0,0.0,0.07936478646813597
1666091434510896079,0.4800000000000003,0.0,0.0,0.0,0.0,0.09658606492451917
1666091434560652675,0.49500000000000033,0.0,0.0,0.0,0.0,0.11380734338090237
1666091434611470945,0.5100000000000003,0.0,0.0,0.0,0.0,0.13436092654417248
1666091434661094537,0.5250000000000004,0.0,0.0,0.0,0.0,0.1547015055246861
1666091434710806066,0.5400000000000004,0.0,0.0,0.0,0.0,0.17266580643852456
1666091434761893009,0.5550000000000004,0.0,0.0,0.0,0.0,0.19745484943964733
1666091434810614773,0.5700000000000004,0.0,0.0,0.0,0.0,0.2222438924407701
1666091434861365922,0.4200000000000004,0.0,0.0,0.0,0.0,0.14300747057523652
1666091434910713601,0.27000000000000035,0.0,0.0,0.0,0.0,0.06377104870970293
1666091434961138352,0.17877375310964538,0.0,0.0,0.0,0.0,-0.03622895129029707
1666091435010889767,0.1937737531096454,0.0,0.0,0.0,0.0,-0.02916562071104833
1666091435061009960,0.2087737531096454,0.0,0.0,0.0,0.0,-0.02210229013179959
1666091435110790117,0.22377375310964542,0.0,0.0,0.0,0.0,-0.015265689431700655
1666091435160991101,0.23877375310964544,0.0,0.0,0.0,0.0,-0.008429088731601721
1666091435210950848,0.25377375310964545,0.0,0.0,0.0,0.0,-0.0014462021449206802
1666091435260796541,0.26877375310964546,0.0,0.0,0.0,0.0,0.00553668444176036
1666091435310927858,0.2837737531096455,0.0,0.0,0.0,0.0,0.005278948521863224
1666091435361011015,0.2987737531096455,0.0,0.0,0.0,0.0,0.005021212601966088
1666091435410829583,0.3137737531096455,0.0,0.0,0.0,0.0,-0.0010069537418559956
1666091435461199310,0.3287737531096455,0.0,0.0,0.0,0.0,-0.00703512008567808
1666091435510997082,0.34377375310964553,0.0,0.0,0.0,0.0,-0.013176490197087214
1666091435561044413,0.35877375310964554,0.0,0.0,0.0,0.0,-0.019409712524754368
1666091435611573837,0.37377375310964556,0.0,0.0,0.0,0.0,-0.025622051908685675
1666091435661079364,0.38877375310964557,0.0,0.0,0.0,0.0,-0.03183439129261698
1666091435711327437,0.4037737531096456,0.0,0.0,0.0,0.0,-0.038136132562241035
1666091435761674883,0.4187737531096456,0.0,0.0,0.0,0.0,-0.044437873831865086
1666091435810899311,0.4337737531096456,0.0,0.0,0.0,0.0,-0.05089054286598589
1666091435860852074,0.4487737531096456,0.0,0.0,0.0,0.0,-0.057343211900106696
1666091435910974719,0.46377375310964564,0.0,0.0,0.0,0.0,-0.06396689831799572
1666091435960779089,0.47877375310964565,0.0,0.0,0.0,0.0,-0.07059058473588475
1666091436010845909,0.49377375310964566,0.0,0.0,0.0,0.0,-0.05484080998411219
1666091436060980398,0.5087737531096457,0.0,0.0,0.0,0.0,-0.03909103523233962
1666091436110779181,0.5237737531096457,0.0,0.0,0.0,0.0,-0.023341260480567047
1666091436160822311,0.530966625233057,0.0,0.0,0.0,0.0,-0.12334126048056705
1666091436210982776,0.5374982140112864,0.0,0.0,0.0,0.0,-0.22334126048056707
1666091436262776534,0.5440298027895158,0.0,0.0,0.0,0.0,-0.3233412604805671
1666091436310694184,0.5330212712287903,0.0,0.0,0.0,0.0,-0.3490658503988664
1666091436360840022,0.5330212712287903,0.0,0.0,0.0,0.0,-0.3490658503988664
1666091436411260218,0.5043407678604126,0.0,0.0,0.0,0.0,-0.3490658503988664
1666091436460818798,0.5043407678604126,0.0,0.0,0.0,0.0,-0.3490658503988664
1666091436511657324,0.4900937080383301,0.0,0.0,0.0,0.0,-0.3490658503988664
1666091436560999358,0.4900937080383301,0.0,0.0,0.0,0.0,-0.3490658503988664
1666091436610982824,0.4343118965625763,0.0,0.0,0.0,0.0,-0.0067243329249322414
1666091436661782841,0.4343118965625763,0.0,0.0,0.0,0.0,-0.0067243329249322414
1666091436711015518,0.4493118965625763,0.0,0.0,0.0,0.0,-0.07086009317979924
1666091436760950245,0.4489612903122462,0.0,0.0,0.0,0.0,-0.17086009317979925
1666091436810887897,0.43668684363365173,0.0,0.0,0.0,0.0,-0.17453292519943345
1666091436861134443,0.4294878413239312,0.0,0.0,0.0,0.0,-0.27453292519943345
1666091436910648636,0.4241222143173218,0.0,0.0,0.0,0.0,-0.3490658503988664
1666091436961410805,0.4241222143173218,0.0,0.0,0.0,0.0,-0.3490658503988664
1666091437010851378,0.4170045256614685,0.0,0.0,0.0,0.0,-0.3490658503988664
1666091437060721572,0.4170045256614685,0.0,0.0,0.0,0.0,-0.3490658503988664
1666091437110721900,0.40603721141815186,0.0,0.0,0.0,0.0,-0.3490658503988664
1666091437161402477,0.25603721141815183,0.0,0.0,0.0,0.0,-0.3432204814607719
1666091437210963904,0.10603721141815181,0.0,0.0,0.0,0.0,-0.33737511252267743
1666091437260887767,0.0,0.0,0.0,0.0,0.0,-0.34099023755114033
1666091437310683283,0.0,0.0,0.0,0.0,0.0,-0.34099023755114033
1666091437361383482,0.0,0.0,0.0,0.0,0.0,-0.34099023755114033
1666091437410595649,0.0,0.0,0.0,0.0,0.0,-0.3399792703244911
1666091437461129767,0.0,0.0,0.0,0.0,0.0,-0.33470727902509584
1666091437510689436,0.0,0.0,0.0,0.0,0.0,-0.32288848982690854
1666091437561337351,0.0,0.0,0.0,0.0,0.0,-0.3217140034144006
1666091437610715833,0.0,0.0,0.0,0.0,0.0,-0.3217140034144006
1666091437661224873,0.0,0.0,0.0,0.0,0.0,-0.3091276850222085
1666091437711496382,0.0,0.0,0.0,0.0,0.0,-0.2852344128581721
1666091437760703888,0.0,0.0,0.0,0.0,0.0,-0.2852344128581721
1666091437810945288,0.0,0.0,0.0,0.0,0.0,-0.2852344128581721
1666091437860857187,0.0,0.0,0.0,0.0,0.0,-0.25879446618757185
1666091437910843090,0.0,0.0,0.0,0.0,0.0,-0.17453292519943345
1666091437961877022,0.0,0.0,0.0,0.0,0.0,-0.17453292519943345
1666091438010694508,0.0,0.0,0.0,0.0,0.0,-0.17453292519943345
1666091438060982381,0.0,0.0,0.0,0.0,0.0,-0.17453292519943345
1666091438111042820,0.0,0.0,0.0,0.0,0.0,-0.17453292519943345
1666091438160864057,0.0,0.0,0.0,0.0,0.0,-0.17453292519943345
1666091438210843328,0.0,0.0,0.0,0.0,0.0,-4.996003610813204e-16
1666091438260670930,0.0,0.0,0.0,0.0,0.0,-4.996003610813204e-16
1666091438310715130,0.015,0.0,0.0,0.0,0.0,-4.996003610813204e-16
1666091438360806670,0.03,0.0,0.0,0.0,0.0,-4.996003610813204e-16
1666091438411171494,0.045,0.0,0.0,0.0,0.0,-4.996003610813204e-16
1666091438460926667,0.06,0.0,0.0,0.0,0.0,-4.996003610813204e-16
1666091438510646363,0.075,0.0,0.0,0.0,0.0,-4.996003610813204e-16
1666091438561660470,0.09,0.0,0.0,0.0,0.0,-4.996003610813204e-16
1666091438611354180,0.105,0.0,0.0,0.0,0.0,0.0024619984692348276
1666091438661370175,0.12,0.0,0.0,0.0,0.0,0.0023680612309113433
1666091438710617458,0.135,0.0,0.0,0.0,0.0,0.0022740002344705202
1666091438760782490,0.15000000000000002,0.0,0.0,0.0,0.0,0.0021830176342353207
1666091438810654650,0.16500000000000004,0.0,0.0,0.0,0.0,0.002092035034000121
1666091438860875517,0.18000000000000005,0.0,0.0,0.0,0.0,0.0020039933355983793
1666091438910946712,0.19500000000000006,0.0,0.0,0.0,0.0,0.0019159516371966376
1666091438960842709,0.21000000000000008,0.0,0.0,0.0,0.0,0.001830882851721836
1666091439010764618,0.2250000000000001,0.0,0.0,0.0,0.0,0.0017458140662470342
1666091439064814272,0.2400000000000001,0.0,0.0,0.0,0.0,0.005090493431340846
1666091439111475990,0.2550000000000001,0.0,0.0,0.0,0.0,0.008311027168495435
1666091439160694368,0.27000000000000013,0.0,0.0,0.0,0.0,0.00791312280995849
1666091439210751201,0.28500000000000014,0.0,0.0,0.0,0.0,0.007515218451421546
1666091439260715317,0.30000000000000016,0.0,0.0,0.0,0.0,0.007127771187175164
1666091439310725175,0.31500000000000017,0.0,0.0,0.0,0.0,0.006752180317008178
1666091439364539894,0.3300000000000002,0.0,0.0,0.0,0.0,0.006376589446841193
1666091439411643101,0.3450000000000002,0.0,0.0,0.0,0.0,0.0060133185128349595
1666091439460750870,0.3600000000000002,0.0,0.0,0.0,0.0,0.005650047578828726
1666091439510804386,0.3750000000000002,0.0,0.0,0.0,0.0,0.005286776644822493
1666091439561195231,0.39000000000000024,0.0,0.0,0.0,0.0,0.002954473652196469
1666091439610752144,0.40500000000000025,0.0,0.0,0.0,0.0,0.0006809922741596126
1666091439664489215,0.42000000000000026,0.0,0.0,0.0,0.0,-0.001592489103877244
1666091439710946703,0.4350000000000003,0.0,0.0,0.0,0.0,-0.0038110697822528587
1666091439761045583,0.4500000000000003,0.0,0.0,0.0,0.0,-0.006029650460628474
1666091439810731538,0.4650000000000003,0.0,0.0,0.0,0.0,-0.008079342026658096
1666091439863678263,0.4800000000000003,0.0,0.0,0.0,0.0,-0.010120436031730014
1666091439910591420,0.49500000000000033,0.0,0.0,0.0,0.0,-0.012167107533416214
1666091439960959766,0.5100000000000003,0.0,0.0,0.0,0.0,-0.01425805232192462
1666091440010797992,0.5250000000000004,0.0,0.0,0.0,0.0,-0.016348997110433028
1666091440061076019,0.5400000000000004,0.0,0.0,0.0,0.0,-0.01851256034284604
1666091440110764493,0.5550000000000004,0.0,0.0,0.0,0.0,-0.020676123575259053
1666091440163011265,0.5700000000000004,0.0,0.0,0.0,0.0,-0.023038387523664272
1666091440210841846,0.5850000000000004,0.0,0.0,0.0,0.0,-0.02540065147206949
1666091440260819180,0.5950890324005176,0.0,0.0,0.0,0.0,0.07459934852793051
1666091440310944389,0.565493090566455,0.0,0.0,0.0,0.0,-0.02540065147206949
1666091440360855843,0.5646855235099792,0.0,0.0,0.0,0.0,-0.028129292652010918
1666091440411623249,0.5646855235099792,0.0,0.0,0.0,0.0,-0.028129292652010918
1666091440461054779,0.5448960661888123,0.0,0.0,0.0,0.0,-0.026754580438137054
1666091440510729096,0.5231425166130066,0.0,0.0,0.0,0.0,-0.026386896148324013
1666091440561687797,0.5004069805145264,0.0,0.0,0.0,0.0,-0.025978628545999527
1666091440610798335,0.5004069805145264,0.0,0.0,0.0,0.0,-0.025978628545999527
1666091440660931200,0.4765147864818573,0.0,0.0,0.0,0.0,-0.025561662390828133
1666091440710874218,0.45413848757743835,0.0,0.0,0.0,0.0,-0.02461693249642849
1666091440760739692,0.4283305406570434,0.0,0.0,0.0,0.0,-0.023869890719652176
1666091440810589983,0.4283305406570434,0.0,0.0,0.0,0.0,-0.023869890719652176
1666091440861114238,0.4025738537311554,0.0,0.0,0.0,0.0,-0.024042664095759392
1666091440911166877,0.4025738537311554,0.0,0.0,0.0,0.0,-0.024042664095759392
1666091440960701847,0.3800199329853058,0.0,0.0,0.0,0.0,-0.024112554267048836
1666091441011519369,0.23001993298530576,0.0,0.0,0.0,0.0,0.07177853643337335
1666091441061818526,0.08001993298530574,0.0,0.0,0.0,0.0,0.16676600943520925
1666091441110721247,0.0,0.0,0.0,0.0,0.0,0.2324321137040616
1666091441160737787,0.0,0.0,0.0,0.0,0.0,0.24778889014730174
1666091441210686143,0.0,0.0,0.0,0.0,0.0,0.26595152607199
1666091441260744611,0.0,0.0,0.0,0.0,0.0,0.26595152607199
1666091441311067478,0.0,0.0,0.0,0.0,0.0,0.2827562806373028
1666091441360735107,0.0,0.0,0.0,0.0,0.0,0.29205510895145004
1666091441410699054,0.0,0.0,0.0,0.0,0.0,0.29205510895145004
1666091441460942808,0.0,0.0,0.0,0.0,0.0,0.3075743872855327
1666091441510682207,0.0,0.0,0.0,0.0,0.0,0.31295935880600334
1666091441561976072,0.0,0.0,0.0,0.0,0.0,0.31295935880600334
1666091441610774744,0.0,0.0,0.0,0.0,0.0,0.31295935880600334
1666091441660633684,0.0,0.0,0.0,0.0,0.0,0.3275749893939997
1666091441710861272,0.0,0.0,0.0,0.0,0.0,0.3275749893939997
1666091441760974049,0.0,0.0,0.0,0.0,0.0,0.3240613834322287
1666091441810950687,0.0,0.0,0.0,0.0,0.0,0.3240613834322287
1666091441860906037,0.0,0.0,0.0,0.0,0.0,0.30975294497962647
1666091441910952839,0.015,0.0,0.0,0.0,0.0,0.2971093963264659
1666091441960820896,0.03,0.0,0.0,0.0,0.0,0.2844658476733053
1666091442010735664,0.045,0.0,0.0,0.0,0.0,0.2718222990201447
1666091442060660366,0.06,0.0,0.0,0.0,0.0,0.26008716499882967
1666091442111253926,0.075,0.0,0.0,0.0,0.0,0.24835203097751463
1666091442160868278,0.09,0.0,0.0,0.0,0.0,0.2436057963388085
1666091442210660379,0.105,0.0,0.0,0.0,0.0,0.23905433634016493
1666091442260692893,0.12,0.0,0.0,0.0,0.0,0.2345028763415214
1666091442310763250,0.135,0.0,0.0,0.0,0.0,0.22541527221403207
1666091442360840705,0.15000000000000002,0.0,0.0,0.0,0.0,0.21632766808654275
1666091442410789478,0.16500000000000004,0.0,0.0,0.0,0.0,0.20792159077635838
1666091442461032658,0.18000000000000005,0.0,0.0,0.0,0.0,0.20021005463930786
1666091442510708182,0.19500000000000006,0.0,0.0,0.0,0.0,0.19249851850225733
1666091442561116706,0.21000000000000008,0.0,0.0,0.0,0.0,0.18582638286263178
1666091442611113061,0.2250000000000001,0.0,0.0,0.0,0.0,0.1791251286048322
1666091442660650267,0.2400000000000001,0.0,0.0,0.0,0.0,0.17242387434703263
1666091442710714671,0.2550000000000001,0.0,0.0,0.0,0.0,0.1661692764650405
1666091442761024120,0.27000000000000013,0.0,0.0,0.0,0.0,0.1599146785830484
1666091442810683503,0.28500000000000014,0.0,0.0,0.0,0.0,0.15366008070105627
1666091442860812093,0.30000000000000016,0.0,0.0,0.0,0.0,0.15194828121837622
1666091442910714878,0.31500000000000017,0.0,0.0,0.0,0.0,0.1502351994938912
1666091442960769303,0.3300000000000002,0.0,0.0,0.0,0.0,0.15123379778817914
1666091443010997057,0.3450000000000002,0.0,0.0,0.0,0.0,0.15220550215354858
1666091443061342689,0.3600000000000002,0.0,0.0,0.0,0.0,0.15315278392977072
1666091443111204218,0.3750000000000002,0.0,0.0,0.0,0.0,0.15410006570599286
1666091443162023645,0.39000000000000024,0.0,0.0,0.0,0.0,0.15503284864220915
1666091443210789953,0.40500000000000025,0.0,0.0,0.0,0.0,0.15595859004353607
1666091443260710660,0.42000000000000026,0.0,0.0,0.0,0.0,0.15688826549752047
1666091443310747393,0.4350000000000003,0.0,0.0,0.0,0.0,0.15781794095150486
1666091443360654366,0.4500000000000003,0.0,0.0,0.0,0.0,0.15874761640548926
1666091443410561567,0.4650000000000003,0.0,0.0,0.0,0.0,0.1596794750650617
1666091443461087177,0.4800000000000003,0.0,0.0,0.0,0.0,0.17184646621870212
1666091443510614414,0.49500000000000033,0.0,0.0,0.0,0.0,0.18401345737234254
1666091443560718392,0.5100000000000003,0.0,0.0,0.0,0.0,0.19618044852598296
1666091443610949164,0.5250000000000004,0.0,0.0,0.0,0.0,0.20737822059088104
1666091443660799538,0.5400000000000004,0.0,0.0,0.0,0.0,0.21857599265577912
1666091443711201742,0.5550000000000004,0.0,0.0,0.0,0.0,0.23230329175450584
1666091443760629809,0.5700000000000004,0.0,0.0,0.0,0.0,0.24603059085323256
1666091443812085937,0.5850000000000004,0.0,0.0,0.0,0.0,0.26068602766696014
1666091443860828652,0.6000000000000004,0.0,0.0,0.0,0.0,0.27534146448068775
1666091443910705850,0.6150000000000004,0.0,0.0,0.0,0.0,0.2915883220520726
1666091443960657794,0.6300000000000004,0.0,0.0,0.0,0.0,0.3078351796234574
1666091444010837001,0.6450000000000005,0.0,0.0,0.0,0.0,0.31945041299695287
1666091444061105283,0.6401268839836121,0.0,0.0,0.0,0.0,0.3490658503988654
1666091444111233970,0.6401268839836121,0.0,0.0,0.0,0.0,0.3490658503988654
1666091444160662272,0.6259939670562744,0.0,0.0,0.0,0.0,0.3490658503988654
1666091444210933709,0.6082624197006226,0.0,0.0,0.0,0.0,0.3490658503988654
1666091444261075911,0.6232624197006226,0.0,0.0,0.0,0.0,0.3490658503988654
1666091444310697190,0.6260010600090027,0.0,0.0,0.0,0.0,0.3490658503988654
1666091444360582437,0.6260010600090027,0.0,0.0,0.0,0.0,0.3490658503988654
1666091444410953000,0.5423174500465393,0.0,0.0,0.0,0.0,0.3490658503988654
1666091444462205227,0.5179604887962341,0.0,0.0,0.0,0.0,0.3490658503988654
1666091444510607185,0.5179604887962341,0.0,0.0,0.0,0.0,0.3490658503988654
1666091444560564459,0.5179604887962341,0.0,0.0,0.0,0.0,0.3490658503988654
1666091444611595302,0.4939236342906952,0.0,0.0,0.0,0.0,0.3490658503988654
1666091444660817216,0.4939236342906952,0.0,0.0,0.0,0.0,0.3490658503988654
1666091444711229685,0.4641972780227661,0.0,0.0,0.0,0.0,0.3490658503988654
1666091444760694564,0.4641972780227661,0.0,0.0,0.0,0.0,0.3490658503988654
1666091444810664956,0.42715251445770264,0.0,0.0,0.0,0.0,0.3490658503988654
1666091444860638393,0.44215251445770265,0.0,0.0,0.0,0.0,0.3490658503988654
1666091444910633868,0.44922593235969543,0.0,0.0,0.0,0.0,0.3490658503988654
1666091444960698108,0.44922593235969543,0.0,0.0,0.0,0.0,0.3490658503988654
1666091445010756820,0.44922593235969543,0.0,0.0,0.0,0.0,0.3490658503988654
1666091445060850984,0.425760971145373,0.0,0.0,0.0,0.0,0.4490658503988654
1666091445111129632,0.27576097114537296,0.0,0.0,0.0,0.0,0.413834814638008
1666091445160883794,0.12576097114537294,0.0,0.0,0.0,0.0,0.37860377887715063
1666091445211007098,0.0,0.0,0.0,0.0,0.0,0.3588761250291936
1666091445261187489,0.0,0.0,0.0,0.0,0.0,0.3588761250291936
1666091445310673010,0.0,0.0,0.0,0.0,0.0,0.36898666170626665
1666091445360647547,0.0,0.0,0.0,0.0,0.0,0.36898666170626665
1666091445410688909,0.0,0.0,0.0,0.0,0.0,0.3811447308201498
1666091445460928059,0.0,0.0,0.0,0.0,0.0,0.3811447308201498
1666091445510978975,0.0,0.0,0.0,0.0,0.0,0.35956206229007115
1666091445560694256,0.0,0.0,0.0,0.0,0.0,0.35956206229007115
1666091445610753091,0.0,0.0,0.0,0.0,0.0,0.35956206229007115
1666091445661121239,0.0,0.0,0.0,0.0,0.0,0.30190885827868713
1666091445710708575,0.0,0.0,0.0,0.0,0.0,0.28781452621441855
1666091445760653622,0.0,0.0,0.0,0.0,0.0,0.28781452621441855
1666091445810805030,0.0,0.0,0.0,0.0,0.0,0.2602363330821257
1666091445861611484,0.0,0.0,0.0,0.0,0.0,0.2602363330821257
1666091445910720408,0.0,0.0,0.0,0.0,0.0,0.2602363330821257
1666091445960662341,0.0,0.0,0.0,0.0,0.0,0.2438657824094499
1666091446010626471,0.015,0.0,0.0,0.0,0.0,0.24117084793527443
1666091446060720655,0.03,0.0,0.0,0.0,0.0,0.23847591346109898
1666091446110781844,0.045,0.0,0.0,0.0,0.0,0.2360061353762935
1666091446161368035,0.06,0.0,0.0,0.0,0.0,0.23353635729148803
1666091446210730477,0.075,0.0,0.0,0.0,0.0,0.23106657920668255
1666091446260894128,0.09,0.0,0.0,0.0,0.0,0.22842594642035635
1666091446310671148,0.105,0.0,0.0,0.0,0.0,0.22590165054274639
1666091446360713343,0.12,0.0,0.0,0.0,0.0,0.22337735466513642
1666091446410717297,0.135,0.0,0.0,0.0,0.0,0.22103982724978627
1666091446461031172,0.15000000000000002,0.0,0.0,0.0,0.0,0.21869839646295125
1666091446510612442,0.16500000000000004,0.0,0.0,0.0,0.0,0.21635696567611623
1666091446560750138,0.18000000000000005,0.0,0.0,0.0,0.0,0.20556015270508274
1666091446610949172,0.19500000000000006,0.0,0.0,0.0,0.0,0.19525249759542582
1666091446664211195,0.21000000000000008,0.0,0.0,0.0,0.0,0.18492934811371733
1666091446710748848,0.2250000000000001,0.0,0.0,0.0,0.0,0.17460619863200885
1666091446760756446,0.2400000000000001,0.0,0.0,0.0,0.0,0.16142876552064772
1666091446810652926,0.2550000000000001,0.0,0.0,0.0,0.0,0.15155646968751477
1666091446860578503,0.27000000000000013,0.0,0.0,0.0,0.0,0.1416841738543818
1666091446910827874,0.28500000000000014,0.0,0.0,0.0,0.0,0.12735768680055973
1666091446960629885,0.30000000000000016,0.0,0.0,0.0,0.0,0.11303119974673764
1666091447010977065,0.31500000000000017,0.0,0.0,0.0,0.0,0.09725420125495239
1666091447060677851,0.3300000000000002,0.0,0.0,0.0,0.0,0.08147720276316714
1666091447110678768,0.3450000000000002,0.0,0.0,0.0,0.0,0.06570020427138189
1666091447160632894,0.3600000000000002,0.0,0.0,0.0,0.0,0.041511132974540066
1666091447210829846,0.3750000000000002,0.0,0.0,0.0,0.0,0.017322061677698234
1666091447261130256,0.3845175504684448,0.0,0.0,0.0,0.0,0.02950219437479973
1666091447310784064,0.3845175504684448,0.0,0.0,0.0,0.0,0.02950219437479973
1666091447360721748,0.3845175504684448,0.0,0.0,0.0,0.0,0.02950219437479973
1666091447410659642,0.2345175504684448,0.0,0.0,0.0,0.0,-0.05009174847345156
1666091447460676471,0.09481468844463359,0.0,0.0,0.0,0.0,-0.15009174847345158
1666091447510766975,0.0,0.0,0.0,0.0,0.0,-0.2473546176618531
1666091447560886298,0.0,0.0,0.0,0.0,0.0,-0.2473546176618531
1666091447610615835,0.0,0.0,0.0,0.0,0.0,-0.27533496599555213
1666091447660651309,0.0,0.0,0.0,0.0,0.0,-0.27533496599555213
1666091447710890189,0.0,0.0,0.0,0.0,0.0,-0.3090037508290071
1666091447761009679,0.0,0.0,0.0,0.0,0.0,-0.3090037508290071
1666091447810847530,0.0,0.0,0.0,0.0,0.0,-0.3605044779811806
1666091447861953917,0.0,0.0,0.0,0.0,0.0,-0.3605044779811806
1666091447910697257,0.0,0.0,0.0,0.0,0.0,-0.3938018977243492
1666091447960785245,0.0,0.0,0.0,0.0,0.0,-0.3938018977243492
1666091448010912046,0.0,0.0,0.0,0.0,0.0,-0.4126974425602216
1666091448060823618,0.0,0.0,0.0,0.0,0.0,-0.4126974425602216
1666091448111769220,0.0,0.0,0.0,0.0,0.0,-0.4126974425602216
1666091448161048498,0.0,0.0,0.0,0.0,0.0,-0.4326894642731791
1666091448210944697,0.0,0.0,0.0,0.0,0.0,-0.4326894642731791
1666091448260865307,0.0,0.0,0.0,0.0,0.0,-0.42231235269470124
1666091448311688003,0.0,0.0,0.0,0.0,0.0,-0.42231235269470124
1666091448361279737,0.0,0.0,0.0,0.0,0.0,-0.4426565360836254
1666091448410818200,0.0,0.0,0.0,0.0,0.0,-0.444342092492205
1666091448460823896,0.0,0.0,0.0,0.0,0.0,-0.4304417234403214
1666091448511187599,0.0,0.0,0.0,0.0,0.0,-0.40172334248922054
1666091448560694295,0.0,0.0,0.0,0.0,0.0,-0.40172334248922054
1666091448610805719,0.0,0.0,0.0,0.0,0.0,-0.3906845877752038
1666091448660754114,0.0,0.0,0.0,0.0,0.0,-0.3906845877752038
1666091448711056692,0.0,0.0,0.0,0.0,0.0,-0.35450005414991426
1666091448760672142,0.0,0.0,0.0,0.0,0.0,-0.3490658503988664
1666091448812173407,0.0,0.0,0.0,0.0,0.0,-0.3490658503988664
1666091448861944748,0.0,0.0,0.0,0.0,0.0,-0.3490658503988664
1666091448910794071,0.0,0.0,0.0,0.0,0.0,-0.3179498957174647
1666091448961154338,0.0,0.0,0.0,0.0,0.0,-0.2841095946000438
1666091449011808197,0.0,0.0,0.0,0.0,0.0,-0.2841095946000438
1666091449060942680,0.0,0.0,0.0,0.0,0.0,-0.25795384485100775
1666091449111282661,0.0,0.0,0.0,0.0,0.0,-0.23922346629679753
1666091449161998519,0.0,0.0,0.0,0.0,0.0,-0.21980282527604586
1666091449210689116,0.0,0.0,0.0,0.0,0.0,-0.21980282527604586
1666091449260610798,0.0,0.0,0.0,0.0,0.0,-0.21980282527604586
1666091449312054543,0.0,0.0,0.0,0.0,0.0,-0.17453292519943345
1666091449360830486,0.0,0.0,0.0,0.0,0.0,-0.17453292519943345
1666091449411429928,0.0,0.0,0.0,0.0,0.0,-0.17453292519943345
1666091449460710974,0.0,0.0,0.0,0.0,0.0,-0.17453292519943345
1666091449511040343,0.0,0.0,0.0,0.0,0.0,-0.17453292519943345
1666091449561262147,0.0,0.0,0.0,0.0,0.0,-0.17453292519943345
1666091449613565679,0.0,0.0,0.0,0.0,0.0,-0.17453292519943345
1666091449660921853,0.0,0.0,0.0,0.0,0.0,-0.17453292519943345
1666091449710776578,0.0,0.0,0.0,0.0,0.0,-0.17453292519943345
1666091449760919801,0.0,0.0,0.0,0.0,0.0,-0.17453292519943345
1666091449812315949,0.0,0.0,0.0,0.0,0.0,-4.996003610813204e-16
1666091449860832250,0.0,0.0,0.0,0.0,0.0,-4.996003610813204e-16
1666091449910888823,0.0,0.0,0.0,0.0,0.0,-4.996003610813204e-16
1666091449960693383,0.0,0.0,0.0,0.0,0.0,-4.996003610813204e-16
1666091450017187083,0.0,0.0,0.0,0.0,0.0,-4.996003610813204e-16
1666091450060662462,0.0,0.0,0.0,0.0,0.0,-4.996003610813204e-16
1666091450111186480,0.0,0.0,0.0,0.0,0.0,-4.996003610813204e-16
1666091450160674155,0.0,0.0,0.0,0.0,0.0,-4.996003610813204e-16
1666091450211280975,0.0,0.0,0.0,0.0,0.0,-4.996003610813204e-16
1666091450260669643,0.0,0.0,0.0,0.0,0.0,-4.996003610813204e-16
1666091450310799267,0.0,0.0,0.0,0.0,0.0,-4.996003610813204e-16
1666091450360783675,0.0,0.0,0.0,0.0,0.0,-4.996003610813204e-16
1666091450410730718,0.0,0.0,0.0,0.0,0.0,-4.996003610813204e-16
1666091450460693575,0.0,0.0,0.0,0.0,0.0,-4.996003610813204e-16
1666091450512353166,0.0,0.0,0.0,0.0,0.0,-4.996003610813204e-16
1666091450560667934,0.0,0.0,0.0,0.0,0.0,-4.996003610813204e-16
1666091450611384498,0.0,0.0,0.0,0.0,0.0,0.0999999999999995
1666091450660818003,0.0,0.0,0.0,0.0,0.0,0.17453292519943245
1666091450710997067,0.0,0.0,0.0,0.0,0.0,0.17453292519943245
1666091450760937609,0.0,0.0,0.0,0.0,0.0,0.17453292519943245
1666091450811104528,0.0,0.0,0.0,0.0,0.0,0.2467351922976228
1666091450860644041,0.0,0.0,0.0,0.0,0.0,0.2467351922976228
1666091450911314969,0.0,0.0,0.0,0.0,0.0,0.2904327430570522
1666091450960802397,0.0,0.0,0.0,0.0,0.0,0.2904327430570522
1666091451010876631,0.0,0.0,0.0,0.0,0.0,0.3904327430570522
1666091451060756745,0.0,0.0,0.0,0.0,0.0,0.4904327430570522
1666091451110840880,0.0,0.0,0.0,0.0,0.0,0.50379753279412
1666091451160607034,0.0,0.0,0.0,0.0,0.0,0.50379753279412
1666091451210902685,0.0,0.0,0.0,0.0,0.0,0.60379753279412
1666091451260698033,0.0,0.0,0.0,0.0,0.0,0.7037975327941199
1666091451310700609,0.0,0.0,0.0,0.0,0.0,0.7100808889784301
1666091451360633939,0.0,0.0,0.0,0.0,0.0,0.7762580115053983
1666091451410620561,0.0,0.0,0.0,0.0,0.0,0.7762580115053983
1666091451461036239,0.0,0.0,0.0,0.0,0.0,0.8726646259971643
1666091451510943865,0.0,0.0,0.0,0.0,0.0,0.8726646259971643
1666091451561650917,0.0,0.0,0.0,0.0,0.0,0.8956098216051697
1666091451610792681,0.0,0.0,0.0,0.0,0.0,0.8956098216051697
1666091451660682789,0.0,0.0,0.0,0.0,0.0,0.9290534053871524
1666091451710847221,0.0,0.0,0.0,0.0,0.0,0.9290534053871524
1666091451760799307,0.0,0.0,0.0,0.0,0.0,0.9617203797815592
1666091451810835042,0.0,0.0,0.0,0.0,0.0,0.9617203797815592
1666091451860858636,0.0,0.0,0.0,0.0,0.0,0.9370887555643653
1666091451910993869,0.0,0.0,0.0,0.0,0.0,0.920451701837247
1666091451960727549,0.0,0.0,0.0,0.0,0.0,0.9043729878335887
1666091452012790190,0.0,0.0,0.0,0.0,0.0,0.9043729878335887
1666091452060657393,0.0,0.0,0.0,0.0,0.0,0.8411688701026234
1666091452110760203,0.0,0.0,0.0,0.0,0.0,0.8411688701026234
1666091452160597471,0.0,0.0,0.0,0.0,0.0,0.8411688701026234
1666091452211003935,0.0,0.0,0.0,0.0,0.0,0.0
1666091452310789634,0.0,0.0,0.0,0.0,0.0,0.1
1666091452360599466,0.0,0.0,0.0,0.0,0.0,0.2
1666091452412203842,0.0,0.0,0.0,0.0,0.0,0.30000000000000004
1666091452460980340,0.0,0.0,0.0,0.0,0.0,0.4
1666091452511140450,0.0,0.0,0.0,0.0,0.0,0.5
1666091452560925542,0.0,0.0,0.0,0.0,0.0,0.0
1666091452610767598,0.0,0.0,0.0,0.0,0.0,0.1
1666091452661033147,0.0,0.0,0.0,0.0,0.0,0.2
1666091452710984518,0.0,0.0,0.0,0.0,0.0,0.30000000000000004
1666091452761147417,0.0,0.0,0.0,0.0,0.0,0.4
1666091452810878491,0.0,0.0,0.0,0.0,0.0,0.465857880003782
1666091452860629047,0.0,0.0,0.0,0.0,0.0,0.465857880003782
1666091452910973414,0.0,0.0,0.0,0.0,0.0,0.40549176906095596
1666091452960575994,0.0,0.0,0.0,0.0,0.0,0.3878924181149822
1666091453011054604,0.0,0.0,0.0,0.0,0.0,0.3884522507403809
1666091453060598894,0.0,0.0,0.0,0.0,0.0,0.3884522507403809
1666091453111466795,0.0,0.0,0.0,0.0,0.0,0.3764547695769636
1666091453160667426,0.0,0.0,0.0,0.0,0.0,0.3764547695769636
1666091453210783722,0.0,0.0,0.0,0.0,0.0,0.3764547695769636
1666091453260707566,0.0,0.0,0.0,0.0,0.0,0.3677820566709437
1666091453310681635,0.0,0.0,0.0,0.0,0.0,0.3677820566709437
1666091453360871236,0.0,0.0,0.0,0.0,0.0,0.3677820566709437
1666091453410862584,0.0,0.0,0.0,0.0,0.0,0.3585956041412398
1666091453460849617,0.0,0.0,0.0,0.0,0.0,0.3490658503988654
1666091453510788371,0.0,0.0,0.0,0.0,0.0,0.3490658503988654
1666091453560599232,0.0,0.0,0.0,0.0,0.0,0.3490658503988654
1666091453611592954,0.0,0.0,0.0,0.0,0.0,0.3718776269518138
1666091453661135858,0.0,0.0,0.0,0.0,0.0,0.3718776269518138
1666091453711023665,0.0,0.0,0.0,0.0,0.0,0.3984412012765089
1666091453760976456,0.0,0.0,0.0,0.0,0.0,0.39285460326126764
1666091453811109959,0.0,0.0,0.0,0.0,0.0,0.4272611493541666
1666091453860677495,0.0,0.0,0.0,0.0,0.0,0.45797802455273334
1666091453913432454,0.0,0.0,0.0,0.0,0.0,0.5050579191522927
1666091453960611109,0.0,0.0,0.0,0.0,0.0,0.5050579191522927
1666091454010708051,0.0,0.0,0.0,0.0,0.0,0.5050579191522927
1666091454061086263,0.0,0.0,0.0,0.0,0.0,0.6042133182624922
1666091454110710584,0.0,0.0,0.0,0.0,0.0,0.6042133182624922
1666091454160744656,0.0,0.0,0.0,0.0,0.0,0.61566616113986
1666091454211255295,0.0,0.0,0.0,0.0,0.0,0.61566616113986
1666091454260775606,0.0,0.0,0.0,0.0,0.0,0.699593522815349
1666091454311061801,0.0,0.0,0.0,0.0,0.0,0.699593522815349
1666091454361912689,0.0,0.0,0.0,0.0,0.0,0.7229707312686445
1666091454412869403,0.0,0.0,0.0,0.0,0.0,0.7189231315406529
1666091454461170468,0.0,0.0,0.0,0.0,0.0,0.7317829318949072
1666091454510748579,0.0,0.0,0.0,0.0,0.0,0.7317829318949072
1666091454562546646,0.0,0.0,0.0,0.0,0.0,0.7446952815922009
1666091454611735440,0.0,0.0,0.0,0.0,0.0,0.7446952815922009
1666091454661056204,0.0,0.0,0.0,0.0,0.0,0.7477901365024219
1666091454711533902,0.0,0.0,0.0,0.0,0.0,0.7477901365024219
