%time,field.x,field.y,field.z
1666091411115960406,0.8212051522522372,-1.9588258367245233,0.0
1666091411183503852,0.8332750370002064,-1.9719382725983514,0.0
1666091411257822980,0.852445340503618,-1.9670585373538134,0.0
1666091411293815837,0.8884824567440959,-1.9705161105522504,0.0
1666091411356947427,0.8998188083307689,-1.973990512181277,0.0
1666091411423022247,0.9178123338741364,-1.9796226943692812,0.0
1666091411484604777,0.9277845263138454,-1.9823202027879994,0.0
1666091411563624717,1.0172494091978832,-1.9400161378479828,0.0
1666091411659183691,1.0095541842909612,-1.9278779997220008,0.0
1666091411713118940,1.049097983968826,-1.9192857444580436,0.0
1666091411783398218,1.0521243774757407,-1.9086302865279217,0.0
1666091411837484738,1.0628552001543885,-1.9156081138101657,0.0
1666091411946480346,1.0765555577582024,-1.9223615403175862,0.0
1666091412024606729,1.0854760128064065,-1.9292983231614171,0.0
1666091412124297993,1.079631744982932,-1.9466721231350106,0.0
1666091412180964293,1.0780708787234818,-1.9662029634756286,0.0
1666091412283701916,1.0641101786574396,-1.9920592224401452,0.0
1666091412290633379,1.0696982437119453,-1.9782282109315676,0.0
1666091412407083779,1.0589562979580596,-1.9931120417745276,0.0
1666091412450463730,1.0518533604504607,-1.980898147458638,0.0
1666091412504156635,1.0420409700889397,-1.9918912742960604,0.0
1666091412576432979,1.0195946668710758,-1.9948110976271582,0.0
1666091412673319842,0.994169669332827,-2.0036030194164276,0.0
1666091412790030706,0.9562844640348331,-2.0260940934337253,0.0
1666091412846897392,0.9267520748153018,-2.012121644173818,0.0
1666091412934063610,0.898013218574804,-2.0096093827517,0.0
1666091412980822542,0.8899012112470628,-1.9791960243664999,0.0
1666091413044526742,0.8812539967437165,-1.9573002150588288,0.0
1666091413097770805,0.8728582950483766,-1.9244866876243805,0.0
1666091413159699320,0.8680751720633899,-1.897123264231642,0.0
1666091413239632851,0.857272333989711,-1.871753425572781,0.0
1666091413300075403,0.8591109561118144,-1.8370274768020605,0.0
1666091413369744132,0.862538359791226,-1.8157633765443437,0.0
1666091413449119681,0.8688868229122981,-1.7836307462661394,0.0
1666091413519067516,0.8780620202899025,-1.7564140311375493,0.0
1666091413615947810,0.8869295754079498,-1.7299430013650294,0.0
1666091413679051271,0.9134694697930799,-1.7139881170598321,0.0
1666091413791365729,0.9294126771934563,-1.6979750789401749,0.0
1666091413877447828,0.9458844446860573,-1.6799163835606228,0.0
1666091413879054080,0.9504156638080068,-1.6717776361950851,0.0
1666091413940222905,0.9547327282186532,-1.6646722555455196,0.0
1666091413999898859,0.9521328605343051,-1.6590740445875518,0.0
1666091414133706194,0.9564638129960826,-1.6441264911771878,0.0
1666091414163955495,0.9468969035071246,-1.651183513795087,0.0
1666091414229830696,0.9402015356019596,-1.6603535574715806,0.0
1666091414314511737,0.932233472338847,-1.6762145916446825,0.0
1666091414401881722,0.9260360603850035,-1.7042533385775398,0.0
1666091414469696419,0.9160564790059915,-1.7309226973029137,0.0
1666091414540036677,0.9086043857223888,-1.7711071967378182,0.0
1666091414684211524,0.8971531858425782,-1.8059042213848195,0.0
1666091414685834440,0.8868839156468704,-1.8398326159654652,0.0
1666091414788766968,0.8776353806548809,-1.8732849289702982,0.0
1666091414862543224,0.8669657364166931,-1.908263465214431,0.0
1666091414989235279,0.8541504549742862,-1.9401141942510156,0.0
1666091415076031828,0.8435151069374378,-1.9697534702666633,0.0
1666091415162078415,0.828318955045193,-1.9994894572576967,0.0
1666091415163336760,0.8172460353706261,-2.0270944856138406,0.0
1666091415261599574,0.804624423290073,-2.053917169044525,0.0
1666091415349939655,0.7891567735006046,-2.081472332115517,0.0
1666091415450609632,0.773190107369076,-2.1083492150622622,0.0
1666091415510751649,0.7637427478123301,-2.1428662923895017,0.0
1666091415589749633,0.7500485916287769,-2.1705771624289847,0.0
1666091415690051560,0.734850062724646,-2.198239525662078,0.0
1666091415764158815,0.7222425772748751,-2.2245366813664793,0.0
1666091415887162858,0.7128888257786238,-2.250719560669253,0.0
1666091415978775421,0.7065066620126134,-2.27248784274731,0.0
1666091416089297270,0.7061219129603331,-2.2948899826318234,0.0
1666091416098243692,0.7192081412276148,-2.302325624057578,0.0
1666091416184082628,0.7310769239787333,-2.3184304100986366,0.0
1666091416273489688,0.7494758722419322,-2.342160680489175,0.0
1666091416350453827,0.7684911506164156,-2.353911424972819,0.0
1666091416484759951,0.7871612441894461,-2.3884706864327896,0.0
1666091416486167788,0.8025238627028248,-2.389260263724032,0.0
1666091416593227475,0.8202700568918935,-2.4177663062760004,0.0
1666091416654716872,0.8350499243673248,-2.4348453184049452,0.0
1666091416727036648,0.8488457439959933,-2.4548146323235907,0.0
1666091416840731174,0.8681207904998335,-2.495867077978504,0.0
1666091416944553746,0.8867035927293307,-2.5283925762496615,0.0
1666091416954694978,0.8919517175687204,-2.5381847937861313,0.0
1666091417035453716,0.9058774559984182,-2.565723773970442,0.0
1666091417110469369,0.9147459413703678,-2.5877793324801317,0.0
1666091417219199821,0.934048627873817,-2.6288852065116766,0.0
1666091417273365174,0.9363203008413241,-2.638973391473317,0.0
1666091417344025630,0.947394987838392,-2.664446389343408,0.0
1666091417421954345,0.9566035267020065,-2.688354422151703,0.0
1666091417430727488,0.9459330570534066,-2.682596449679005,0.0
1666091417509855244,0.9511374652240884,-2.703463286895274,0.0
1666091417601757061,0.9599045999912302,-2.730341455623255,0.0
1666091417689130279,0.958926237866248,-2.7513563153543568,0.0
1666091417756861506,0.9603820861828216,-2.773702563913075,0.0
1666091417834110145,0.9581579445819652,-2.79626549507397,0.0
1666091417871248660,0.9452641290349418,-2.7951112281526425,0.0
1666091417931966148,0.941507445025342,-2.809688518482847,0.0
1666091417997368714,0.9421092075065456,-2.833754007892866,0.0
1666091418066126046,0.9355856170952579,-2.8501747330249074,0.0
1666091418152178401,0.931667694263429,-2.8730170789684637,0.0
1666091418230701877,0.9305641597258163,-2.903587956072572,0.0
1666091418332137124,0.9322051301048433,-2.940179076327131,0.0
1666091418393414131,0.9271179173857681,-2.95972402508811,0.0
1666091418502449371,0.9277897530053809,-2.99953118307634,0.0
1666091418567931582,0.9162777425590358,-3.011723963128126,0.0
1666091418587907499,0.9054571419427138,-3.0098701709389264,0.0
1666091418703208836,0.8745820402301685,-3.027741241979892,0.0
1666091418751086423,0.8441775588586564,-3.0238245946340925,0.0
1666091418817957389,0.8192088036282446,-3.0264027693484215,0.0
1666091418923739886,0.8006700162484817,-3.039984697340481,0.0
1666091418976639689,0.811854141324764,-3.050475935615386,0.0
1666091419098997261,0.7980016099860581,-3.081323007727147,0.0
1666091419203870999,0.7974709735929926,-3.1088961912960418,0.0
1666091419270890908,0.8117509895097587,-3.1231904741518965,0.0
1666091419340624704,0.8227451280398547,-3.144564345675624,0.0
1666091419437985754,0.8164478941582847,-3.1680250899267324,0.0
1666091419520990120,0.8351568332596656,-3.200869309937513,0.0
1666091419627413751,0.8482633410262995,-3.229932329139599,0.0
1666091419684817728,0.8816077560993898,-3.2567360000762804,0.0
1666091419815762089,0.8817060229774607,-3.300850234339045,0.0
1666091419817273013,0.939199861366446,-3.3111602990910245,0.0
1666091419961246075,0.9724916201767491,-3.3647101367691556,0.0
1666091420052788742,1.0135161479602643,-3.3900769943558138,0.0
1666091420103767549,1.047159204168738,-3.4060528507253665,0.0
1666091420184716865,1.0730745830988322,-3.411396510321058,0.0
1666091420320596972,1.0853835445902984,-3.414608109244603,0.0
1666091420409372892,1.1014906461813603,-3.411010863785843,0.0
1666091420412141386,1.1149994203455282,-3.409587969031911,0.0
1666091420493258186,1.1222926456245113,-3.42433089756878,0.0
1666091420613772104,1.1255117765643787,-3.4470672305684937,0.0
1666091420698337469,1.1272009113928756,-3.4584777583776125,0.0
1666091420699810875,1.1285226575999656,-3.4763080125118946,0.0
1666091420773578767,1.131793338039263,-3.4894403570166532,0.0
1666091420829793973,1.1334303228235212,-3.5026199383429426,0.0
1666091420895185067,1.1315870899050857,-3.515308277545654,0.0
1666091421024487218,1.1315637359942494,-3.5406421343291643,0.0
1666091421125408502,1.1314889397536732,-3.558101957001006,0.0
1666091421191651693,1.1324882920580641,-3.5762478537278413,0.0
1666091421317515699,1.1349795233980189,-3.6046881885136233,0.0
1666091421406169434,1.1357191000602815,-3.625643257555702,0.0
1666091421408929966,1.1384261298744232,-3.6328767351713145,0.0
1666091421562396736,1.1418503046101403,-3.667573800150379,0.0
1666091421630046668,1.1450867635914639,-3.6833225503295974,0.0
1666091421710011418,1.1491999720790735,-3.7145647389878977,0.0
1666091421713245406,1.1573137545320227,-3.726879844184309,0.0
1666091421839228884,1.1608590488997348,-3.770174385088114,0.0
1666091421905989924,1.1665988241379053,-3.78903130176483,0.0
1666091422019132565,1.1707794049835298,-3.8279164743096863,0.0
1666091422105888168,1.1752144750158537,-3.851720151689893,0.0
1666091422179422434,1.180936913339322,-3.875307670042299,0.0
1666091422226008190,1.1876272756750548,-3.8835658602776393,0.0
1666091422315702730,1.1912908760986605,-3.913399640766125,0.0
1666091422398812039,1.1940275203805768,-3.9356200056406525,0.0
1666091422431492114,1.1989346456632655,-3.931607916586522,0.0
1666091422502403825,1.2007417051692493,-3.951441897499816,0.0
1666091422580783774,1.201722317454412,-3.966443498418262,0.0
1666091422691014319,1.2025179793956773,-3.9920365660762895,0.0
1666091422774773915,1.2032846304653195,-4.010076059106599,0.0
1666091422841619090,1.2042560936899,-4.027281485968521,0.0
1666091422880431664,1.2065008464880018,-4.0283011377012965,0.0
1666091422991842141,1.2074771040467849,-4.05551926480242,0.0
1666091423008947234,1.210446773563486,-4.051352170310842,0.0
1666091423085227153,1.2116090853799069,-4.071764967532975,0.0
1666091423151854812,1.2150738785211215,-4.086473178297592,0.0
1666091423270944272,1.2162222052001774,-4.121423827644909,0.0
1666091423343058369,1.219990294234196,-4.143813652649279,0.0
1666091423416271214,1.2245708543375748,-4.158023683469373,0.0
1666091423463724476,1.2278312176946653,-4.172877690630184,0.0
1666091423566953861,1.2323790506154924,-4.200579962153101,0.0
1666091423574237376,1.2386560753074427,-4.193914589202231,0.0
1666091423656128635,1.2394751926027978,-4.205707836271147,0.0
1666091423798867920,1.2418396874764703,-4.229494170567313,0.0
1666091423808191266,1.2481169096130682,-4.215263860553253,0.0
1666091423893170377,1.2606344667018488,-4.205148510040203,0.0
1666091423995400680,1.2765705155644678,-4.192628614309959,0.0
1666091424061814709,1.2952070340254835,-4.18071788076274,0.0
1666091424173964658,1.3175898292707209,-4.172811428005457,0.0
1666091424281760455,1.3392385969159202,-4.171899477549731,0.0
1666091424283631907,1.3399272254932337,-4.178595163629204,0.0
1666091424364453814,1.3533145969702165,-4.185031616914181,0.0
1666091424464375082,1.3720378143436482,-4.200219876490873,0.0
1666091424535704722,1.3780619569690473,-4.20858919016927,0.0
1666091424608136908,1.388670537267494,-4.219530300658609,0.0
1666091424688985951,1.396055897051853,-4.2366750059418,0.0
1666091424811712672,1.4066289853348146,-4.255567519732498,0.0
1666091424878688529,1.4103704348640727,-4.277304818045706,0.0
1666091424976957775,1.425506999027574,-4.296080581762718,0.0
1666091425043299737,1.429422845709055,-4.317461120008392,0.0
1666091425121655195,1.4356451191783406,-4.340520657754249,0.0
1666091425198575885,1.4307948862063788,-4.364943995851064,0.0
1666091425277719238,1.4303565777122367,-4.3905903076489325,0.0
1666091425359082886,1.4293108254381197,-4.422946749291191,0.0
1666091425425341355,1.4213593494135874,-4.45008263690415,0.0
1666091425505415195,1.4152255191250975,-4.479034776783811,0.0
1666091425564538159,1.4055931374464241,-4.50680164509466,0.0
1666091425602073386,1.3960230243278553,-4.5288222495290364,0.0
1666091425673391934,1.389427114481322,-4.555368267829021,0.0
1666091425732689402,1.3834158984865343,-4.579970814235274,0.0
1666091425806686553,1.3810078292232524,-4.609304087650876,0.0
1666091425936748774,1.3864980787587808,-4.656562938511793,0.0
1666091425993111204,1.3868788963324774,-4.673687958341442,0.0
1666091426072852910,1.3932077758990893,-4.705895874619512,0.0
1666091426134538919,1.399095479108446,-4.731837747916092,0.0
1666091426212889816,1.4053955980105841,-4.75971811592605,0.0
1666091426251007540,1.4060258691248397,-4.772452532341449,0.0
1666091426311445298,1.4103709526428778,-4.79372369285333,0.0
1666091426385720037,1.4184364958981681,-4.823854008148931,0.0
1666091426439441277,1.422079700709219,-4.84013809942691,0.0
1666091426582489695,1.43479358269503,-4.894142486708281,0.0
1666091426658830302,1.445757678525836,-4.915145482572711,0.0
1666091426741471307,1.4557000963716442,-4.935265833208788,0.0
1666091426779488895,1.46409882597157,-4.93779797554461,0.0
1666091426839446212,1.4755294277875344,-4.945398710693258,0.0
1666091426928038317,1.4876316509811023,-4.963174549049215,0.0
1666091427014914278,1.5023129736715979,-4.977310896883133,0.0
1666091427016969524,1.5054656769589174,-4.957742649710795,0.0
1666091427087590208,1.5188791601486464,-4.972399748272386,0.0
1666091427219048083,1.5370049419221665,-5.011947576709847,0.0
1666091427260030170,1.5444485854187961,-5.005288388524833,0.0
1666091427330530063,1.558560710068446,-5.024676858984895,0.0
1666091427410087998,1.571634393007758,-5.0386533313871755,0.0
1666091427448147823,1.579454489841594,-5.042732646475276,0.0
1666091427513583755,1.5913322694264944,-5.05559367041188,0.0
1666091427571075294,1.6056025883495921,-5.068907941977043,0.0
1666091427695040550,1.6297078553997144,-5.095918835390769,0.0
1666091427793593448,1.6432884649722899,-5.117453047425968,0.0
1666091427847758829,1.644002788235067,-5.124164234006891,0.0
1666091427990217193,1.6505922316848463,-5.140183005224733,0.0
1666091428014902657,1.6400655623381004,-5.133667997045885,0.0
1666091428091903672,1.6354807675395027,-5.126838842961693,0.0
1666091428147616223,1.6252535208836312,-5.125984264222066,0.0
1666091428251294154,1.6205582706362254,-5.126886282435429,0.0
1666091428306708261,1.6113706809771593,-5.134661367731481,0.0
1666091428413927971,1.6058760080286314,-5.128170811172607,0.0
1666091428445667348,1.5988381825896698,-5.148127614410203,0.0
1666091428510145507,1.591036635841999,-5.17018796848238,0.0
1666091428665287314,1.5833054288657715,-5.191459452878585,0.0
1666091428673514278,1.575799365685398,-5.217632938923825,0.0
1666091428751576838,1.5703606622291286,-5.243177009305436,0.0
1666091428863299132,1.5664236006697452,-5.268334787382152,0.0
1666091428864706275,1.560581201022674,-5.294916840805076,0.0
1666091428965135170,1.5551273334702864,-5.319507295936552,0.0
1666091429031140051,1.5504005002808436,-5.342728060772498,0.0
1666091429145958895,1.5486320464283427,-5.366766999848574,0.0
1666091429220289983,1.548578835261618,-5.387851560554943,0.0
1666091429222109128,1.5490563917516922,-5.400249377758318,0.0
1666091429347584324,1.5549901307187342,-5.421852246556697,0.0
1666091429431321279,1.5609527993418484,-5.442856072705371,0.0
1666091429529600164,1.5688958250835277,-5.468629816541009,0.0
1666091429530950712,1.57336146022785,-5.481592517131188,0.0
1666091429668055594,1.5792129469153455,-5.508837296975752,0.0
1666091429669719285,1.583635017485346,-5.520265409059132,0.0
1666091429750666630,1.5961036239077546,-5.547481724283792,0.0
1666091429822052472,1.605332985623762,-5.576267008335569,0.0
1666091429926088305,1.6120205102100083,-5.6088283230958,0.0
1666091430042470522,1.6261601887569874,-5.65587166892264,0.0
1666091430125556471,1.6402511546089094,-5.695361046431455,0.0
1666091430231767186,1.6524923044373854,-5.73650757627098,0.0
1666091430298105392,1.6545017390301657,-5.767269104148481,0.0
1666091430385151502,1.65808734164172,-5.809604816778856,0.0
1666091430484544434,1.6579870415263795,-5.848557600905071,0.0
1666091430569369433,1.6555674168880141,-5.87747982464358,0.0
1666091430628342154,1.6483507040125422,-5.8962237462839955,0.0
1666091430691513803,1.6438881344498883,-5.914691083191376,0.0
1666091430760747172,1.6400127119238959,-5.940593201998528,0.0
1666091430879755684,1.643593343366892,-5.984885450839218,0.0
1666091430962741683,1.640115034857998,-6.011198969957442,0.0
1666091431007863684,1.6297711423561676,-6.017752625081892,0.0
1666091431114391058,1.6309238664905668,-6.053262015380841,0.0
1666091431199804694,1.626486885342655,-6.073119888513645,0.0
1666091431202270628,1.611673746819099,-6.064996842358896,0.0
1666091431300555873,1.6024418884023175,-6.091840165659437,0.0
1666091431377675986,1.5846765422982299,-6.099135475770272,0.0
1666091431498910749,1.5777314008686392,-6.127767899942299,0.0
1666091431582201709,1.5714784056443403,-6.146513418881545,0.0
1666091431666955683,1.563495488265667,-6.156316415311527,0.0
1666091431682757526,1.5484059202990896,-6.1425048768939,0.0
1666091431764163584,1.5353041237268017,-6.144095941472514,0.0
1666091431894941907,1.5269826472451435,-6.1508863575473685,0.0
1666091431967484682,1.5074833899075675,-6.1313745115794855,0.0
1666091432017720343,1.4849590938570085,-6.102674246195072,0.0
1666091432124213535,1.461216603671001,-6.088843776284678,0.0
1666091432175529654,1.4479622603006947,-6.077360528826838,0.0
1666091432284128831,1.4203145846686398,-6.050255021256354,0.0
1666091432300784123,1.4140921147459151,-6.034538661819489,0.0
1666091432378589872,1.4163624127870287,-6.055489430281907,0.0
1666091432494060687,1.396864526656791,-6.052382575218885,0.0
1666091432589408556,1.4053344055387567,-6.092066963254339,0.0
1666091432669098587,1.398428913918952,-6.106619767614161,0.0
1666091432710072936,1.397114686914463,-6.119383944837454,0.0
1666091432787105430,1.415515437360877,-6.171755011218489,0.0
1666091432862031656,1.4154749533669158,-6.219264846556623,0.0
1666091432924366262,1.4268944427807586,-6.257816547386706,0.0
1666091432992293487,1.425176716589728,-6.286340224713137,0.0
1666091433070672166,1.422003988934835,-6.321396701690604,0.0
1666091433133820324,1.4322010887591095,-6.357330331651647,0.0
1666091433243790565,1.416495531426393,-6.385573475983681,0.0
1666091433255847032,1.4352810186021288,-6.4137340310757205,0.0
1666091433377494886,1.4207678224744806,-6.442066980933155,0.0
1666091433461852441,1.4217848412634173,-6.477751377950776,0.0
1666091433526593263,1.4228917530424705,-6.50634401940817,0.0
1666091433598606815,1.4318317253497725,-6.534486847696135,0.0
1666091433734128131,1.4351704716754,-6.566889641706882,0.0
1666091433786367157,1.4400412063971344,-6.585061581652586,0.0
1666091433868266845,1.4414039046504588,-6.610925811685889,0.0
1666091433918775444,1.4415456208140214,-6.62845435630661,0.0
1666091433995581063,1.4385726329911812,-6.654546587589925,0.0
1666091434044247624,1.4373602753009531,-6.6705099209281595,0.0
1666091434133532856,1.4347676849488888,-6.691935084344933,0.0
1666091434188102913,1.4292114483427263,-6.71071159280086,0.0
1666091434282184580,1.4234081893967692,-6.742231909732122,0.0
1666091434329765135,1.4168493890418297,-6.756363216286391,0.0
1666091434390564393,1.4119981996411444,-6.775472345387428,0.0
1666091434460022156,1.4072793870225517,-6.79431570627453,0.0
1666091434550669756,1.4043029389854518,-6.827990810884304,0.0
1666091434600345279,1.4033611045604208,-6.846641119812199,0.0
1666091434670915235,1.4026109187581834,-6.870871492932327,0.0
1666091434737693905,1.4037141869631182,-6.886949050732896,0.0
1666091434809954793,1.40652057090335,-6.912466127514099,0.0
1666091434879407784,1.4074589216304925,-6.930050693823698,0.0
1666091434981832565,1.410508948527073,-6.962419285753696,0.0
1666091435075525752,1.4100066852506206,-6.966511053184153,0.0
1666091435140913309,1.409944604973371,-6.971349052729412,0.0
1666091435252158292,1.4121637748012639,-6.986429744386947,0.0
1666091435290164164,1.4128573812500211,-6.98535143119345,0.0
1666091435366903518,1.411092650663792,-6.9956228816877655,0.0
1666091435436378674,1.412668657538749,-7.002774010042652,0.0
1666091435517749350,1.414634812838939,-7.0197482920655805,0.0
1666091435590087780,1.4165618117388965,-7.041786057425061,0.0
1666091435653884887,1.4164475995019024,-7.058967811691541,0.0
1666091435734855266,1.4161391203328895,-7.081151617432215,0.0
1666091435824336236,1.4173874678638165,-7.111752382637129,0.0
1666091435966534899,1.4166966391513376,-7.156470263497477,0.0
1666091436007683587,1.4164558436352805,-7.161389621551196,0.0
1666091436148766127,1.4134928115540588,-7.210123554339032,0.0
1666091436249699243,1.4098337220097668,-7.241999047206506,0.0
1666091436339418943,1.4060899076868794,-7.263823852394902,0.0
1666091436379192972,1.4009352171837588,-7.267370755990749,0.0
1666091436446103892,1.394693906663236,-7.288286880840779,0.0
1666091436569895596,1.388825832850561,-7.32588747138756,0.0
1666091436637422030,1.3828750988980534,-7.33487577010693,0.0
1666091436710795080,1.3786420423445827,-7.352592085310042,0.0
1666091436774652553,1.3743889205714166,-7.36236746850872,0.0
1666091436839572877,1.3673363910722656,-7.371562939321903,0.0
1666091436935907862,1.359400636297853,-7.400583561402535,0.0
1666091437055304361,1.348400420219451,-7.4379636222291845,0.0
1666091437056662368,1.3452473238692177,-7.4308090018885,0.0
1666091437123392552,1.3409258029737727,-7.446167291823526,0.0
1666091437221621215,1.339351948234298,-7.456868575611418,0.0
1666091437325803232,1.3308061460241696,-7.452232854894866,0.0
1666091437409990298,1.3245178363834658,-7.439028827770468,0.0
1666091437411519371,1.3302788737219422,-7.428850199713915,0.0
1666091437503932697,1.3251160156992006,-7.417233945361971,0.0
1666091437600430151,1.3248480827606384,-7.408367818823165,0.0
1666091437684687634,1.3265876757107096,-7.4074604200286815,0.0
1666091437788980345,1.329211695539779,-7.412481852402827,0.0
1666091437893802559,1.3300544933828564,-7.4284239677162756,0.0
1666091437895887801,1.3486290214197545,-7.44289634938234,0.0
1666091437973381760,1.3557148345418684,-7.453565165260615,0.0
1666091438071779513,1.3661397508534987,-7.471694640549381,0.0
1666091438167846670,1.3778723601152643,-7.4993094788296695,0.0
1666091438252459723,1.3860110969149595,-7.530514287621621,0.0
1666091438377438816,1.3971547161428877,-7.559597708010639,0.0
1666091438419087431,1.4146234581234751,-7.587909613456053,0.0
1666091438541951712,1.4286254661058915,-7.615285377045568,0.0
1666091438543294212,1.4423105251954436,-7.633443536764296,0.0
1666091438646740638,1.4528020129620711,-7.653670941902909,0.0
1666091438733483115,1.460825050807463,-7.6749487834171255,0.0
1666091438812837351,1.4658948045085785,-7.696272850076406,0.0
1666091438899576380,1.4716986088282078,-7.719491614436307,0.0
1666091439012172695,1.468245603342522,-7.751098695193532,0.0
1666091439051432282,1.466478971345782,-7.770429354945179,0.0
1666091439122151341,1.4647313969513187,-7.78939320587441,0.0
1666091439182484213,1.4613710702227323,-7.808850069103615,0.0
1666091439288220165,1.454412752237626,-7.843432603489535,0.0
1666091439366877404,1.4481015093601959,-7.8709795831356,0.0
1666091439466577725,1.439125938918073,-7.901035597134991,0.0
1666091439533162041,1.4331313870057092,-7.924067147856292,0.0
1666091439682393522,1.4238759028297834,-7.972224563396984,0.0
1666091439715570478,1.4199219396781209,-7.9906319553878795,0.0
1666091439776064544,1.4150266815340438,-8.016714395211181,0.0
1666091439847451074,1.4102396911449022,-8.04503040301161,0.0
1666091439909678717,1.4067672944012508,-8.066962127889326,0.0
1666091440014451898,1.402089941582348,-8.103761189525951,0.0
1666091440104525724,1.3973304011104883,-8.140908175435062,0.0
1666091440187307303,1.3945888127327342,-8.167522815948432,0.0
1666091440192242571,1.398865881206063,-8.157126702876296,0.0
1666091440259621462,1.4023448933985705,-8.167933886714746,0.0
1666091440389582603,1.402806932652149,-8.217186022181709,0.0
1666091440464527126,1.4093508433730781,-8.225757031169387,0.0
1666091440506599606,1.4165961135694873,-8.233120363528784,0.0
1666091440594155171,1.4226641761186443,-8.247408487836905,0.0
1666091440648974156,1.4318795754499316,-8.252645133806698,0.0
1666091440722555503,1.442871594365548,-8.254946535432055,0.0
1666091440808004281,1.4500459654943463,-8.269157237580286,0.0
1666091440888540178,1.4574856670059666,-8.278080510004866,0.0
1666091440928232580,1.468870124760635,-8.27700646168527,0.0
1666091440990840193,1.478059011299281,-8.284080691720371,0.0
1666091441046877094,1.4874252713617515,-8.291500447633084,0.0
1666091441116985139,1.4975198112395625,-8.29032395318375,0.0
1666091441181062217,1.5090928592695243,-8.2831825259532,0.0
1666091441248113283,1.5214172375370678,-8.277687222704824,0.0
1666091441321589440,1.5349210713834995,-8.275696665521375,0.0
1666091441422932388,1.5482412712302849,-8.274196216553449,0.0
1666091441485948752,1.5560682836516428,-8.278180492067149,0.0
1666091441590148158,1.5637016687714507,-8.283204537938285,0.0
1666091441626275069,1.5681265449550428,-8.292467169844523,0.0
1666091441684138571,1.5715126388880627,-8.30413639989576,0.0
1666091441818357454,1.5858504858599167,-8.321470164628925,0.0
1666091441881730873,1.5842164985714484,-8.339299716818411,0.0
1666091441981603442,1.5802629634188399,-8.362861850839588,0.0
1666091442068619812,1.5821459472330341,-8.388823682619387,0.0
1666091442128279288,1.5789579951034929,-8.414303932764822,0.0
1666091442172761718,1.5720874298182876,-8.440409449756034,0.0
1666091442233084275,1.5706189257862546,-8.471297566629179,0.0
1666091442323541264,1.570745466844985,-8.504405626419139,0.0
1666091442392822896,1.5675275439423617,-8.543076789317954,0.0
1666091442438696888,1.5607779044194716,-8.574166184171247,0.0
1666091442537512464,1.5569667779308929,-8.613560150173875,0.0
1666091442677310511,1.5563042149201844,-8.660684486397608,0.0
1666091442732511439,1.556110539642875,-8.692982553974199,0.0
1666091442829212750,1.5540634750296614,-8.731036826674218,0.0
1666091442880403977,1.554318435720934,-8.752771842311954,0.0
1666091442966132814,1.5570268420573823,-8.787104271401828,0.0
1666091443015350661,1.5608848041972407,-8.807429051112093,0.0
1666091443087521593,1.566656502185702,-8.835196168171953,0.0
1666091443156433151,1.5721624063401904,-8.855780874245246,0.0
1666091443239567953,1.5775493906544187,-8.881257287655481,0.0
1666091443278650488,1.582915825475157,-8.893442336276083,0.0
1666091443405740766,1.5899353181043026,-8.944714539630576,0.0
1666091443407259825,1.5964594076579606,-8.940493751175339,0.0
1666091443567464716,1.6074301154162642,-9.00076541940274,0.0
1666091443568976861,1.6151887247476322,-8.994462763324197,0.0
1666091443684571686,1.625460630130456,-9.032564221232217,0.0
1666091443760617889,1.6342912045485223,-9.062898160367775,0.0
1666091443830555853,1.643178060777503,-9.093865961929637,0.0
1666091443891954443,1.6517304901311756,-9.114400998304758,0.0
1666091443963660094,1.6622884649103118,-9.137101492517626,0.0
1666091444001815916,1.67099979599511,-9.147122826739896,0.0
1666091444086998698,1.6840856528611206,-9.186657581767372,0.0
1666091444155662699,1.6949444553533748,-9.200445041546919,0.0
1666091444239963933,1.7054308794893254,-9.222272546826245,0.0
1666091444270329189,1.7122297295912106,-9.221633146575991,0.0
1666091444359653137,1.722904753823136,-9.23998839275345,0.0
1666091444441200832,1.7330221340704743,-9.2570804587514,0.0
1666091444549539953,1.7416672383813587,-9.287969476391922,0.0
1666091444655761540,1.7451331639958843,-9.302215257544526,0.0
1666091444741728267,1.745285478551353,-9.299192650767369,0.0
1666091444834082456,1.7497243292864089,-9.307153246447143,0.0
1666091444984980712,1.7555022290154791,-9.33689118017085,0.0
1666091444989836666,1.751444876223021,-9.325089695725376,0.0
1666091445074672895,1.7575264566739204,-9.337516132257447,0.0
1666091445160719527,1.7636928865106747,-9.351582781597507,0.0
1666091445243696369,1.778530487524079,-9.355000619494097,0.0
1666091445384392955,1.8086531724487704,-9.349084663303993,0.0
1666091445476807724,1.8282918044049383,-9.34408466514819,0.0
1666091445478183274,1.8199491806852108,-9.348693802727187,0.0
1666091445621597873,1.842887625218561,-9.338853701883359,0.0
1666091445622829337,1.8249722621780957,-9.352334785352046,0.0
1666091445697105378,1.825283090476921,-9.359274706370304,0.0
1666091445764302336,1.8173788610223847,-9.369471514780571,0.0
1666091445895942443,1.831794940763709,-9.377111387210158,0.0
1666091445982082101,1.833618834456939,-9.383646030648281,0.0
1666091445988089344,1.8223411390256736,-9.39566323274508,0.0
1666091446065282168,1.8129346413192893,-9.404899716604874,0.0
1666091446175442945,1.8108572494957844,-9.411432291322033,0.0
1666091446296856263,1.8186276587923833,-9.421021405447188,0.0
1666091446298098858,1.806990888931589,-9.431440674897335,0.0
1666091446404285998,1.8247095250621865,-9.456348423584302,0.0
1666091446509826245,1.8477422566193935,-9.478281968378877,0.0
1666091446521900707,1.8388549293431098,-9.498371533213877,0.0
1666091446595377251,1.849530284898882,-9.519197148559575,0.0
1666091446687248911,1.8574157454685607,-9.5409193993888,0.0
1666091446786255422,1.8614728305274166,-9.560676367503465,0.0
1666091446854545664,1.8605383864017004,-9.57768155463307,0.0
1666091446956221459,1.8540093998923741,-9.592910451974591,0.0
1666091447049089034,1.8464289887110856,-9.60542554147224,0.0
1666091447146674375,1.8323769468324709,-9.60712765888999,0.0
1666091447217136918,1.8180782510479312,-9.606094183974923,0.0
1666091447319101280,1.8042488460139625,-9.608820553622333,0.0
1666091447376773809,1.78486088466229,-9.596731521852456,0.0
1666091447452818144,1.769843620837109,-9.592472273097346,0.0
1666091447535155549,1.7501014309751863,-9.57268599105852,0.0
1666091447663774884,1.7276486768352188,-9.543345207647278,0.0
1666091447705193492,1.7043809866105937,-9.516144748438661,0.0
1666091447764550512,1.6775930408795081,-9.493474864642923,0.0
1666091447825020253,1.6575488917705403,-9.474398085984989,0.0
1666091447894193892,1.6463179466804871,-9.461598281529024,0.0
1666091447964140744,1.6368458435080986,-9.450617233092892,0.0
1666091448088411775,1.6271665513756752,-9.444639037481743,0.0
1666091448131489932,1.6213659896902262,-9.439485311568816,0.0
1666091448220302889,1.6117208647516028,-9.435013631182043,0.0
1666091448284414926,1.6010900737554454,-9.43274736317151,0.0
1666091448334770734,1.5942309022796812,-9.432490781998686,0.0
1666091448419958331,1.6020184151554244,-9.43222514699557,0.0
1666091448467887555,1.6126351629633504,-9.430220875517145,0.0
1666091448549513114,1.6205623715179553,-9.428798460824343,0.0
1666091448598848815,1.6285318307897516,-9.42680386856367,0.0
1666091448675978429,1.6307998329202853,-9.421977574278717,0.0
1666091448722399334,1.63925061644467,-9.419868626694909,0.0
1666091448838425298,1.6533780172880457,-9.419060717572325,0.0
1666091448928055139,1.6679268471595665,-9.415716379865232,0.0
1666091448991982305,1.681251994246594,-9.412886768830646,0.0
1666091449063710088,1.6921668713727678,-9.41083076259117,0.0
1666091449122654633,1.7011449858802112,-9.409599121507183,0.0
1666091449250345172,1.7095257100623673,-9.408496749760198,0.0
1666091449310294866,1.7163337329632393,-9.407763910292273,0.0
1666091449402964026,1.7223333400594942,-9.407563837596884,0.0
1666091449440633849,1.7305977302763855,-9.409692852538534,0.0
1666091449498510782,1.7375503235334218,-9.409862508987704,0.0
1666091449578736231,1.7435778837556548,-9.410160226634474,0.0
1666091449650176756,1.7521283597130908,-9.410703896820552,0.0
1666091449757579676,1.758968131965077,-9.410935820970373,0.0
1666091449830253466,1.7653399049269334,-9.410045220261129,0.0
1666091449897766786,1.7721091174343315,-9.405771274284493,0.0
1666091449983874363,1.7782598214910543,-9.394430679225948,0.0
1666091450055534168,1.7904051876477463,-9.377535734650557,0.0
1666091450161639699,1.8105865631195173,-9.362012420745994,0.0
1666091450227646013,1.826995651348067,-9.348674653685626,0.0
1666091450329335098,1.8422641007712515,-9.336336855047165,0.0
1666091450377488907,1.8487584876871441,-9.322669766433552,0.0
1666091450451072200,1.855368295015114,-9.308754000311755,0.0
1666091450515249500,1.8642614117383765,-9.292938360287204,0.0
1666091450571801453,1.8735144553825283,-9.274770403973406,0.0
1666091450640309324,1.8850161713275972,-9.255485556701256,0.0
1666091450759540164,1.893862103035222,-9.234962998872424,0.0
1666091450862145110,1.9071322578796956,-9.212865522050867,0.0
1666091450902248733,1.9252242646535782,-9.185526904811928,0.0
1666091450968380345,1.9458686549730504,-9.162018105991299,0.0
1666091451032257955,1.9918776255272292,-9.147988834800008,0.0
1666091451151371878,2.015471764115408,-9.123069369210874,0.0
1666091451152970159,2.041979666284491,-9.10274807293456,0.0
1666091451237783084,2.072280954326219,-9.080867586068333,0.0
1666091451330207242,2.099735131025926,-9.062348740706554,0.0
1666091451423056459,2.122473067848493,-9.035015404819202,0.0
1666091451439177132,2.145115970890455,-9.018417132860465,0.0
1666091451518598080,2.1740768255987724,-8.996872494086047,0.0
1666091451597494231,2.208257165762295,-8.977272436934863,0.0
1666091451717876115,2.236787816845866,-8.944626015827245,0.0
1666091451816164808,2.26076328880938,-8.917244383391314,0.0
1666091451834319966,2.2707562718279632,-8.915687788348013,0.0
1666091451901517070,2.2737279292945347,-8.903363811083938,0.0
1666091451969833529,2.2728566309179996,-8.897567195270867,0.0
1666091452048216293,2.2688275649722827,-8.888006949773247,0.0
1666091452226301900,2.2705855228008636,-8.852153899303332,0.0
1666091452260795501,2.2612338050096414,-8.86932253364052,0.0
1666091452357741726,2.2561262156800876,-8.871132905022874,0.0
1666091452390684500,2.2425542608670623,-8.900397307149687,0.0
1666091452525892590,2.230577003176817,-8.931681699793412,0.0
1666091452562757039,2.2173986941722377,-8.958409281425565,0.0
1666091452697168426,2.2097037323552136,-8.979231221434375,0.0
1666091452698505578,2.2000464804625857,-8.99712902091589,0.0
1666091452859754320,2.1933269076042627,-9.0114269645489,0.0
1666091452861114593,2.1876543456481063,-9.022226080168435,0.0
1666091452952559122,2.1831590211555145,-9.030283432912052,0.0
1666091453052764467,2.1792137691464264,-9.036984136476068,0.0
1666091453224272153,2.175795655891635,-9.042586345302027,0.0
1666091453225545836,2.1725427446051175,-9.046239376017652,0.0
1666091453390836529,2.1706277118276662,-9.04746242973538,0.0
1666091453431812543,2.1675100947170645,-9.045928125445647,0.0
1666091453559644472,2.1665104773393695,-9.04592919661824,0.0
1666091453560993177,2.1711579550280087,-9.036984290563893,0.0
1666091453673636198,2.17889579031712,-9.024359728354865,0.0
1666091453730934112,2.1902192515569916,-9.00723211645112,0.0
1666091453798532813,2.198796024767349,-8.991833513804496,0.0
1666091453878451353,2.210348164180074,-8.970465559288819,0.0
1666091454027182136,2.221044232020128,-8.949978360813754,0.0
1666091454028477526,2.2345176827945004,-8.92472804219512,0.0
1666091454116572568,2.2432434050604027,-8.903470595961132,0.0
1666091454221895964,2.256205138348111,-8.856441209448057,0.0
1666091454317916169,2.270685865313202,-8.833035101571314,0.0
1666091454389643603,2.2781933584588003,-8.821162814636802,0.0
1666091454438010815,2.2863750705031687,-8.805703174518676,0.0
1666091454508850183,2.2970841065937107,-8.788609946827009,0.0
1666091454610929775,2.3066507206900346,-8.765239525332282,0.0
1666091454667577854,2.3178160910261374,-8.755887662300427,0.0
1666091454744600848,2.3242071346856448,-8.747391472901908,0.0
1666091454818024566,2.3267132350960065,-8.744241403280203,0.0
1666091454912025210,2.327441000704161,-8.736512102393686,0.0
1666091455040462445,2.319241688028944,-8.715147240231564,0.0
