%time,field.linear.x,field.linear.y,field.linear.z,field.angular.x,field.angular.y,field.angular.z
1666089063781422087,0.0,0.0,0.0,0.0,0.0,0.0
1666089063800272156,0.0,0.0,0.0,0.0,0.0,0.0
1666089063820238470,0.0,0.0,0.0,0.0,0.0,0.0
1666089063840257287,0.0,0.0,0.0,0.0,0.0,0.0
1666089063860206807,0.0,0.0,0.0,0.0,0.0,0.0
1666089063880203694,0.0,0.0,0.0,0.0,0.0,0.0
1666089063900206653,0.0,0.0,0.0,0.0,0.0,0.0
1666089063921158371,0.0,0.0,0.0,0.0,0.0,0.0
1666089063940237822,0.0,0.0,0.0,0.0,0.0,0.0
1666089063984025091,0.0,0.0,0.0,0.0,0.0,0.0
1666089063984033329,0.0,0.0,0.0,0.0,0.0,0.0
1666089064028039858,0.0,0.0,0.0,0.0,0.0,0.0
1666089064028049219,0.0,0.0,0.0,0.0,0.0,0.0
1666089064072030491,0.0,0.0,0.0,0.0,0.0,0.0
1666089064072039488,0.0,0.0,0.0,0.0,0.0,0.0
1666089064116059902,0.0,0.0,0.0,0.0,0.0,0.0
1666089064116069598,0.0,0.0,0.0,0.0,0.0,0.0
1666089064160034422,0.0,0.0,0.0,0.0,0.0,0.0
1666089064160042575,0.0,0.0,0.0,0.0,0.0,0.0
1666089064204031573,0.0,0.0,0.0,0.0,0.0,0.0
1666089064204041428,0.0,0.0,0.0,0.0,0.0,0.0
1666089064204044799,0.0,0.0,0.0,0.0,0.0,0.0
1666089064248035684,0.0,0.0,0.0,0.0,0.0,0.0
1666089064248046443,0.0,0.0,0.0,0.0,0.0,0.0
1666089064261358835,0.0,0.0,0.0,0.0,0.0,0.0
1666089064281163267,0.0,0.0,0.0,0.0,0.0,0.0
1666089064328036910,0.004264604416675866,0.0,0.0,0.0,0.0,0.004537856055185257
1666089064328046279,0.008529208833351731,0.0,0.0,0.0,0.0,0.0041887902047863905
1666089064372028404,0.002132302208337933,0.0,0.0,0.0,0.0,0.0006981317007977319
1666089064372042077,0.0,0.0,0.0,0.0,0.0,0.0
1666089064416067433,0.0,0.0,0.0,0.0,0.0,0.0
1666089064416075618,0.0,0.0,0.0,0.0,0.0,0.0
1666089064460031551,0.0,0.0,0.0,0.0,0.0,0.0
1666089064460040594,0.0,0.0,0.0,0.0,0.0,0.0
1666089064508059700,0.0,0.0,0.0,0.0,0.0,0.0
1666089064508080921,0.0,0.0,0.0,0.0,0.0,0.0
1666089064508087812,0.0,0.0,0.0,0.0,0.0,0.0
1666089064552026291,-0.006396906625013799,0.0,0.0,0.0,0.0,0.0005235987755982988
1666089064552036213,-0.002132302208337933,0.0,0.0,0.0,0.0,-0.0012217304763960308
1666089064560941533,0.0,0.0,0.0,0.0,0.0,0.0
1666089064580910324,0.0,0.0,0.0,0.0,0.0,0.0
1666089064624052166,0.0,0.0,0.0,0.0,0.0,0.0
1666089064624060623,0.0,0.0,0.0,0.0,0.0,0.0
1666089064668020101,0.0,0.0,0.0,0.0,0.0,0.0
1666089064668029492,0.0,0.0,0.0,0.0,0.0,0.0
1666089064712024831,0.0,0.0,0.0,0.0,0.0,0.0
1666089064712029892,0.0,0.0,0.0,0.0,0.0,0.0
1666089064756026043,0.0,0.0,0.0,0.0,0.0,0.0
1666089064756035681,0.0,0.0,0.0,0.0,0.0,0.0
1666089064800021432,0.0,0.0,0.0,0.0,0.0,0.0
1666089064800032581,0.0,0.0,0.0,0.0,0.0,0.0
1666089064844020256,0.0,0.0,0.0,0.0,0.0,0.0
1666089064844028212,0.0,0.0,0.0,0.0,0.0,0.0
1666089064844031630,0.0,0.0,0.0,0.0,0.0,0.0
1666089064888037063,0.0,0.0,0.0,0.0,0.0,0.0
1666089064888049226,0.0,0.0,0.0,0.0,0.0,0.0
1666089064900792500,0.0,0.0,0.0,0.0,0.0,0.0
1666089064920735841,0.0,0.0,0.0,0.0,0.0,0.0
1666089064964021889,0.0,0.0,0.0,0.0,0.0,0.0
1666089064964030155,0.0,0.0,0.0,0.0,0.0,0.0
1666089065012022816,0.0,0.0,0.0,0.0,0.0,0.0
1666089065012031718,0.0,0.0,0.0,0.0,0.0,0.0
1666089065052022162,0.0,0.0,0.0,0.0,0.0,0.0
1666089065052028247,0.0,0.0,0.0,0.0,0.0,0.0
1666089065096023683,0.0,0.0,0.0,0.0,0.0,0.0
1666089065096037657,0.0,0.0,0.0,0.0,0.0,0.0
1666089065140050092,0.0,0.0,0.0,0.0,0.0,0.0
1666089065140059242,0.0,0.0,0.0,0.0,0.0,0.0
1666089065184038679,0.0,0.0,0.0,0.0,0.0,0.0
1666089065184045233,0.0,0.0,0.0,0.0,0.0,0.0
1666089065184053466,0.0,0.0,0.0,0.0,0.0,0.0
1666089065228044387,0.0,0.0,0.0,0.0,0.0,0.0
1666089065228057346,0.0,0.0,0.0,0.0,0.0,0.0
1666089065240661175,0.0,0.0,0.0,0.0,0.0,0.0
1666089065260701289,0.0,0.0,0.0,0.0,0.0,0.0
1666089065304048283,0.0,0.0,0.0,0.0,0.0,0.0
1666089065304056998,0.0,0.0,0.0,0.0,0.0,0.0
1666089065348063058,0.0,0.0,0.0,0.0,0.0,0.0
1666089065348071483,0.0,0.0,0.0,0.0,0.0,0.0
1666089065392064344,0.0,0.0,0.0,0.0,0.0,0.0
1666089065392073212,0.0,0.0,0.0,0.0,0.0,0.0
1666089065436066300,0.0,0.0,0.0,0.0,0.0,0.0
1666089065436073571,0.0,0.0,0.0,0.0,0.0,0.0
1666089065480099774,0.0,0.0,0.0,0.0,0.0,0.0
1666089065480106338,0.0,0.0,0.0,0.0,0.0,0.0
1666089065524049497,0.0,0.0,0.0,0.0,0.0,0.0
1666089065524060251,0.0,0.0,0.0,0.0,0.0,0.0
1666089065524063805,0.0,0.0,0.0,0.0,0.0,0.0
1666089065568055342,0.0,0.0,0.0,0.0,0.0,0.0
1666089065568060573,0.0,0.0,0.0,0.0,0.0,0.0
1666089065581510925,0.0,0.0,0.0,0.0,0.0,0.0
1666089065601557465,0.0,0.0,0.0,0.0,0.0,0.0
1666089065648049702,0.0,0.0,0.0,0.0,0.0,0.0
1666089065648066721,0.0,0.0,0.0,0.0,0.0,0.0
1666089065692074271,0.0,0.0,0.0,0.0,0.0,0.0
1666089065692084991,0.0,0.0,0.0,0.0,0.0,0.0
1666089065740051773,0.0,0.0,0.0,0.0,0.0,0.0
1666089065740067290,0.0,0.0,0.0,0.0,0.0,0.0
1666089065784056159,0.0,0.0,0.0,0.0,0.0,0.0
1666089065784069432,0.0,0.0,0.0,0.0,0.0,0.0
1666089065784078611,0.0,0.0,0.0,0.0,0.0,0.0
1666089065828033342,0.0,0.0,0.0,0.0,0.0,0.0
1666089065828044499,0.0,0.0,0.0,0.0,0.0,0.0
1666089065841436772,0.0,0.0,0.0,0.0,0.0,0.0
1666089065861417606,0.0,0.0,0.0,0.0,0.0,0.0
1666089065904062072,0.0,0.0,0.0,0.0,0.0,0.0
1666089065904070755,0.0,0.0,0.0,0.0,0.0,0.0
1666089065948069394,0.0,0.0,0.0,0.0,0.0,0.0
1666089065948075013,0.0,0.0,0.0,0.0,0.0,0.0
1666089065992047172,0.0,0.0,0.0,0.0,0.0,0.0
1666089065992058673,0.0,0.0,0.0,0.0,0.0,0.0
1666089066036067722,0.0,0.0,0.0,0.0,0.0,0.0
1666089066036079929,0.0,0.0,0.0,0.0,0.0,0.0
1666089066080328172,0.0,0.0,0.0,0.0,0.0,0.0
1666089066080360588,0.0,0.0,0.0,0.0,0.0,0.0
1666089066124051261,0.0,0.0,0.0,0.0,0.0,0.0
1666089066124063694,0.0,0.0,0.0,0.0,0.0,0.0
1666089066124070484,0.0,0.0,0.0,0.0,0.0,0.0
1666089066168039750,0.0,0.0,0.0,0.0,0.0,0.0
1666089066168051824,0.0,0.0,0.0,0.0,0.0,0.0
1666089066181306334,0.0,0.0,0.0,0.0,0.0,0.0
1666089066201284166,0.0,0.0,0.0,0.0,0.0,0.0
1666089066244049563,0.0,0.0,0.0,0.0,0.0,0.0
1666089066244064287,0.0,0.0,0.0,0.0,0.0,0.0
1666089066288056920,0.0,0.0,0.0,0.0,0.0,0.0
1666089066288067143,0.0,0.0,0.0,0.0,0.0,0.0
1666089066332053456,0.0,0.0,0.0,0.0,0.0,0.0
1666089066332065789,0.0,0.0,0.0,0.0,0.0,0.0
1666089066376036231,0.0,0.0,0.0,0.0,0.0,0.0
1666089066376049788,0.0,0.0,0.0,0.0,0.0,0.0
1666089066420036203,0.0,0.0,0.0,0.0,0.0,0.0
1666089066420046196,0.0,0.0,0.0,0.0,0.0,0.0
1666089066464042311,0.0,0.0,0.0,0.0,0.0,0.0
1666089066464054488,0.0,0.0,0.0,0.0,0.0,0.0
1666089066464066612,0.0,0.0,0.0,0.0,0.0,0.0
1666089066508043352,0.0,0.0,0.0,0.0,0.0,0.0
1666089066508056013,0.0,0.0,0.0,0.0,0.0,0.0
1666089066522169824,0.0,0.0,0.0,0.0,0.0,0.0
1666089066542135577,0.0,0.0,0.0,0.0,0.0,0.0
1666089066584030666,0.0,0.0,0.0,0.0,0.0,0.0
1666089066584040203,0.0,0.0,0.0,0.0,0.0,0.0
1666089066628032475,0.0,0.0,0.0,0.0,0.0,0.0
1666089066628042026,0.0,0.0,0.0,0.0,0.0,0.0
1666089066672449088,0.0,0.0,0.0,0.0,0.0,0.0
1666089066672492943,0.0,0.0,0.0,0.0,0.0,0.0
1666089066731512115,0.0,0.0,0.0,0.0,0.0,0.0
1666089066731540705,0.0,0.0,0.0,0.0,0.0,0.0
1666089066761098082,0.0,0.0,0.0,0.0,0.0,0.0
1666089066761122875,0.0,0.0,0.0,0.0,0.0,0.0
1666089066808066673,0.0,0.0,0.0,0.0,0.0,0.0
1666089066808082278,0.0,0.0,0.0,0.0,0.0,0.0
1666089066808091825,0.0,0.0,0.0,0.0,0.0,0.0
1666089066852127545,0.0,0.0,0.0,0.0,0.0,0.0
1666089066852151729,0.0,0.0,0.0,0.0,0.0,0.0
1666089066862140151,0.0,0.0,0.0,0.0,0.0,0.0
1666089066882458204,0.0,0.0,0.0,0.0,0.0,0.0
1666089066924053885,0.0,0.0,0.0,0.0,0.0,0.0
1666089066924069572,0.0,0.0,0.0,0.0,0.0,0.0
1666089066968202504,0.0,0.0,0.0,0.0,0.0,0.0
1666089066968236702,0.0,0.0,0.0,0.0,0.0,0.0
1666089067012219573,0.0,0.0,0.0,0.0,0.0,0.0
1666089067012263944,0.0,0.0,0.0,0.0,0.0,0.0
1666089067056104633,0.0,0.0,0.0,0.0,0.0,0.0
1666089067056133030,0.0,0.0,0.0,0.0,0.0,0.0
1666089067100100800,0.0,0.0,0.0,0.0,0.0,0.0
1666089067100122132,0.0,0.0,0.0,0.0,0.0,0.0
1666089067144131809,0.0,0.0,0.0,0.0,0.0,0.0
1666089067144153275,0.0,0.0,0.0,0.0,0.0,0.0
1666089067144161925,0.0,0.0,0.0,0.0,0.0,0.0
1666089067192045885,0.0,0.0,0.0,0.0,0.0,0.0
1666089067192058171,0.0,0.0,0.0,0.0,0.0,0.0
1666089067201922007,0.0,0.0,0.0,0.0,0.0,0.0
1666089067221898214,0.0,0.0,0.0,0.0,0.0,0.0
1666089067264061609,0.0,0.0,0.0,0.0,0.0,0.0
1666089067264074044,0.0,0.0,0.0,0.0,0.0,0.0
1666089067308057982,0.0,0.0,0.0,0.0,0.0,0.0
1666089067308070335,0.0,0.0,0.0,0.0,0.0,0.0
1666089067352053667,0.0,0.0,0.0,0.0,0.0,0.0
1666089067352063502,0.0,0.0,0.0,0.0,0.0,0.0
1666089067396055615,0.0,0.0,0.0,0.0,0.0,0.0
1666089067396067729,0.0,0.0,0.0,0.0,0.0,0.0
1666089067440072903,0.0,0.0,0.0,0.0,0.0,0.0
1666089067440082545,0.0,0.0,0.0,0.0,0.0,0.0
1666089067484054816,0.0,0.0,0.0,0.0,0.0,0.0
1666089067484067743,0.0,0.0,0.0,0.0,0.0,0.0
1666089067484077357,0.0,0.0,0.0,0.0,0.0,0.0
1666089067528067015,0.0,0.0,0.0,0.0,0.0,0.0
1666089067528083453,0.0,0.0,0.0,0.0,0.0,0.0
1666089067541801659,0.0,0.0,0.0,0.0,0.0,0.0
1666089067561885060,0.0,0.0,0.0,0.0,0.0,0.0
1666089067604066111,0.0,0.0,0.0,0.0,0.0,0.0
1666089067604078650,0.0,0.0,0.0,0.0,0.0,0.0
1666089067648081532,0.0,0.0,0.0,0.0,0.0,0.0
1666089067648094783,0.0,0.0,0.0,0.0,0.0,0.0
1666089067692120962,0.0,0.0,0.0,0.0,0.0,0.0
1666089067692136585,0.0,0.0,0.0,0.0,0.0,0.0
1666089067740052937,0.0,0.0,0.0,0.0,0.0,0.0
1666089067740063262,0.0,0.0,0.0,0.0,0.0,0.0
1666089067784090612,0.0,0.0,0.0,0.0,0.0,0.0
1666089067784107918,0.0,0.0,0.0,0.0,0.0,0.0
1666089067784112344,0.0,0.0,0.0,0.0,0.0,0.0
1666089067828106932,0.0,0.0,0.0,0.0,0.0,0.0
1666089067828123042,0.0,0.0,0.0,0.0,0.0,0.0
1666089067842840230,0.0,0.0,0.0,0.0,0.0,0.0
1666089067862726116,0.0,0.0,0.0,0.0,0.0,0.0
1666089067904189822,0.0,0.0,0.0,0.0,0.0,0.0
1666089067952511480,0.0,0.0,0.0,0.0,0.0,0.0
1666089067952560144,0.0,0.0,0.0,0.0,0.0,0.0
1666089067952613651,0.0,0.0,0.0,0.0,0.0,0.0
1666089068000055698,0.0,0.0,0.0,0.0,0.0,0.0
1666089068000072463,0.0,0.0,0.0,0.0,0.0,0.0
1666089068003199513,0.0,0.0,0.0,0.0,0.0,0.0
1666089068023051969,0.0,0.0,0.0,0.0,0.0,0.0
1666089068064050475,0.0,0.0,0.0,0.0,0.0,0.0
1666089068064063772,0.0,0.0,0.0,0.0,0.0,0.0
1666089068112119996,0.0,0.0,0.0,0.0,0.0,0.0
1666089068112141016,0.0,0.0,0.0,0.0,0.0,0.0
1666089068160070065,0.0,0.0,0.0,0.0,0.0,0.0
1666089068160080269,0.0,0.0,0.0,0.0,0.0,0.0
1666089068204083858,0.0,0.0,0.0,0.0,0.0,0.0
1666089068204102514,0.0,0.0,0.0,0.0,0.0,0.0
1666089068204115604,0.0,0.0,0.0,0.0,0.0,0.0
1666089068248081227,0.0,0.0,0.0,0.0,0.0,0.0
1666089068248094908,0.0,0.0,0.0,0.0,0.0,0.0
1666089068262582104,0.0,0.0,0.0,0.0,0.0,0.0
1666089068282953680,0.0,0.0,0.0,0.0,0.0,0.0
1666089068324087377,0.0,0.0,0.0,0.0,0.0,0.0
1666089068324102438,0.0,0.0,0.0,0.0,0.0,0.0
1666089068368100205,0.0,0.0,0.0,0.0,0.0,0.0
1666089068368112241,0.0,0.0,0.0,0.0,0.0,0.0
1666089068416141717,0.0,0.0,0.0,0.0,0.0,0.0
1666089068416167655,0.0,0.0,0.0,0.0,0.0,0.0
1666089068464082765,0.0,0.0,0.0,0.0,0.0,0.0
1666089068464095514,0.0,0.0,0.0,0.0,0.0,0.0
1666089068464110309,0.0,0.0,0.0,0.0,0.0,0.0
1666089068508092395,0.0,0.0,0.0,0.0,0.0,0.0
1666089068508107225,0.0,0.0,0.0,0.0,0.0,0.0
1666089068523700749,0.0,0.0,0.0,0.0,0.0,0.0
1666089068543433720,0.0,0.0,0.0,0.0,0.0,0.0
1666089068584208172,0.0,0.0,0.0,0.0,0.0,0.0
1666089068628079286,0.0,0.0,0.0,0.0,0.0,0.0
1666089068628093919,0.0,0.0,0.0,0.0,0.0,0.0
1666089068628104431,0.0,0.0,0.0,0.0,0.0,0.0
1666089068672089426,0.0,0.0,0.0,0.0,0.0,0.0
1666089068672111689,0.0,0.0,0.0,0.0,0.0,0.0
1666089068683771838,0.0,0.0,0.0,0.0,0.0,0.0
1666089068704045805,0.0,0.0,0.0,0.0,0.0,0.0
1666089068744049279,0.0,0.0,0.0,0.0,0.0,0.0
1666089068744060161,0.0,0.0,0.0,0.0,0.0,0.0
1666089068788078633,0.0,0.0,0.0,0.0,0.0,0.0
1666089068788104441,0.0,0.0,0.0,0.0,0.0,0.0
1666089068832137160,0.0,0.0,0.0,0.0,0.0,0.0
1666089068832153541,0.0,0.0,0.0,0.0,0.0,0.0
1666089068880096836,0.0,0.0,0.0,0.0,0.0,0.0
1666089068880114050,0.0,0.0,0.0,0.0,0.0,0.0
1666089068924067030,0.0,0.0,0.0,0.0,0.0,0.0
1666089068924079263,0.0,0.0,0.0,0.0,0.0,0.0
1666089068924092270,0.0,0.0,0.0,0.0,0.0,0.0
1666089068968117468,0.0,0.0,0.0,0.0,0.0,0.0
1666089068968128294,0.0,0.0,0.0,0.0,0.0,0.0
1666089068983566830,0.0,0.0,0.0,0.0,0.0,0.0
1666089069003291647,0.0,0.0,0.0,0.0,0.0,0.0
1666089069044679741,0.0,0.0,0.0,0.0,0.0,0.0
1666089069044715220,0.0,0.0,0.0,0.0,0.0,0.0
1666089069088087852,0.0,0.0,0.0,0.0,0.0,0.0
1666089069088098751,0.0,0.0,0.0,0.0,0.0,0.0
1666089069132092532,0.0,0.0,0.0,0.0,0.0,0.0
1666089069132106847,0.0,0.0,0.0,0.0,0.0,0.0
1666089069176153884,0.0,0.0,0.0,0.0,0.0,0.0
1666089069176177993,0.0,0.0,0.0,0.0,0.0,0.0
1666089069220134499,0.0,0.0,0.0,0.0,0.0,0.0
1666089069220161522,0.0,0.0,0.0,0.0,0.0,0.0
1666089069264058194,0.0,0.0,0.0,0.0,0.0,0.0
1666089069264071965,0.0,0.0,0.0,0.0,0.0,0.0
1666089069264079274,0.0,0.0,0.0,0.0,0.0,0.0
1666089069308072877,0.0,0.0,0.0,0.0,0.0,0.0
1666089069308091962,0.0,0.0,0.0,0.0,0.0,0.0
1666089069323236256,0.0,0.0,0.0,0.0,0.0,0.0
1666089069343288694,0.0,0.0,0.0,0.0,0.0,0.0
1666089069384076947,0.0,0.0,0.0,0.0,0.0,0.0
1666089069384091530,0.0,0.0,0.0,0.0,0.0,0.0
1666089069428074909,0.0,0.0,0.0,0.0,0.0,0.0
1666089069428088485,0.0,0.0,0.0,0.0,0.0,0.0
1666089069472099829,0.0,0.0,0.0,0.0,0.0,0.0
1666089069472119247,0.0,0.0,0.0,0.0,0.0,0.0
1666089069516076313,0.0,0.0,0.0,0.0,0.0,0.0
1666089069516091927,0.0,0.0,0.0,0.0,0.0,0.0
1666089069560069796,0.0,0.0,0.0,0.0,0.0,0.0
1666089069560082504,0.0,0.0,0.0,0.0,0.0,0.0
1666089069608104310,0.0,0.0,0.0,0.0,0.0,0.0
1666089069608117308,0.0,0.0,0.0,0.0,0.0,0.0
1666089069608133811,0.0,0.0,0.0,0.0,0.0,0.0
1666089069652193414,0.0,0.0,0.0,0.0,0.0,0.0
1666089069652214232,0.0,0.0,0.0,0.0,0.0,0.0
1666089069663367049,0.0,0.0,0.0,0.0,0.0,0.0
1666089069683446096,0.0,0.0,0.0,0.0,0.0,0.0
1666089069724126627,0.0,0.0,0.0,0.0,0.0,0.0
1666089069768074480,0.0,0.0,0.0,0.0,0.0,0.0
1666089069768087139,0.0,0.0,0.0,0.0,0.0,0.0
1666089069768093434,0.0,0.0,0.0,0.0,0.0,0.0
1666089069816285082,0.0,0.0,0.0,0.0,0.0,0.0
1666089069816301675,0.0,0.0,0.0,0.0,0.0,0.0
1666089069823045532,0.0,0.0,0.0,0.0,0.0,0.0
1666089069843094231,0.0,0.0,0.0,0.0,0.0,0.0
1666089069884143413,0.0,0.0,0.0,0.0,0.0,0.0
1666089069884165815,0.0,0.0,0.0,0.0,0.0,0.0
1666089069928152627,0.0,0.0,0.0,0.0,0.0,0.0
1666089069928179837,0.0,0.0,0.0,0.0,0.0,0.0
1666089069972157736,0.0,0.0,0.0,0.0,0.0,0.0
1666089069972174658,0.0,0.0,0.0,0.0,0.0,0.0
1666089070016181148,0.0,0.0,0.0,0.0,0.0,0.0
1666089070016203942,0.0,0.0,0.0,0.0,0.0,0.0
1666089070060134293,0.0,0.0,0.0,0.0,0.0,0.0
1666089070060151182,0.0,0.0,0.0,0.0,0.0,0.0
1666089070104244149,0.0,0.0,0.0,0.0,0.0,0.0
1666089070104276346,0.0,0.0,0.0,0.0,0.0,0.0
1666089070148072521,0.0,0.0,0.0,0.0,0.0,0.0
1666089070148089595,0.0,0.0,0.0,0.0,0.0,0.0
1666089070148102018,0.0,0.0,0.0,0.0,0.0,0.0
1666089070192054296,0.0,0.0,0.0,0.0,0.0,0.0
1666089070192065104,0.0,0.0,0.0,0.0,0.0,0.0
1666089070204267184,0.0,0.0,0.0,0.0,0.0,0.0
1666089070224799927,0.0,0.0,0.0,0.0,0.0,0.0
1666089070268137564,0.0,0.0,0.0,0.0,0.0,0.0
1666089070268159836,0.0,0.0,0.0,0.0,0.0,0.0
1666089070312062018,0.0,0.0,0.0,0.0,0.0,0.0
1666089070312075771,0.0,0.0,0.0,0.0,0.0,0.0
1666089070356064335,0.0,0.0,0.0,0.0,0.0,0.0
1666089070356076461,0.0,0.0,0.0,0.0,0.0,0.0
1666089070400091233,0.0,0.0,0.0,0.0,0.0,0.0
1666089070400103368,0.0,0.0,0.0,0.0,0.0,0.0
1666089070444119623,0.0,0.0,0.0,0.0,0.0,0.0
1666089070444139309,0.0,0.0,0.0,0.0,0.0,0.0
1666089070488149109,0.0,0.0,0.0,0.0,0.0,0.0
1666089070488205861,0.0,0.0,0.0,0.0,0.0,0.0
1666089070488293144,0.0,0.0,0.0,0.0,0.0,0.0
1666089070536097097,0.0,0.0,0.0,0.0,0.0,0.0
1666089070536112436,0.0,0.0,0.0,0.0,0.0,0.0
1666089070544457987,0.0,0.0,0.0,0.0,0.0,0.0
1666089070563980392,0.0,0.0,0.0,0.0,0.0,0.0
1666089070604170403,0.0,0.0,0.0,0.0,0.0,0.0
1666089070604191361,0.0,0.0,0.0,0.0,0.0,0.0
1666089070648105852,0.0,0.0,0.0,0.0,0.0,0.0
1666089070648123003,0.0,0.0,0.0,0.0,0.0,0.0
1666089070692260720,0.0,0.0,0.0,0.0,0.0,0.0
1666089070692286102,0.0,0.0,0.0,0.0,0.0,0.0
1666089070736093449,0.0,0.0,0.0,0.0,0.0,0.0
1666089070736110308,0.0,0.0,0.0,0.0,0.0,0.0
1666089070780179078,0.0,0.0,0.0,0.0,0.0,0.0
1666089070780209240,0.0,0.0,0.0,0.0,0.0,0.0
1666089070824084670,0.0,0.0,0.0,0.0,0.0,0.0
1666089070824106764,0.0,0.0,0.0,0.0,0.0,0.0
1666089070868061494,0.0,0.0,0.0,0.0,0.0,0.0
1666089070868075672,0.0,0.0,0.0,0.0,0.0,0.0
1666089070868079955,0.0,0.0,0.0,0.0,0.0,0.0
1666089070912084840,0.0,0.0,0.0,0.0,0.0,0.0
1666089070912100577,0.0,0.0,0.0,0.0,0.0,0.0
1666089070923724863,0.0,0.0,0.0,0.0,0.0,0.0
1666089070944353325,0.0,0.0,0.0,0.0,0.0,0.0
1666089070988185152,0.0,0.0,0.0,0.0,0.0,0.0
1666089070988236070,0.0,0.0,0.0,0.0,0.0,0.0
1666089071032168590,0.0,0.0,0.0,0.0,0.0,0.0
1666089071032190115,0.0,0.0,0.0,0.0,0.0,0.0
1666089071076222183,0.0,0.0,0.0,0.0,0.0,0.0
1666089071076248244,0.0,0.0,0.0,0.0,0.0,0.0
1666089071120142786,0.0,0.0,0.0,0.0,0.0,0.0
1666089071120164397,0.0,0.0,0.0,0.0,0.0,0.0
1666089071164076126,0.0,0.0,0.0,0.0,0.0,0.0
1666089071164089241,0.0,0.0,0.0,0.0,0.0,0.0
1666089071208100671,0.0,0.0,0.0,0.0,0.0,0.0
1666089071208121152,0.0,0.0,0.0,0.0,0.0,0.0
1666089071208233573,0.0,0.0,0.0,0.0,0.0,0.0
1666089071252081767,0.0,0.0,0.0,0.0,0.0,0.0
1666089071252098318,0.0,0.0,0.0,0.0,0.0,0.0
1666089071263464686,0.0,0.0,0.0,0.0,0.0,0.0
1666089071285093992,0.0,0.0,0.0,0.0,0.0,0.0
1666089071328129465,0.0,0.0,0.0,0.0,0.0,0.0
1666089071328151792,0.0,0.0,0.0,0.0,0.0,0.0
1666089071376246100,0.0,0.0,0.0,0.0,0.0,0.0
1666089071376285555,0.0,0.0,0.0,0.0,0.0,0.0
1666089071420231982,0.0,0.0,0.0,0.0,0.0,0.0
1666089071420268327,0.0,0.0,0.0,0.0,0.0,0.0
1666089071472032034,0.0,0.0,0.0,0.0,0.0,0.0
1666089071472381620,0.0,0.0,0.0,0.0,0.0,0.0
1666089071512239939,0.0,0.0,0.0,0.0,0.0,0.0
1666089071512272759,0.0,0.0,0.0,0.0,0.0,0.0
1666089071512288250,0.0,0.0,0.0,0.0,0.0,0.0
1666089071560147738,0.0,0.0,0.0,0.0,0.0,0.0
1666089071560171410,0.0,0.0,0.0,0.0,0.0,0.0
1666089071564534936,0.0,0.0,0.0,0.0,0.0,0.0
1666089071585739669,0.0,0.0,0.0,0.0,0.0,0.0
1666089071628165889,0.0,0.0,0.0,0.0,0.0,0.0
1666089071628185004,0.0,0.0,0.0,0.0,0.0,0.0
1666089071672146242,0.0,0.0,0.0,0.0,0.0,0.0
1666089071672165274,0.0,0.0,0.0,0.0,0.0,0.0
1666089071716084223,0.0,0.0,0.0,0.0,0.0,0.0
1666089071716099935,0.0,0.0,0.0,0.0,0.0,0.0
1666089071764119527,0.0,0.0,0.0,0.0,0.0,0.0
1666089071764142944,0.0,0.0,0.0,0.0,0.0,0.0
1666089071808279449,0.0,0.0,0.0,0.0,0.0,0.0
1666089071808310846,0.0,0.0,0.0,0.0,0.0,0.0
1666089071808323791,0.0,0.0,0.0,0.0,0.0,0.0
1666089071852125550,0.0,0.0,0.0,0.0,0.0,0.0
1666089071852141004,0.0,0.0,0.0,0.0,0.0,0.0
1666089071864602975,0.0,0.0,0.0,0.0,0.0,0.0
1666089071885438133,0.0,0.0,0.0,0.0,0.0,0.0
1666089071928130855,0.0,0.0,0.0,0.0,0.0,0.0
1666089071928151744,0.0,0.0,0.0,0.0,0.0,0.0
1666089071976284827,0.0,0.0,0.0,0.0,0.0,0.0
1666089071976319909,0.0,0.0,0.0,0.0,0.0,0.0
1666089072020496632,0.0,0.0,0.0,0.0,0.0,0.0
1666089072020531650,0.0,0.0,0.0,0.0,0.0,0.0
1666089072064094213,0.0,0.0,0.0,0.0,0.0,0.0
1666089072064113457,0.0,0.0,0.0,0.0,0.0,0.0
1666089072108241042,0.0,0.0,0.0,0.0,0.0,0.0
1666089072108263332,0.0,0.0,0.0,0.0,0.0,0.0
1666089072108293941,0.0,0.0,0.0,0.0,0.0,0.0
1666089072152062702,0.0,0.0,0.0,0.0,0.0,0.0
1666089072152074867,0.0,0.0,0.0,0.0,0.0,0.0
1666089072164417309,0.0,0.0,0.0,0.0,0.0,0.0
1666089072184706988,0.0,0.0,0.0,0.0,0.0,0.0
1666089072228240849,0.0,0.0,0.0,0.0,0.0,0.0
1666089072228274719,0.0,0.0,0.0,0.0,0.0,0.0
1666089072272120471,0.0,0.0,0.0,0.0,0.0,0.0
1666089072272141611,0.0,0.0,0.0,0.0,0.0,0.0
1666089072316135993,0.0,0.0,0.0,0.0,0.0,0.0
1666089072316161231,0.0,0.0,0.0,0.0,0.0,0.0
1666089072360209693,0.0,0.0,0.0,0.0,0.0,0.0
1666089072360237823,0.0,0.0,0.0,0.0,0.0,0.0
1666089072408467370,0.0,0.0,0.0,0.0,0.0,0.0
1666089072408524018,0.0,0.0,0.0,0.0,0.0,0.0
1666089072456162299,0.0,0.0,0.0,0.0,0.0,0.0
1666089072456178026,0.0,0.0,0.0,0.0,0.0,0.0
1666089072456271885,0.0,0.0,0.0,0.0,0.0,0.0
1666089072500193344,0.0,0.0,0.0,0.0,0.0,0.0
1666089072500224590,0.0,0.0,0.0,0.0,0.0,0.0
1666089072505656609,0.0,0.0,0.0,0.0,0.0,0.0
1666089072525257307,0.0,0.0,0.0,0.0,0.0,0.0
1666089072572106132,0.0,0.0,0.0,0.0,0.0,0.0
1666089072572123318,0.0,0.0,0.0,0.0,0.0,0.0
1666089072616617207,0.0,0.0,0.0,0.0,0.0,0.0
1666089072616768276,0.0,0.0,0.0,0.0,0.0,0.0
1666089072664497940,0.0,0.0,0.0,0.0,0.0,0.0
1666089072664555111,0.0,0.0,0.0,0.0,0.0,0.0
1666089072712328914,0.0,0.0,0.0,0.0,0.0,0.0
1666089072712384165,0.0,0.0,0.0,0.0,0.0,0.0
1666089072712410668,0.0,0.0,0.0,0.0,0.0,0.0
1666089072760207297,0.0,0.0,0.0,0.0,0.0,0.0
1666089072760244934,0.0,0.0,0.0,0.0,0.0,0.0
1666089072766773909,0.0,0.0,0.0,0.0,0.0,0.0
1666089072785798917,0.0,0.0,0.0,0.0,0.0,0.0
1666089072832094866,0.0,0.0,0.0,0.0,0.0,0.0
1666089072832122758,0.0,0.0,0.0,0.0,0.0,0.0
1666089072876123438,0.0,0.0,0.0,0.0,0.0,0.0
1666089072876141067,0.0,0.0,0.0,0.0,0.0,0.0
1666089072924072446,0.0,0.0,0.0,0.0,0.0,0.0
1666089072924087855,0.0,0.0,0.0,0.0,0.0,0.0
1666089072968077133,0.0,0.0,0.0,0.0,0.0,0.0
1666089072968093904,0.0,0.0,0.0,0.0,0.0,0.0
1666089072968105691,0.0,0.0,0.0,0.0,0.0,0.0
1666089073016416348,0.0,0.0,0.0,0.0,0.0,0.0
1666089073016459319,0.0,0.0,0.0,0.0,0.0,0.0
1666089073025126459,0.0,0.0,0.0,0.0,0.0,0.0
1666089073045346395,0.0,0.0,0.0,0.0,0.0,0.0
1666089073088058716,0.0,0.0,0.0,0.0,0.0,0.0
1666089073088073096,0.0,0.0,0.0,0.0,0.0,0.0
1666089073132086806,0.0,0.0,0.0,0.0,0.0,0.0
1666089073132104805,0.0,0.0,0.0,0.0,0.0,0.0
1666089073176265940,0.0,0.0,0.0,0.0,0.0,0.0
1666089073176289372,0.0,0.0,0.0,0.0,0.0,0.0
1666089073220183377,0.0,0.0,0.0,0.0,0.0,0.0
1666089073220203133,0.0,0.0,0.0,0.0,0.0,0.0
1666089073264117452,0.0,0.0,0.0,0.0,0.0,0.0
1666089073264140296,0.0,0.0,0.0,0.0,0.0,0.0
1666089073308202964,0.0,0.0,0.0,0.0,0.0,0.0
1666089073308241383,0.0,0.0,0.0,0.0,0.0,0.0
1666089073308264434,0.0,0.0,0.0,0.0,0.0,0.0
1666089073352046626,0.0,0.0,0.0,0.0,0.0,0.0
1666089073352059510,0.0,0.0,0.0,0.0,0.0,0.0
1666089073364670097,0.0,0.0,0.0,0.0,0.0,0.0
1666089073385779839,0.0,0.0,0.0,0.0,0.0,0.0
1666089073428392161,0.0,0.0,0.0,0.0,0.0,0.0
1666089073428432716,0.0,0.0,0.0,0.0,0.0,0.0
1666089073476194624,0.0,0.0,0.0,0.0,0.0,0.0
1666089073476226961,0.0,0.0,0.0,0.0,0.0,0.0
1666089073520156172,0.0,0.0,0.0,0.0,0.0,0.0
1666089073520176071,0.0,0.0,0.0,0.0,0.0,0.0
1666089073564050926,0.0,0.0,0.0,0.0,0.0,0.0
1666089073564061746,0.0,0.0,0.0,0.0,0.0,0.0
1666089073608210697,0.0,0.0,0.0,0.0,0.0,0.0
1666089073608242829,0.0,0.0,0.0,0.0,0.0,0.0
1666089073608451478,0.0,0.0,0.0,0.0,0.0,0.0
1666089073656283145,0.0,0.0,0.0,0.0,0.0,0.0
1666089073656318263,0.0,0.0,0.0,0.0,0.0,0.0
1666089073665661022,0.0,0.0,0.0,0.0,0.0,0.0
1666089073685661029,0.0,0.0,0.0,0.0,0.0,0.0
1666089073728072693,0.0,0.0,0.0,0.0,0.0,0.0
1666089073728084561,0.0,0.0,0.0,0.0,0.0,0.0
1666089073772127833,0.0,0.0,0.0,0.0,0.0,0.0
1666089073772156160,0.0,0.0,0.0,0.0,0.0,0.0
1666089073820058070,0.0,0.0,0.0,0.0,0.0,0.0
1666089073820068326,0.0,0.0,0.0,0.0,0.0,0.0
1666089073864061816,0.0,0.0,0.0,0.0,0.0,0.0
1666089073864076550,0.0,0.0,0.0,0.0,0.0,0.0
1666089073912160725,0.0,0.0,0.0,0.0,0.0,0.0
1666089073912181191,0.0,0.0,0.0,0.0,0.0,0.0
1666089073912192999,0.0,0.0,0.0,0.0,0.0,0.0
1666089073956063635,0.0,0.0,0.0,0.0,0.0,0.0
1666089073956084273,0.0,0.0,0.0,0.0,0.0,0.0
1666089073965488367,0.0,0.0,0.0,0.0,0.0,0.0
1666089073986443135,0.0,0.0,0.0,0.0,0.0,0.0
1666089074028108427,0.0,0.0,0.0,0.0,0.0,0.0
1666089074028119739,0.0,0.0,0.0,0.0,0.0,0.0
1666089074072060196,0.0,0.0,0.0,0.0,0.0,0.0
1666089074072072554,0.0,0.0,0.0,0.0,0.0,0.0
1666089074116105002,0.0,0.0,0.0,0.0,0.0,0.0
1666089074116130138,0.0,0.0,0.0,0.0,0.0,0.0
1666089074160077109,0.0,0.0,0.0,0.0,0.0,0.0
1666089074160089586,0.0,0.0,0.0,0.0,0.0,0.0
1666089074204211848,0.0,0.0,0.0,0.0,0.0,0.0
1666089074204225364,0.0,0.0,0.0,0.0,0.0,0.0
1666089074248154517,0.0,0.0,0.0,0.0,0.0,0.0
1666089074248176920,0.0,0.0,0.0,0.0,0.0,0.0
1666089074248188448,0.0,0.0,0.0,0.0,0.0,0.0
1666089074292045702,0.0,0.0,0.0,0.0,0.0,0.0
1666089074292055214,0.0,0.0,0.0,0.0,0.0,0.0
1666089074305707677,0.0,0.0,0.0,0.0,0.0,0.0
1666089074325590758,0.0,0.0,0.0,0.0,0.0,0.0
1666089074372067113,0.0,0.0,0.0,0.0,0.0,0.0
1666089074372082940,0.0,0.0,0.0,0.0,0.0,0.0
1666089074420059684,0.0,0.0,0.0,0.0,0.0,0.0
1666089074420074858,0.0,0.0,0.0,0.0,0.0,0.0
1666089074468052375,0.0,0.0,0.0,0.0,0.0,0.0
1666089074468063032,0.0,0.0,0.0,0.0,0.0,0.0
1666089074468069842,0.0,0.0,0.0,0.0,0.0,0.0
1666089074512147851,0.0,0.0,0.0,0.0,0.0,0.0
1666089074512172623,0.0,0.0,0.0,0.0,0.0,0.0
1666089074526235251,0.0,0.0,0.0,0.0,0.0,0.0
1666089074546641621,0.0,0.0,0.0,0.0,0.0,0.0
1666089074592064972,0.0,0.0,0.0,0.0,0.0,0.0
1666089074592077553,0.0,0.0,0.0,0.0,0.0,0.0
1666089074636107833,0.0,0.0,0.0,0.0,0.0,0.0
1666089074636119483,0.0,0.0,0.0,0.0,0.0,0.0
1666089074680146747,0.0,0.0,0.0,0.0,0.0,0.0
1666089074680210608,0.0,0.0,0.0,0.0,0.0,0.0
1666089074724183390,0.0,0.0,0.0,0.0,0.0,0.0
1666089074724210368,0.0,0.0,0.0,0.0,0.0,0.0
1666089074768374743,0.0,0.0,0.0,0.0,0.0,0.0
1666089074768421344,0.0,0.0,0.0,0.0,0.0,0.0
1666089074768433889,0.0,0.0,0.0,0.0,0.0,0.0
1666089074812132493,0.0,0.0,0.0,0.0,0.0,0.0
1666089074812151997,0.0,0.0,0.0,0.0,0.0,0.0
1666089074826343423,0.0,0.0,0.0,0.0,0.0,0.0
1666089074847687318,0.0,0.0,0.0,0.0,0.0,0.0
1666089074892370076,0.0,0.0,0.0,0.0,0.0,0.0
1666089074892416402,0.0,0.0,0.0,0.0,0.0,0.0
1666089074940075776,0.0,0.0,0.0,0.0,0.0,0.0
1666089074940085865,0.0,0.0,0.0,0.0,0.0,0.0
1666089074984425422,0.0,0.0,0.0,0.0,0.0,0.0
1666089074984463305,0.0,0.0,0.0,0.0,0.0,0.0
1666089075032011523,0.0,0.0,0.0,0.0,0.0,0.0
1666089075032048896,0.0,0.0,0.0,0.0,0.0,0.0
1666089075032061296,0.0,0.0,0.0,0.0,0.0,0.0
1666089075072040399,0.0,0.0,0.0,0.0,0.0,0.0
1666089075072046096,0.0,0.0,0.0,0.0,0.0,0.0
1666089075086338609,0.0,0.0,0.0,0.0,0.0,0.0
1666089075108312341,0.0,0.0,0.0,0.0,0.0,0.0
1666089075152349987,0.0,0.0,0.0,0.0,0.0,0.0
1666089075152398176,0.0,0.0,0.0,0.0,0.0,0.0
1666089075196372391,0.0,0.0,0.0,0.0,0.0,0.0
1666089075196423220,0.0,0.0,0.0,0.0,0.0,0.0
1666089075240140400,0.0,0.0,0.0,0.0,0.0,0.0
1666089075240164907,0.0,0.0,0.0,0.0,0.0,0.0
1666089075284154054,0.0,0.0,0.0,0.0,0.0,0.0
1666089075284175594,0.0,0.0,0.0,0.0,0.0,0.0
1666089075328200198,0.0,0.0,0.0,0.0,0.0,0.0
1666089075328235985,0.0,0.0,0.0,0.0,0.0,0.0
1666089075328253429,0.0,0.0,0.0,0.0,0.0,0.0
1666089075376074709,0.0,0.0,0.0,0.0,0.0,0.0
1666089075376089670,0.0,0.0,0.0,0.0,0.0,0.0
1666089075386284573,0.0,0.0,0.0,0.0,0.0,0.0
1666089075407181636,0.0,0.0,0.0,0.0,0.0,0.0
1666089075452073032,0.0,0.0,0.0,0.0,0.0,0.0
1666089075452092482,0.0,0.0,0.0,0.0,0.0,0.0
1666089075496444211,0.0,0.0,0.0,0.0,0.0,0.0
1666089075496502818,0.0,0.0,0.0,0.0,0.0,0.0
1666089075540918505,0.0,0.0,0.0,0.0,0.0,0.0
1666089075541075335,0.0,0.0,0.0,0.0,0.0,-0.002967059728390361
1666089075584261717,0.0,0.0,0.0,0.0,0.0,0.0006981317007977319
1666089075584297794,0.0,0.0,0.0,0.0,0.0,0.0006981317007977319
1666089075628396792,0.0,0.0,0.0,0.0,0.0,0.0
1666089075628445098,0.0,0.0,0.0,0.0,0.0,0.0008726646259971648
1666089075628498821,0.002132302208337933,0.0,0.0,0.0,0.0,0.0008726646259971648
1666089075672228343,0.02345532429171726,0.0,0.0,0.0,0.0,-0.0006981317007977319
1666089075672256444,0.012793813250027599,0.0,0.0,0.0,0.0,0.0
1666089075685808720,0.017058417666703463,0.0,0.0,0.0,0.0,-0.0015707963267948967
1666089075708096412,0.017058417666703463,0.0,0.0,0.0,0.0,-0.0017453292519943296
1666089075748578671,0.03838143975008279,0.0,0.0,0.0,0.0,0.0024434609527920616
1666089075792158265,0.034116835333406925,0.0,0.0,0.0,0.0,-0.003316125578789226
1666089075792192354,0.03198453312506899,0.0,0.0,0.0,0.0,-0.0017453292519943296
1666089075792212876,0.04051374195842073,0.0,0.0,0.0,0.0,-0.004537856055185257
1666089075836121055,0.04904295079177246,0.0,0.0,0.0,0.0,-0.006632251157578452
1666089075836143497,0.05757215962512419,0.0,0.0,0.0,0.0,-0.00715584993317675
1666089075847694492,0.05757215962512419,0.0,0.0,0.0,0.0,-0.017976891295541593
1666089075867204029,0.05757215962512419,0.0,0.0,0.0,0.0,-0.039095375244672985
1666089075908117144,0.06183676404180006,0.0,0.0,0.0,0.0,-0.05585053606381855
1666089075908133097,0.05543985741678625,0.0,0.0,0.0,0.0,-0.061959188445798695
1666089075952295086,0.04051374195842073,0.0,0.0,0.0,0.0,-0.05881759579220891
1666089075952326822,0.04691064858343452,0.0,0.0,0.0,0.0,-0.05078908123303499
1666089075996141605,0.05330755520844832,0.0,0.0,0.0,0.0,-0.05009094953223726
1666089075996165984,0.034116835333406925,0.0,0.0,0.0,0.0,-0.06405358354819189
1666089076044151838,0.03198453312506899,0.0,0.0,0.0,0.0,-0.08656833089891874
1666089076044165183,0.029852230916731063,0.0,0.0,0.0,0.0,-0.1223475805648025
1666089076088318505,0.034116835333406925,0.0,0.0,0.0,0.0,-0.17348572764823633
1666089076088363821,0.029852230916731063,0.0,0.0,0.0,0.0,-0.23614304779483275
1666089076088390186,0.010661511041689664,0.0,0.0,0.0,0.0,-0.262846585350346
1666089076132103816,0.012793813250027599,0.0,0.0,0.0,0.0,-0.2740166925631097
1666089076132115759,0.002132302208337933,0.0,0.0,0.0,0.0,-0.285012266850674
1666089076148071802,-0.002132302208337933,0.0,0.0,0.0,0.0,-0.31346113365818157
1666089076168332034,-0.002132302208337933,0.0,0.0,0.0,0.0,-0.3827507049623564
1666089076216128291,-0.004264604416675866,0.0,0.0,0.0,0.0,-0.40282199136029123
1666089076216151432,0.0,0.0,0.0,0.0,0.0,-0.42027528388023455
1666089076264193062,-0.006396906625013799,0.0,0.0,0.0,0.0,-0.44558255803415237
1666089076264222135,0.004264604416675866,0.0,0.0,0.0,0.0,-0.4845034003536259
1666089076312354145,-0.002132302208337933,0.0,0.0,0.0,0.0,-0.5024802916491674
1666089076312416786,-0.002132302208337933,0.0,0.0,0.0,0.0,-0.47612581994405306
1666089076312440574,-0.004264604416675866,0.0,0.0,0.0,0.0,-0.4656538444320871
1666089076356343186,0.0,0.0,0.0,0.0,0.0,-0.48520153205442357
1666089076356376578,0.002132302208337933,0.0,0.0,0.0,0.0,-0.4871213942316174
1666089076366771717,0.002132302208337933,0.0,0.0,0.0,0.0,-0.47490408946765705
1666089076386965789,0.0,0.0,0.0,0.0,0.0,-0.45814892864851153
1666089076428283631,0.002132302208337933,0.0,0.0,0.0,0.0,-0.457974395723312
1666089076428331299,0.0,0.0,0.0,0.0,0.0,-0.4640830481052922
1666089076472073148,0.0,0.0,0.0,0.0,0.0,-0.4584979944989103
1666089076472094563,-0.004264604416675866,0.0,0.0,0.0,0.0,-0.4422664324553631
1666089076516780055,0.0,0.0,0.0,0.0,0.0,-0.4338888520457903
1666089076516842391,-0.002132302208337933,0.0,0.0,0.0,0.0,-0.4454080251089529
1666089076560080721,0.002132302208337933,0.0,0.0,0.0,0.0,-0.45430920429412397
1666089076560094734,0.0,0.0,0.0,0.0,0.0,-0.44558255803415237
1666089076604319324,0.004264604416675866,0.0,0.0,0.0,0.0,-0.4260348704118158
1666089076604360347,-0.004264604416675866,0.0,0.0,0.0,0.0,-0.425685804561417
1666089076648248421,0.002132302208337933,0.0,0.0,0.0,0.0,-0.43022366061660217
1666089076648275627,0.0,0.0,0.0,0.0,0.0,-0.4317944569433971
1666089076648293594,-0.002132302208337933,0.0,0.0,0.0,0.0,-0.42394047530942264
1666089076694857566,-0.004264604416675866,0.0,0.0,0.0,0.0,-0.4157374278250493
1666089076694884070,-0.002132302208337933,0.0,0.0,0.0,0.0,-0.40177479380909464
1666089076707925536,0.002132302208337933,0.0,0.0,0.0,0.0,-0.3940953451003196
1666089076726743887,-0.002132302208337933,0.0,0.0,0.0,0.0,-0.39112828537192923
1666089076768086156,0.002132302208337933,0.0,0.0,0.0,0.0,-0.37734018428117405
1666089076768102193,-0.002132302208337933,0.0,0.0,0.0,0.0,-0.3654719453676126
1666089076816135297,0.002132302208337933,0.0,0.0,0.0,0.0,-0.35238197597765514
1666089076816165895,0.0,0.0,0.0,0.0,0.0,-0.3584906283596353
1666089076860427917,-0.002132302208337933,0.0,0.0,0.0,0.0,-0.35273104182805404
1666089076860473783,0.0,0.0,0.0,0.0,0.0,-0.34697145529647266
1666089076904150893,0.0,0.0,0.0,0.0,0.0,-0.35046211380046133
1666089076904172259,-0.004264604416675866,0.0,0.0,0.0,0.0,-0.3417354675404897
1666089076948311947,0.004264604416675866,0.0,0.0,0.0,0.0,-0.3331833542057175
1666089076948405889,-0.002132302208337933,0.0,0.0,0.0,0.0,-0.3354522822333101
1666089076992123380,0.0,0.0,0.0,0.0,0.0,-0.32882003107573166
1666089076992139015,0.0,0.0,0.0,0.0,0.0,-0.3171263250873697
1666089076992143662,0.0,0.0,0.0,0.0,0.0,-0.3078760800517997
1666089077036169550,0.0,0.0,0.0,0.0,0.0,-0.30141836181942067
1666089077036180925,0.0,0.0,0.0,0.0,0.0,-0.29792770331543206
1666089077047917193,0.0,0.0,0.0,0.0,0.0,-0.29059732045705583
1666089077067796564,-0.004264604416675866,0.0,0.0,0.0,0.0,-0.2776818839922978
1666089077108282340,-0.002132302208337933,0.0,0.0,0.0,0.0,-0.25935592684635733
1666089077156101166,0.002132302208337933,0.0,0.0,0.0,0.0,-0.25883232807075907
1666089077156118232,0.0,0.0,0.0,0.0,0.0,-0.2574360646691636
1666089077156129724,-0.004264604416675866,0.0,0.0,0.0,0.0,-0.24713862208239704
1666089077200032720,0.002132302208337933,0.0,0.0,0.0,0.0,-0.24190263432641407
1666089077200043294,0.002132302208337933,0.0,0.0,0.0,0.0,-0.2282890661608583
1666089077207248646,0.004264604416675866,0.0,0.0,0.0,0.0,-0.2193878869756872
1666089077228465993,-0.004264604416675866,0.0,0.0,0.0,0.0,-0.21903882112528836
1666089077268354136,0.004264604416675866,0.0,0.0,0.0,0.0,-0.17941984710501704
1666089077312522338,0.0,0.0,0.0,0.0,0.0,-0.15847589608108512
1666089077312606124,0.002132302208337933,0.0,0.0,0.0,0.0,-0.1520181778487061
1666089077312650381,0.0,0.0,0.0,0.0,0.0,-0.14695672301792254
1666089077356245291,0.002132302208337933,0.0,0.0,0.0,0.0,-0.13369222070276562
1666089077356321035,-0.002132302208337933,0.0,0.0,0.0,0.0,-0.11606439525762292
1666089077368211933,-0.002132302208337933,0.0,0.0,0.0,0.0,-0.10768681484805012
1666089077387394459,0.002132302208337933,0.0,0.0,0.0,0.0,-0.11274826967883368
1666089077432068857,0.0,0.0,0.0,0.0,0.0,-0.11431906600562858
1666089077432086684,0.004264604416675866,0.0,0.0,0.0,0.0,-0.09913470151327791
1666089077476246800,-0.004264604416675866,0.0,0.0,0.0,0.0,-0.07836528341454539
1666089077476269916,0.0,0.0,0.0,0.0,0.0,-0.08011061266653972
1666089077520238495,0.002132302208337933,0.0,0.0,0.0,0.0,-0.09389871375729493
1666089077520279259,0.0,0.0,0.0,0.0,0.0,-0.08726646259971647
1666089077564114438,0.0,0.0,0.0,0.0,0.0,-0.06754424205218056
1666089077564132010,0.0,0.0,0.0,0.0,0.0,-0.07504915783575616
1666089077608098446,0.002132302208337933,0.0,0.0,0.0,0.0,-0.08290313946973064
1666089077608118210,0.0,0.0,0.0,0.0,0.0,-0.07853981633974483
1666089077608130092,0.0,0.0,0.0,0.0,0.0,-0.06736970912698112
1666089077652166892,-0.002132302208337933,0.0,0.0,0.0,0.0,-0.054105206811824215
1666089077652187222,0.0,0.0,0.0,0.0,0.0,-0.04223696789826277
1666089077667333691,0.0,0.0,0.0,0.0,0.0,-0.04939281783143952
1666089077687512598,0.0,0.0,0.0,0.0,0.0,-0.05619960191421742
1666089077732167014,-0.002132302208337933,0.0,0.0,0.0,0.0,-0.03159045946109736
1666089077732185859,0.0,0.0,0.0,0.0,0.0,-0.026529004630313806
1666089077776270356,0.0,0.0,0.0,0.0,0.0,-0.02775073510670984
1666089077776297906,0.0,0.0,0.0,0.0,0.0,-0.022863813201125717
1666089077820059013,0.0,0.0,0.0,0.0,0.0,-0.012740903539558606
1666089077820070480,0.0,0.0,0.0,0.0,0.0,-0.005585053606381855
1666089077864078544,0.0,0.0,0.0,0.0,0.0,-0.0012217304763960308
1666089077864102361,0.0,0.0,0.0,0.0,0.0,-0.0006981317007977319
1666089077908166361,0.0,0.0,0.0,0.0,0.0,-0.002617993877991494
1666089077908203451,0.0,0.0,0.0,0.0,0.0,-0.0013962634015954637
1666089077952080454,0.0,0.0,0.0,0.0,0.0,-0.0041887902047863905
1666089077952096729,0.0,0.0,0.0,0.0,0.0,-0.005759586531581288
1666089077952109671,0.0,0.0,0.0,0.0,0.0,-0.0013962634015954637
1666089077996457918,0.002132302208337933,0.0,0.0,0.0,0.0,0.0010471975511965976
1666089077996502385,0.0,0.0,0.0,0.0,0.0,0.0015707963267948967
1666089078008703509,0.0,0.0,0.0,0.0,0.0,-0.004886921905584123
1666089078028904821,0.002132302208337933,0.0,0.0,0.0,0.0,-0.010297442586766544
1666089078076535704,0.0,0.0,0.0,0.0,0.0,-0.009599310885968814
1666089078076603572,0.0,0.0,0.0,0.0,0.0,-0.010122909661567111
1666089078120055180,0.002132302208337933,0.0,0.0,0.0,0.0,-0.006806784082777885
1666089078120078087,0.0,0.0,0.0,0.0,0.0,-0.004014257279586958
1666089078164279440,0.0,0.0,0.0,0.0,0.0,-0.0031415926535897933
1666089078164330808,0.0,0.0,0.0,0.0,0.0,-0.0017453292519943296
1666089078208485618,0.002132302208337933,0.0,0.0,0.0,0.0,-0.0015707963267948967
1666089078208556311,-0.004264604416675866,0.0,0.0,0.0,0.0,0.0017453292519943296
1666089078252127385,0.002132302208337933,0.0,0.0,0.0,0.0,-0.002967059728390361
1666089078252151237,0.0,0.0,0.0,0.0,0.0,-0.015707963267948967
1666089078252169380,0.0,0.0,0.0,0.0,0.0,-0.024609142453120045
1666089078296428847,-0.002132302208337933,0.0,0.0,0.0,0.0,-0.028623399732707
1666089078296521001,0.0,0.0,0.0,0.0,0.0,-0.03682644721708035
1666089078308957344,0.0,0.0,0.0,0.0,0.0,-0.038397243543875255
1666089078328901063,-0.002132302208337933,0.0,0.0,0.0,0.0,-0.040491638646268445
1666089078372097024,0.002132302208337933,0.0,0.0,0.0,0.0,-0.04799655442984406
1666089078372119624,0.0,0.0,0.0,0.0,0.0,-0.031241393610698498
1666089078420185689,0.0,0.0,0.0,0.0,0.0,-0.00034906585039886593
1666089078420223878,0.0,0.0,0.0,0.0,0.0,0.0022689280275926286
1666089078464087930,0.010661511041689664,0.0,0.0,0.0,0.0,-0.00017453292519943296
1666089078464105160,0.012793813250027599,0.0,0.0,0.0,0.0,0.0015707963267948967
1666089078508205384,0.010661511041689664,0.0,0.0,0.0,0.0,-0.0013962634015954637
1666089078508231574,0.019190719875041395,0.0,0.0,0.0,0.0,0.0
1666089078556362522,0.012793813250027599,0.0,0.0,0.0,0.0,0.00034906585039886593
1666089078556393512,0.027719928708393127,0.0,0.0,0.0,0.0,-0.0006981317007977319
1666089078556499813,0.02345532429171726,0.0,0.0,0.0,0.0,0.0017453292519943296
1666089078600115539,0.025587626500055197,0.0,0.0,0.0,0.0,0.00471238898038469
1666089078600129047,0.03624913754174486,0.0,0.0,0.0,0.0,-0.0013962634015954637
1666089078607916227,0.034116835333406925,0.0,0.0,0.0,0.0,0.00017453292519943296
1666089078629128070,0.04691064858343452,0.0,0.0,0.0,0.0,-0.004014257279586958
1666089078676073323,0.051175253000110395,0.0,0.0,0.0,0.0,-0.00034906585039886593
1666089078676090251,0.051175253000110395,0.0,0.0,0.0,0.0,0.0017453292519943296
1666089078720253755,0.06610136845847592,0.0,0.0,0.0,0.0,-0.0008726646259971648
1666089078720282614,0.06396906625013798,0.0,0.0,0.0,0.0,-0.003316125578789226
1666089078764106583,0.08102748391684146,0.0,0.0,0.0,0.0,-0.0012217304763960308
1666089078764126918,0.07249827508348972,0.0,0.0,0.0,0.0,-0.0017453292519943296
1666089078808094112,0.07889518170850353,0.0,0.0,0.0,0.0,0.0
1666089078808111477,0.09808590158354492,0.0,0.0,0.0,0.0,0.006283185307179587
1666089078808122259,0.09382129716686904,0.0,0.0,0.0,0.0,0.0019198621771937623
1666089078852451071,0.10021820379188286,0.0,0.0,0.0,0.0,0.0013962634015954637
1666089078852540371,0.09808590158354492,0.0,0.0,0.0,0.0,0.004363323129985824
1666089078868856332,0.10661511041689664,0.0,0.0,0.0,0.0,-0.00017453292519943296
1666089078888166806,0.11940892366692425,0.0,0.0,0.0,0.0,-0.00471238898038469
1666089078932148855,0.11727662145858632,0.0,0.0,0.0,0.0,-0.004886921905584123
1666089078932183771,0.1300704347086139,0.0,0.0,0.0,0.0,-0.0041887902047863905
1666089078976457292,0.12793813250027597,0.0,0.0,0.0,0.0,0.0010471975511965976
1666089078976494603,0.13220273691695184,0.0,0.0,0.0,0.0,0.0020943951023931952
1666089079020287803,0.14712885237531736,0.0,0.0,0.0,0.0,-0.005235987755982988
1666089079020330433,0.14499655016697943,0.0,0.0,0.0,0.0,-0.0041887902047863905
1666089079064110834,0.15779036341700706,0.0,0.0,0.0,0.0,0.00471238898038469
1666089079064127672,0.15352575900033116,0.0,0.0,0.0,0.0,0.004014257279586958
1666089079108473773,0.159922665625345,0.0,0.0,0.0,0.0,-0.003490658503988659
1666089079108501162,0.17484878108371052,0.0,0.0,0.0,0.0,-0.0012217304763960308
1666089079152339077,0.17271647887537256,0.0,0.0,0.0,0.0,0.0010471975511965976
1666089079152392815,0.18337798991706222,0.0,0.0,0.0,0.0,-0.00034906585039886593
1666089079152429375,0.18124568770872432,0.0,0.0,0.0,0.0,-0.0031415926535897933
1666089079196120750,0.17484878108371052,0.0,0.0,0.0,0.0,-0.0020943951023931952
1666089079196136441,0.19830410537542775,0.0,0.0,0.0,0.0,-0.005585053606381855
1666089079207483730,0.19830410537542775,0.0,0.0,0.0,0.0,-0.010122909661567111
1666089079228900924,0.21109791862545538,0.0,0.0,0.0,0.0,-0.005759586531581288
1666089079272204236,0.20896561641711744,0.0,0.0,0.0,0.0,-0.0012217304763960308
1666089079272241779,0.21109791862545538,0.0,0.0,0.0,0.0,-0.00645771823237902
1666089079316456691,0.22389173187548297,0.0,0.0,0.0,0.0,-0.004537856055185257
1666089079316609205,0.22602403408382088,0.0,0.0,0.0,0.0,-0.0005235987755982988
1666089079360247838,0.23668554512551054,0.0,0.0,0.0,0.0,0.00017453292519943296
1666089079360277938,0.22815633629215884,0.0,0.0,0.0,0.0,-0.00645771823237902
1666089079404267327,0.2388178473338485,0.0,0.0,0.0,0.0,-0.00645771823237902
1666089079404295830,0.25587626500055194,0.0,0.0,0.0,0.0,-0.007853981633974483
1666089079448157564,0.24521475395886227,0.0,0.0,0.0,0.0,-0.0038397243543875246
1666089079448180357,0.2601408694172278,0.0,0.0,0.0,0.0,-0.0041887902047863905
1666089079492118276,0.25800856720888987,0.0,0.0,0.0,0.0,-0.004886921905584123
1666089079492134851,0.2601408694172278,0.0,0.0,0.0,0.0,-0.007330382858376183
1666089079492154876,0.27080238045891747,0.0,0.0,0.0,0.0,-0.014137166941154071
1666089079536464026,0.27080238045891747,0.0,0.0,0.0,0.0,-0.015184364492350668
1666089079536556571,0.2921254025422968,0.0,0.0,0.0,0.0,-0.008203047484373348
1666089079549188757,0.28572849591728305,0.0,0.0,0.0,0.0,-0.003316125578789226
1666089079568591992,0.28786079812562093,0.0,0.0,0.0,0.0,-0.004537856055185257
1666089079616375905,0.2985223091673106,0.0,0.0,0.0,0.0,-0.011519173063162576
1666089079616402674,0.30918382020900026,0.0,0.0,0.0,0.0,-0.007679448708775049
1666089079664292046,0.3113161224173382,0.0,0.0,0.0,0.0,-0.003316125578789226
1666089079664369365,0.30918382020900026,0.0,0.0,0.0,0.0,-0.008726646259971648
1666089079708308139,0.3134484246256761,0.0,0.0,0.0,0.0,-0.013962634015954637
1666089079708349191,0.3347714467090555,0.0,0.0,0.0,0.0,-0.01972222054753592
1666089079756172830,0.3347714467090555,0.0,0.0,0.0,0.0,-0.015184364492350668
1666089079756193618,0.3347714467090555,0.0,0.0,0.0,0.0,-0.014137166941154071
1666089079756198847,0.3347714467090555,0.0,0.0,0.0,0.0,-0.017453292519943295
1666089079807158751,0.3390360511257314,0.0,0.0,0.0,0.0,-0.027925268031909273
1666089079807181603,0.35822677100077277,0.0,0.0,0.0,0.0,-0.025132741228718346
1666089079811000222,0.3539621665840969,0.0,0.0,0.0,0.0,-0.016929693744344998
1666089079830184550,0.36249137541744864,0.0,0.0,0.0,0.0,-0.024609142453120045
1666089079876276847,0.36888828204246243,0.0,0.0,0.0,0.0,-0.033859387488689996
1666089079876304216,0.36675597983412445,0.0,0.0,0.0,0.0,-0.023038346126325153
1666089079920617656,0.3838143975008279,0.0,0.0,0.0,0.0,-0.01972222054753592
1666089079920730518,0.38168209529249003,0.0,0.0,0.0,0.0,-0.01972222054753592
1666089079964488098,0.38807900191750383,0.0,0.0,0.0,0.0,-0.024609142453120045
1666089079964516873,0.4008728151675314,0.0,0.0,0.0,0.0,-0.018675022996339326
1666089080008269993,0.3923436063341797,0.0,0.0,0.0,0.0,-0.011868238913561443
1666089080008297034,0.40513741958420724,0.0,0.0,0.0,0.0,-0.020420352248333655
1666089080052288883,0.42219583725091075,0.0,0.0,0.0,0.0,-0.008203047484373348
1666089080052313035,0.42646044166758657,0.0,0.0,0.0,0.0,-0.00645771823237902
1666089080052317446,0.41366662841755897,0.0,0.0,0.0,0.0,-0.011344640137963142
1666089080096828539,0.41366662841755897,0.0,0.0,0.0,0.0,-0.024085543677521744
1666089080096894673,0.4285927438759245,0.0,0.0,0.0,0.0,-0.021467549799530253
1666089080108734653,0.43712195270927623,0.0,0.0,0.0,0.0,-0.018500490071139894
1666089080130240886,0.445651161542628,0.0,0.0,0.0,0.0,-0.015533430342749534
1666089080172326265,0.44138655712595215,0.0,0.0,0.0,0.0,-0.029845130209103034
1666089080172357090,0.4499157659593038,0.0,0.0,0.0,0.0,-0.03647738136668148
1666089080216561704,0.4669741836260073,0.0,0.0,0.0,0.0,-0.029670597283903602
1666089080216649848,0.4669741836260073,0.0,0.0,0.0,0.0,-0.01972222054753592
1666089080260195075,0.477635694667697,0.0,0.0,0.0,0.0,-0.020420352248333655
1666089080260226213,0.4669741836260073,0.0,0.0,0.0,0.0,-0.02548180707911721
1666089080304087421,0.4627095792093315,0.0,0.0,0.0,0.0,-0.033335788713091695
1666089080304105019,0.4840326012927108,0.0,0.0,0.0,0.0,-0.032114058236695664
1666089080348348561,0.49469411233440047,0.0,0.0,0.0,0.0,-0.026878070480712675
1666089080348384255,0.49682641454273835,0.0,0.0,0.0,0.0,-0.034033920413889425
1666089080392198257,0.44138655712595215,0.0,0.0,0.0,0.0,-0.045727626402251434
1666089080392224152,0.4008728151675314,0.0,0.0,0.0,0.0,-0.04293509959906051
1666089080392284349,0.4349896505009383,0.0,0.0,0.0,0.0,-0.03316125578789226
1666089080436083391,0.47976799687603494,0.0,0.0,0.0,0.0,-0.028797932657906436
1666089080436105138,0.45844497479265556,0.0,0.0,0.0,0.0,-0.035255650890285456
1666089080450621833,0.42219583725091075,0.0,0.0,0.0,0.0,-0.053930673886624786
1666089080470376652,0.4328573482926004,0.0,0.0,0.0,0.0,-0.022863813201125717
1666089080517462550,0.45204806816764176,0.0,0.0,0.0,0.0,-0.023387411976724018
1666089080517510242,0.4499157659593038,0.0,0.0,0.0,0.0,-0.044505895925855396
1666089080560145475,0.4392542549176142,0.0,0.0,0.0,0.0,-0.042411500823462206
1666089080560181098,0.4349896505009383,0.0,0.0,0.0,0.0,-0.02548180707911721
1666089080608208443,0.43712195270927623,0.0,0.0,0.0,0.0,-0.023387411976724018
1666089080608232874,0.45418037037597975,0.0,0.0,0.0,0.0,-0.026703537555513242
1666089080652300093,0.4499157659593038,0.0,0.0,0.0,0.0,-0.033335788713091695
1666089080652344807,0.4563126725843177,0.0,0.0,0.0,0.0,-0.045553093477052
1666089080652352940,0.4563126725843177,0.0,0.0,0.0,0.0,-0.06422811647339133
1666089080696391991,0.45418037037597975,0.0,0.0,0.0,0.0,-0.09808750396208131
1666089080696423701,0.4755033924593591,0.0,0.0,0.0,0.0,-0.12775810124598494
1666089080709023249,0.46484188141766936,0.0,0.0,0.0,0.0,-0.15969762655748115
1666089080731417510,0.4755033924593591,0.0,0.0,0.0,0.0,-0.1907644872429802
1666089080776138132,0.4840326012927108,0.0,0.0,0.0,0.0,-0.21101030656611444
1666089080776160745,0.49256181012606254,0.0,0.0,0.0,0.0,-0.25010568181078746
1666089080820174972,0.49469411233440047,0.0,0.0,0.0,0.0,-0.27715828521669955
1666089080820205687,0.48616490350104874,0.0,0.0,0.0,0.0,-0.2958333082130388
1666089080864774926,0.49256181012606254,0.0,0.0,0.0,0.0,-0.3005456971934235
1666089080864810302,0.49042950791772455,0.0,0.0,0.0,0.0,-0.31485739705977706
1666089080908240634,0.49895871675107634,0.0,0.0,0.0,0.0,-0.3347541505325124
1666089080908289759,0.49895871675107634,0.0,0.0,0.0,0.0,-0.36966073557239904
1666089080956158424,0.49682641454273835,0.0,0.0,0.0,0.0,-0.4016002608838952
1666089080956186493,0.49895871675107634,0.0,0.0,0.0,0.0,-0.4297000618410039
1666089080956214979,0.4882972057093866,0.0,0.0,0.0,0.0,-0.44523349218375347
1666089081000144592,0.49682641454273835,0.0,0.0,0.0,0.0,-0.47717301749524965
1666089081000162031,0.49256181012606254,0.0,0.0,0.0,0.0,-0.5113814708343386
1666089081009626707,0.47976799687603494,0.0,0.0,0.0,0.0,-0.5309291584566751
1666089081029495831,0.47976799687603494,0.0,0.0,0.0,0.0,-0.5347688828110625
1666089081076140639,0.4840326012927108,0.0,0.0,0.0,0.0,-0.5574581630869889
1666089081076163997,0.49469411233440047,0.0,0.0,0.0,0.0,-0.6152285613280011
1666089081120113965,0.4882972057093866,0.0,0.0,0.0,0.0,-0.6511823439190844
1666089081120130286,0.4819002990843728,0.0,0.0,0.0,0.0,-0.6712536303170192
1666089081164389518,0.477635694667697,0.0,0.0,0.0,0.0,-0.665494043785438
1666089081164447412,0.4840326012927108,0.0,0.0,0.0,0.0,-0.6958627727701392
1666089081208145322,0.48616490350104874,0.0,0.0,0.0,0.0,-0.7180284542704672
1666089081208166738,0.4840326012927108,0.0,0.0,0.0,0.0,-0.7218681786248546
1666089081252247991,0.4882972057093866,0.0,0.0,0.0,0.0,-0.7361798784912083
1666089081252288199,0.49469411233440047,0.0,0.0,0.0,0.0,-0.745779189377177
1666089081252322919,0.49256181012606254,0.0,0.0,0.0,0.0,-0.7410668003967923
1666089081296125648,0.49256181012606254,0.0,0.0,0.0,0.0,-0.7468263869283737
1666089081296148321,0.49895871675107634,0.0,0.0,0.0,0.0,-0.7365289443416071
1666089081310050971,0.49042950791772455,0.0,0.0,0.0,0.0,-0.7101744726364927
1666089081329184114,0.46484188141766936,0.0,0.0,0.0,0.0,-0.7134905982152819
1666089081372142017,0.4733710902510211,0.0,0.0,0.0,0.0,-0.7286749627076327
1666089081372169118,0.4840326012927108,0.0,0.0,0.0,0.0,-0.7134905982152819
1666089081416316884,0.49682641454273835,0.0,0.0,0.0,0.0,-0.7614871526451259
1666089081416356510,0.4840326012927108,0.0,0.0,0.0,0.0,-0.7742280561846845
1666089081461274764,0.477635694667697,0.0,0.0,0.0,0.0,-0.7593927575427328
1666089081461295473,0.4882972057093866,0.0,0.0,0.0,0.0,-0.7396705369951969
1666089081504248862,0.49042950791772455,0.0,0.0,0.0,0.0,-0.7560766319639435
1666089081504311154,0.49682641454273835,0.0,0.0,0.0,0.0,-0.7813839061178613
1666089081548214396,0.49469411233440047,0.0,0.0,0.0,0.0,-0.7719591281570918
1666089081548239583,0.5032233211677521,0.0,0.0,0.0,0.0,-0.7490953149559663
1666089081592201314,0.49682641454273835,0.0,0.0,0.0,0.0,-0.7557275661135446
1666089081592227418,0.5010910189594143,0.0,0.0,0.0,0.0,-0.7592182246175333
1666089081592242749,0.507487925584428,0.0,0.0,0.0,0.0,-0.7339109504636155
1666089081636462118,0.5138848322094418,0.0,0.0,0.0,0.0,-0.7178539213452677
1666089081636543540,0.5096202277927661,0.0,0.0,0.0,0.0,-0.6832964021557799
1666089081654670460,0.5160171344177797,0.0,0.0,0.0,0.0,-0.6391395720803233
1666089081671118873,0.5202817388344556,0.0,0.0,0.0,0.0,-0.5895722213236845
1666089081712131236,0.5288109476678073,0.0,0.0,0.0,0.0,-0.5359906132874587
1666089081712152878,0.5266786454594694,0.0,0.0,0.0,0.0,-0.5347688828110625
1666089081756216454,0.5309432498761453,0.0,0.0,0.0,0.0,-0.49567350756638956
1666089081756251895,0.5288109476678073,0.0,0.0,0.0,0.0,-0.4392993727269727
1666089081800102686,0.5266786454594694,0.0,0.0,0.0,0.0,-0.4082325120414737
1666089081800118938,0.5352078542928211,0.0,0.0,0.0,0.0,-0.3597123588360313
1666089081844214621,0.5373401565011591,0.0,0.0,0.0,0.0,-0.3518583772020568
1666089081844280333,0.5416047609178349,0.0,0.0,0.0,0.0,-0.29286624848464854
1666089081888227340,0.5458693653345108,0.0,0.0,0.0,0.0,-0.2944370448114434
1666089081888262513,0.5437370631261729,0.0,0.0,0.0,0.0,-0.2755874888899046
1666089081932263956,0.5437370631261729,0.0,0.0,0.0,0.0,-0.24940755010998966
1666089081932288898,0.5565308763762006,0.0,0.0,0.0,0.0,-0.2516764781375823
1666089081932320662,0.5501339697511867,0.0,0.0,0.0,0.0,-0.2267182698340634
1666089081980113606,0.5565308763762006,0.0,0.0,0.0,0.0,-0.1923352835697751
1666089081980145310,0.5565308763762006,0.0,0.0,0.0,0.0,-0.18413223608540177
1666089081992371643,0.5735892940429039,0.0,0.0,0.0,0.0,-0.12391837689159739
1666089082009777219,0.5693246896262281,0.0,0.0,0.0,0.0,-0.09808750396208131
1666089082052223930,0.5714569918345661,0.0,0.0,0.0,0.0,-0.09756390518648302
1666089082052249333,0.5650600852095522,0.0,0.0,0.0,0.0,-0.08080874436733745
1666089082096234739,0.5671923874178901,0.0,0.0,0.0,0.0,-0.04485496177625426
1666089082096263377,0.5735892940429039,0.0,0.0,0.0,0.0,-0.07138396640656808
1666089082140084756,0.5842508050845936,0.0,0.0,0.0,0.0,-0.07836528341454539
1666089082140100953,0.5906477117096074,0.0,0.0,0.0,0.0,-0.041887902047863905
1666089082184327008,0.5949123161262834,0.0,0.0,0.0,0.0,-0.0439822971502571
1666089082184343788,0.5885154095012695,0.0,0.0,0.0,0.0,-0.03089232776029963
1666089082228506944,0.5927800139179454,0.0,0.0,0.0,0.0,-0.00034906585039886593
1666089082228611029,0.5991769205429591,0.0,0.0,0.0,0.0,-0.025132741228718346
1666089082272130012,0.5991769205429591,0.0,0.0,0.0,0.0,-0.05358160803622591
1666089082272151624,0.5991769205429591,0.0,0.0,0.0,0.0,-0.061086523819801536
1666089082272163360,0.6013092227512972,0.0,0.0,0.0,0.0,-0.05026548245743669
1666089082320445754,0.6098384315846489,0.0,0.0,0.0,0.0,-0.027052603405912107
1666089082320479992,0.6332937558763662,0.0,0.0,0.0,0.0,-0.07819075048934597
1666089082331043207,0.6119707337929867,0.0,0.0,0.0,0.0,-0.10157816246606997
1666089082350560057,0.6119707337929867,0.0,0.0,0.0,0.0,-0.07051130178057091
1666089082392444296,0.6141030360013247,0.0,0.0,0.0,0.0,-0.06736970912698112
1666089082392506754,0.6332937558763662,0.0,0.0,0.0,0.0,-0.04729842272904633
1666089082436159833,0.6375583602930419,0.0,0.0,0.0,0.0,-0.011693705988362009
1666089082436170328,0.6311614536680282,0.0,0.0,0.0,0.0,-0.012217304763960306
1666089082480143609,0.635426058084704,0.0,0.0,0.0,0.0,-0.005585053606381855
1666089082480157394,0.635426058084704,0.0,0.0,0.0,0.0,0.011344640137963142
1666089082524274927,0.6439552669180557,0.0,0.0,0.0,0.0,0.02199114857512855
1666089082524311164,0.6439552669180557,0.0,0.0,0.0,0.0,-0.015707963267948967
1666089082568142000,0.6290291514596902,0.0,0.0,0.0,0.0,-0.012740903539558606
1666089082568159990,0.6268968492513523,0.0,0.0,0.0,0.0,0.00471238898038469
1666089082616476036,0.63969066250138,0.0,0.0,0.0,0.0,0.020420352248333655
1666089082616510265,0.6418229647097178,0.0,0.0,0.0,0.0,0.002617993877991494
1666089082616606541,0.6460875691263938,0.0,0.0,0.0,0.0,-0.007853981633974483
1666089082664309949,0.6290291514596902,0.0,0.0,0.0,0.0,-0.022689280275926284
1666089082664686159,0.6290291514596902,0.0,0.0,0.0,0.0,-0.013788101090755204
1666089082670911027,0.6332937558763662,0.0,0.0,0.0,0.0,-0.013264502315156903
1666089082690199769,0.6311614536680282,0.0,0.0,0.0,0.0,-0.028623399732707
1666089082732580190,0.6375583602930419,0.0,0.0,0.0,0.0,-0.032463124087094536
1666089082732644971,0.6524844757514074,0.0,0.0,0.0,0.0,-0.02949606435870417
1666089082780168479,0.6567490801680833,0.0,0.0,0.0,0.0,-0.031241393610698498
1666089082780197555,0.6567490801680833,0.0,0.0,0.0,0.0,-0.007679448708775049
1666089082824433917,0.6503521735430695,0.0,0.0,0.0,0.0,-0.0036651914291880917
1666089082824459171,0.6567490801680833,0.0,0.0,0.0,0.0,-0.008726646259971648
1666089082872089346,0.6588813823764212,0.0,0.0,0.0,0.0,-0.008203047484373348
1666089082872104312,0.6482198713347317,0.0,0.0,0.0,0.0,-0.013962634015954637
1666089082872114814,0.6503521735430695,0.0,0.0,0.0,0.0,-0.017976891295541593
1666089082920532371,0.6546167779597455,0.0,0.0,0.0,0.0,-0.023561944901923447
1666089082920572012,0.6631459867930972,0.0,0.0,0.0,0.0,-0.029845130209103034
1666089082931272793,0.6503521735430695,0.0,0.0,0.0,0.0,-0.02548180707911721
1666089082950393092,0.6610136845847593,0.0,0.0,0.0,0.0,-0.024609142453120045
1666089082992263946,0.6631459867930972,0.0,0.0,0.0,0.0,0.0013962634015954637
1666089082992301045,0.6567490801680833,0.0,0.0,0.0,0.0,0.013788101090755204
1666089083036181175,0.6610136845847593,0.0,0.0,0.0,0.0,0.0015707963267948967
1666089083036238114,0.665278289001435,0.0,0.0,0.0,0.0,-0.007504915783575617
1666089083080350485,0.671675195626449,0.0,0.0,0.0,0.0,-0.004537856055185257
1666089083080386091,0.665278289001435,0.0,0.0,0.0,0.0,-0.0012217304763960308
1666089083124171524,0.5714569918345661,0.0,0.0,0.0,0.0,-0.009948376736367677
1666089083124200073,0.5650600852095522,0.0,0.0,0.0,0.0,-0.0041887902047863905
1666089083168115651,0.47976799687603494,0.0,0.0,0.0,0.0,-0.016929693744344998
1666089083168128507,0.5160171344177797,0.0,0.0,0.0,0.0,-0.05969026041820607
1666089083212190391,0.5181494366261178,0.0,0.0,0.0,0.0,-0.1361356816555577
1666089083212218017,0.317713029042352,0.0,0.0,0.0,0.0,-0.21205750411731106
1666089083212273083,0.2793315892922692,0.0,0.0,0.0,0.0,-0.19879300180215415
1666089083260251702,0.17271647887537256,0.0,0.0,0.0,0.0,-0.210835773640915
1666089083260279436,0.2004364075837657,0.0,0.0,0.0,0.0,-0.26162485487395
1666089083269972885,0.28359619370894507,0.0,0.0,0.0,0.0,-0.28099800957108706
1666089083291801423,0.23242094070883468,0.0,0.0,0.0,0.0,-0.2790781473938933
1666089083332117105,0.10448280820855872,0.0,0.0,0.0,0.0,-0.2869321290278678
1666089083332131065,0.10235050600022079,0.0,0.0,0.0,0.0,-0.29740410453983374
1666089083380115080,0.16418727004202083,0.0,0.0,0.0,0.0,-0.28256880589788197
1666089083380153423,0.23668554512551054,0.0,0.0,0.0,0.0,-0.2982767691658309
1666089083428212723,0.2004364075837657,0.0,0.0,0.0,0.0,-0.2998475654926258
1666089083428232758,0.15139345679199323,0.0,0.0,0.0,0.0,-0.26406831582674206
1666089083476208263,0.13859964354196566,0.0,0.0,0.0,0.0,-0.22043508452688382
1666089083476234853,0.14286424795864153,0.0,0.0,0.0,0.0,-0.24504422698000386
1666089083476262511,0.1492611545836553,0.0,0.0,0.0,0.0,-0.3028146252210162
1666089083524203026,0.12367352808360012,0.0,0.0,0.0,0.0,-0.32009338481576
1666089083524215465,0.08955669275019319,0.0,0.0,0.0,0.0,-0.3021164935202184
1666089083530891915,0.08742439054185526,0.0,0.0,0.0,0.0,-0.2972295716146343
1666089083551050328,0.10021820379188286,0.0,0.0,0.0,0.0,-0.3583160954344358
1666089083592172328,0.11301201704191044,0.0,0.0,0.0,0.0,-0.4223696789826278
1666089083592191685,0.10021820379188286,0.0,0.0,0.0,0.0,-0.42149701435663056
1666089083636171136,0.08742439054185526,0.0,0.0,0.0,0.0,-0.4401720373529699
1666089083636195275,0.09808590158354492,0.0,0.0,0.0,0.0,-0.4529129408925285
1666089083680584120,0.10661511041689664,0.0,0.0,0.0,0.0,-0.4478514860617449
1666089083680651373,0.1108797148335725,0.0,0.0,0.0,0.0,-0.4457570909593517
1666089083728131195,0.12367352808360012,0.0,0.0,0.0,0.0,-0.43703044469938007
1666089083728146207,0.11727662145858632,0.0,0.0,0.0,0.0,-0.4501204140893376
1666089083772045560,0.12580583029193804,0.0,0.0,0.0,0.0,-0.4132939668722573
1666089083772055910,0.1407319457503036,0.0,0.0,0.0,0.0,-0.38903389026953605
1666089083772059614,0.1407319457503036,0.0,0.0,0.0,0.0,-0.364424747816416
1666089083816257883,0.13433503912528977,0.0,0.0,0.0,0.0,-0.300720230118623
1666089083816711579,0.12793813250027597,0.0,0.0,0.0,0.0,-0.26511551337793865
1666089083831525857,0.12367352808360012,0.0,0.0,0.0,0.0,-0.22444934180647075
1666089083851393868,0.13220273691695184,0.0,0.0,0.0,0.0,-0.21764255772369293
1666089083892550610,0.12580583029193804,0.0,0.0,0.0,0.0,-0.20001473227855018
1666089083892629471,0.11940892366692425,0.0,0.0,0.0,0.0,-0.15323990832510212
1666089083936079845,0.11727662145858632,0.0,0.0,0.0,0.0,-0.15079644737231007
1666089083936119730,0.1108797148335725,0.0,0.0,0.0,0.0,-0.18622663118779495
1666089083980084375,0.12154122587526218,0.0,0.0,0.0,0.0,-0.1989675347273536
1666089083980105352,0.12154122587526218,0.0,0.0,0.0,0.0,-0.19931660057775244
1666089084024906590,0.12154122587526218,0.0,0.0,0.0,0.0,-0.2076941809873252
1666089084024978337,0.11940892366692425,0.0,0.0,0.0,0.0,-0.23003439541285262
1666089084068095507,0.12154122587526218,0.0,0.0,0.0,0.0,-0.24574235868080158
1666089084068112303,0.12580583029193804,0.0,0.0,0.0,0.0,-0.25028021473598683
1666089084112229943,0.11940892366692425,0.0,0.0,0.0,0.0,-0.24155356847601522
1666089084112262575,0.11940892366692425,0.0,0.0,0.0,0.0,-0.2118829711921116
1666089084112275614,0.11940892366692425,0.0,0.0,0.0,0.0,-0.17558012275062956
1666089084160314799,0.12367352808360012,0.0,0.0,0.0,0.0,-0.14748032179352083
1666089084160365064,0.12154122587526218,0.0,0.0,0.0,0.0,-0.12304571226560024
1666089084170951103,0.12580583029193804,0.0,0.0,0.0,0.0,-0.09459684545809266
1666089084191768640,0.12154122587526218,0.0,0.0,0.0,0.0,-0.06667157742618339
1666089084232784015,0.12154122587526218,0.0,0.0,0.0,0.0,-0.06841690667817771
1666089084232824179,0.11514431925024839,0.0,0.0,0.0,0.0,-0.07400196028455958
1666089084276069745,0.11940892366692425,0.0,0.0,0.0,0.0,-0.062482787221396996
1666089084276084293,0.11301201704191044,0.0,0.0,0.0,0.0,-0.032812189937493394
1666089084320391232,0.11940892366692425,0.0,0.0,0.0,0.0,-0.044331363000655974
1666089084320428057,0.11727662145858632,0.0,0.0,0.0,0.0,-0.06021385919380437
1666089084364173833,0.12154122587526218,0.0,0.0,0.0,0.0,-0.035953782591083186
1666089084364194149,0.12367352808360012,0.0,0.0,0.0,0.0,-0.020071286397934786
1666089084408347846,0.11940892366692425,0.0,0.0,0.0,0.0,-0.03979350694547071
1666089084408361031,0.12367352808360012,0.0,0.0,0.0,0.0,-0.06684611035138281
1666089084456307649,0.12154122587526218,0.0,0.0,0.0,0.0,-0.062482787221396996
1666089084456340125,0.12154122587526218,0.0,0.0,0.0,0.0,-0.05096361415823442
1666089084456389764,0.11940892366692425,0.0,0.0,0.0,0.0,-0.0497418836818384
1666089084504240421,0.12154122587526218,0.0,0.0,0.0,0.0,-0.046949356878647465
1666089084504272445,0.11727662145858632,0.0,0.0,0.0,0.0,-0.038571776469074684
1666089084511197047,0.11940892366692425,0.0,0.0,0.0,0.0,-0.025132741228718346
1666089084530979119,0.12154122587526218,0.0,0.0,0.0,0.0,-0.019896753472735354
1666089084572555550,0.12367352808360012,0.0,0.0,0.0,0.0,-0.02129301687433082
1666089084572637057,0.12367352808360012,0.0,0.0,0.0,0.0,-0.008726646259971648
