%time,field.linear.x,field.linear.y,field.linear.z,field.angular.x,field.angular.y,field.angular.z
1666089075489341984,0.015,0.0,0.0,0.0,0.0,-0.04817756011986419
1666089075534041708,0.03,0.0,0.0,0.0,0.0,-0.09800342995786479
1666089075585016440,0.045,0.0,0.0,0.0,0.0,-0.14782929979586537
1666089075633784692,0.06,0.0,0.0,0.0,0.0,-0.1983311094386112
1666089075683801795,0.075,0.0,0.0,0.0,0.0,-0.24883291908135705
1666089075733995453,0.09,0.0,0.0,0.0,0.0,-0.30192628571858976
1666089075785752957,0.105,0.0,0.0,0.0,0.0,-0.35501965235582245
1666089075833838685,0.08933884046257172,0.0,0.0,0.0,0.0,-0.4550196523558224
1666089075884194829,0.07216383000687232,0.0,0.0,0.0,0.0,-0.5550196523558224
1666089075933766994,0.05498881955117292,0.0,0.0,0.0,0.0,-0.6550196523558224
1666089075984635951,0.03829137841837403,0.0,0.0,0.0,0.0,-0.7550196523558224
1666089076033718993,0.021593937285575144,0.0,0.0,0.0,0.0,-0.8550196523558223
1666089076084054018,0.004896496152776261,0.0,0.0,0.0,0.0,-0.9550196523558223
1666089076133702705,0.0,0.0,0.0,0.0,0.0,-0.9771462515257614
1666089076183978863,0.0,0.0,0.0,0.0,0.0,-0.9492362154263656
1666089076233856711,0.0,0.0,0.0,0.0,0.0,-0.939092021904002
1666089076288414855,0.0,0.0,0.0,0.0,0.0,-0.939092021904002
1666089076334231340,0.0,0.0,0.0,0.0,0.0,-0.939092021904002
1666089076383952347,0.0,0.0,0.0,0.0,0.0,-0.939092021904002
1666089076433731412,0.0,0.0,0.0,0.0,0.0,-0.9039862013627411
1666089076484148237,0.0,0.0,0.0,0.0,0.0,-0.8726646259971653
1666089076533964715,0.0,0.0,0.0,0.0,0.0,-0.8726646259971653
1666089076584492623,0.0,0.0,0.0,0.0,0.0,-0.7994252893716312
1666089076633685237,0.0,0.0,0.0,0.0,0.0,-0.7994252893716312
1666089076684921431,0.0,0.0,0.0,0.0,0.0,-0.7710180143510347
1666089076734793183,0.0,0.0,0.0,0.0,0.0,-0.7710180143510347
1666089076784287109,0.0,0.0,0.0,0.0,0.0,-0.7212764252069932
1666089076833791030,0.0,0.0,0.0,0.0,0.0,-0.7212764252069932
1666089076884417284,0.0,0.0,0.0,0.0,0.0,-0.6778493383297735
1666089076934103046,0.0,0.0,0.0,0.0,0.0,-0.6778493383297735
1666089076984632238,0.0,0.0,0.0,0.0,0.0,-0.6216738987364581
1666089077033779218,0.0,0.0,0.0,0.0,0.0,-0.6216738987364581
1666089077083741959,0.0,0.0,0.0,0.0,0.0,-0.5780745615437584
1666089077134070282,0.0,0.0,0.0,0.0,0.0,-0.48516397992176474
1666089077183928716,0.0,0.0,0.0,0.0,0.0,-0.48516397992176474
1666089077234274203,0.0,0.0,0.0,0.0,0.0,-0.4410755067124694
1666089077285246372,0.0,0.0,0.0,0.0,0.0,-0.4410755067124694
1666089077334477184,0.0,0.0,0.0,0.0,0.0,-0.3739444072837172
1666089077383890326,0.0,0.0,0.0,0.0,0.0,-0.3716109284981726
1666089077433964179,0.0,0.0,0.0,0.0,0.0,-0.3490658503988664
1666089077483747925,0.0,0.0,0.0,0.0,0.0,-0.3490658503988664
1666089077533787588,0.0,0.0,0.0,0.0,0.0,-0.31370458215294605
1666089077583929101,0.0,0.0,0.0,0.0,0.0,-0.31370458215294605
1666089077633764292,0.0,0.0,0.0,0.0,0.0,-0.29009770501197146
1666089077683787238,0.0,0.0,0.0,0.0,0.0,-0.27013120171304394
1666089077733769372,0.0,0.0,0.0,0.0,0.0,-0.27013120171304394
1666089077784411207,0.0,0.0,0.0,0.0,0.0,-0.25144594396039166
1666089077834071411,0.0,0.0,0.0,0.0,0.0,-0.25144594396039166
1666089077884343034,0.0,0.0,0.0,0.0,0.0,-0.24349801982435218
1666089077933701841,0.0,0.0,0.0,0.0,0.0,-0.24349801982435218
1666089077984835948,0.0,0.0,0.0,0.0,0.0,-0.24349801982435218
1666089078033747716,0.0,0.0,0.0,0.0,0.0,-0.2600348720741111
1666089078086226147,0.0,0.0,0.0,0.0,0.0,-0.27714988640555804
1666089078133885552,0.0,0.0,0.0,0.0,0.0,-0.27714988640555804
1666089078183882476,0.0,0.0,0.0,0.0,0.0,-0.3031810611586037
1666089078233826728,0.0,0.0,0.0,0.0,0.0,-0.3031810611586037
1666089078285113250,0.0,0.0,0.0,0.0,0.0,0.0
1666089078333785806,0.015,0.0,0.0,0.0,0.0,-0.004664367478130031
1666089078383976296,0.03,0.0,0.0,0.0,0.0,-0.009501959417190516
1666089078433859204,0.045,0.0,0.0,0.0,0.0,-0.014312056449584321
1666089078483827595,0.06,0.0,0.0,0.0,0.0,-0.019122153481978127
1666089078533767986,0.075,0.0,0.0,0.0,0.0,-0.024272022833327175
1666089078585421532,0.09,0.0,0.0,0.0,0.0,-0.02962987065601904
1666089078633749995,0.105,0.0,0.0,0.0,0.0,-0.03499181792611662
1666089078684195664,0.12,0.0,0.0,0.0,0.0,-0.040353765196214204
1666089078733941126,0.135,0.0,0.0,0.0,0.0,-0.046015113521878
1666089078784469817,0.15000000000000002,0.0,0.0,0.0,0.0,-0.0516764618475418
1666089078833743176,0.16500000000000004,0.0,0.0,0.0,0.0,-0.057900080598727505
1666089078887417976,0.18000000000000005,0.0,0.0,0.0,0.0,-0.06431226420651454
1666089078933778546,0.19500000000000006,0.0,0.0,0.0,0.0,-0.07072444781430155
1666089078984201670,0.21000000000000008,0.0,0.0,0.0,0.0,-0.07300069878644119
1666089079034407710,0.2250000000000001,0.0,0.0,0.0,0.0,-0.0753041563772188
1666089079084563888,0.2400000000000001,0.0,0.0,0.0,0.0,-0.0826831784232834
1666089079133918985,0.2550000000000001,0.0,0.0,0.0,0.0,-0.09020387402506014
1666089079183979416,0.27000000000000013,0.0,0.0,0.0,0.0,-0.09772456962683687
1666089079233912647,0.28500000000000014,0.0,0.0,0.0,0.0,-0.10584976010285356
1666089079283900979,0.30000000000000016,0.0,0.0,0.0,0.0,-0.11413540888501902
1666089079340055504,0.31500000000000017,0.0,0.0,0.0,0.0,-0.12258096359171405
1666089079384088732,0.3300000000000002,0.0,0.0,0.0,0.0,-0.13102651829840908
1666089079434053053,0.3450000000000002,0.0,0.0,0.0,0.0,-0.1370354655287949
1666089079483926595,0.3600000000000002,0.0,0.0,0.0,0.0,-0.1430444127591807
1666089079533788437,0.3750000000000002,0.0,0.0,0.0,0.0,-0.1526278554101029
1666089079585655086,0.39000000000000024,0.0,0.0,0.0,0.0,-0.16275077381987788
1666089079633883149,0.40500000000000025,0.0,0.0,0.0,0.0,-0.17287369222965285
1666089079684341100,0.42000000000000026,0.0,0.0,0.0,0.0,-0.18362860740616335
1666089079733912619,0.4350000000000003,0.0,0.0,0.0,0.0,-0.19438352258267388
1666089079785556666,0.4500000000000003,0.0,0.0,0.0,0.0,-0.20596019232884732
1666089079834071235,0.4650000000000003,0.0,0.0,0.0,0.0,-0.21808661367648466
1666089079884061510,0.4800000000000003,0.0,0.0,0.0,0.0,-0.23607988455985637
1666089079933882322,0.49500000000000033,0.0,0.0,0.0,0.0,-0.2491886169549104
1666089079984844202,0.5100000000000003,0.0,0.0,0.0,0.0,-0.2635541497525907
1666089080033785338,0.5250000000000004,0.0,0.0,0.0,0.0,-0.27791968255027105
1666089080083980986,0.5400000000000004,0.0,0.0,0.0,0.0,-0.2940428233728014
1666089080133724138,0.5550000000000004,0.0,0.0,0.0,0.0,-0.3133147270700135
1666089080184811184,0.5700000000000004,0.0,0.0,0.0,0.0,-0.3374194132597649
1666089080233787478,0.5850000000000004,0.0,0.0,0.0,0.0,-0.3615240994495162
1666089080284740771,0.5084158182144165,0.0,0.0,0.0,0.0,-0.3721446692943573
1666089080333991048,0.5084158182144165,0.0,0.0,0.0,0.0,-0.3721446692943573
1666089080384410932,0.5076982378959656,0.0,0.0,0.0,0.0,-0.3924144506454468
1666089080433723140,0.5076982378959656,0.0,0.0,0.0,0.0,-0.3924144506454468
1666089080484493643,0.5226982378959656,0.0,0.0,0.0,0.0,-0.40220152792361774
1666089080534079823,0.5376982378959656,0.0,0.0,0.0,0.0,-0.48283639580014726
1666089080583817946,0.5526982378959656,0.0,0.0,0.0,0.0,-0.5634712636766768
1666089080633816158,0.563616684084271,0.0,0.0,0.0,0.0,-0.6634712636766767
1666089080684071850,0.5745351302725764,0.0,0.0,0.0,0.0,-0.7634712636766767
1666089080734860530,0.5777120654717414,0.0,0.0,0.0,0.0,-0.8634712636766767
1666089080784529378,0.5808890006709063,0.0,0.0,0.0,0.0,-0.9634712636766767
1666089080834057667,0.5840659358700713,0.0,0.0,0.0,0.0,-1.0634712636766768
1666089080884153250,0.5851911736224222,0.0,0.0,0.0,0.0,-1.1634712636766769
1666089080934224959,0.5854120656849783,0.0,0.0,0.0,0.0,-1.263471263676677
1666089080984222183,0.5873770999419977,0.0,0.0,0.0,0.0,-1.363471263676677
1666089081034591511,0.5954875990432373,0.0,0.0,0.0,0.0,-1.4634712636766771
1666089081083969865,0.603598098144477,0.0,0.0,0.0,0.0,-1.5634712636766772
1666089081133658548,0.6041921973228455,0.0,0.0,0.0,0.0,-1.5707963267948972
1666089081184069059,0.6191921973228455,0.0,0.0,0.0,0.0,-1.5707963267948972
1666089081235557564,0.6265239119529724,0.0,0.0,0.0,0.0,-1.5707963267948972
1666089081284045541,0.5543304681777954,0.0,0.0,0.0,0.0,-1.3962634015954642
1666089081334169982,0.5693304681777954,0.0,0.0,0.0,0.0,-1.3962634015954642
1666089081384229651,0.5843304681777954,0.0,0.0,0.0,0.0,-1.3962634015954642
1666089081433707176,0.5993304681777955,0.0,0.0,0.0,0.0,-1.3962634015954642
1666089081483903763,0.6143304681777955,0.0,0.0,0.0,0.0,-1.344193307742005
1666089081533726355,0.6293304681777955,0.0,0.0,0.0,0.0,-1.2921232138885457
1666089081584198712,0.6443304681777955,0.0,0.0,0.0,0.0,-1.2400531200350862
1666089081633960453,0.6593304681777955,0.0,0.0,0.0,0.0,-1.2574721949751486
1666089081683838532,0.6743304681777955,0.0,0.0,0.0,0.0,-1.2536609519025237
1666089081733984060,0.6893304681777955,0.0,0.0,0.0,0.0,-1.2498497088298988
1666089081784554712,0.7043304681777955,0.0,0.0,0.0,0.0,-1.2460384657572738
1666089081833837320,0.7193304681777956,0.0,0.0,0.0,0.0,-1.242227222684649
1666089081884018812,0.7343304681777956,0.0,0.0,0.0,0.0,-1.238415979612024
1666089081938959180,0.7493304681777956,0.0,0.0,0.0,0.0,-1.2346047365393993
1666089081984203000,0.7643304681777956,0.0,0.0,0.0,0.0,-1.2307934934667744
1666089082033871771,0.7793304681777956,0.0,0.0,0.0,0.0,-1.153586448872533
1666089082084704438,0.7943304681777956,0.0,0.0,0.0,0.0,-1.0763794042782915
1666089082134058556,0.7999999999999999,0.0,0.0,0.0,0.0,-1.0471975511965983
1666089082184051738,0.7999999999999999,0.0,0.0,0.0,0.0,-1.0471975511965983
1666089082233815926,0.7999999999999999,0.0,0.0,0.0,0.0,-0.8726646259971653
1666089082284165862,0.7999999999999999,0.0,0.0,0.0,0.0,-0.8726646259971653
1666089082334423114,0.7999999999999999,0.0,0.0,0.0,0.0,-0.6981317007977323
1666089082384339062,0.7999999999999999,0.0,0.0,0.0,0.0,-0.6981317007977323
1666089082433934034,0.7999999999999999,0.0,0.0,0.0,0.0,-0.6981317007977323
1666089082483956977,0.7999999999999999,0.0,0.0,0.0,0.0,-0.6981317007977323
1666089082534230788,0.7999999999999999,0.0,0.0,0.0,0.0,-0.6981317007977323
1666089082583755437,0.7999999999999999,0.0,0.0,0.0,0.0,-0.6981317007977323
1666089082636664168,0.7999999999999999,0.0,0.0,0.0,0.0,-0.6981317007977323
1666089082683898237,0.7999999999999999,0.0,0.0,0.0,0.0,-0.5235987755982994
1666089082734032430,0.7999999999999999,0.0,0.0,0.0,0.0,-0.5235987755982994
1666089082783932629,0.7999999999999999,0.0,0.0,0.0,0.0,-0.5235987755982994
1666089082834241931,0.7999999999999999,0.0,0.0,0.0,0.0,-0.5235987755982994
1666089082883767420,0.7999999999999999,0.0,0.0,0.0,0.0,-0.5235987755982994
1666089082933713447,0.7999999999999999,0.0,0.0,0.0,0.0,-0.5235987755982994
1666089082983870116,0.7999999999999999,0.0,0.0,0.0,0.0,-0.5235987755982994
1666089083034124759,0.6499999999999999,0.0,0.0,0.0,0.0,-0.5235987755982994
1666089083083791060,0.4999999999999999,0.0,0.0,0.0,0.0,-0.5235987755982994
1666089083133741768,0.34999999999999987,0.0,0.0,0.0,0.0,-0.5235987755982994
1666089083183699782,0.19999999999999984,0.0,0.0,0.0,0.0,-0.5235987755982994
1666089083233833151,0.1,0.0,0.0,0.0,0.0,-0.5235987755982994
1666089083283834427,0.1,0.0,0.0,0.0,0.0,-0.5235987755982994
1666089083337914179,0.1,0.0,0.0,0.0,0.0,-0.5235987755982994
1666089083383891970,0.1,0.0,0.0,0.0,0.0,-0.5235987755982994
1666089083433758522,0.1,0.0,0.0,0.0,0.0,-0.5235987755982994
1666089083484224322,0.1,0.0,0.0,0.0,0.0,-0.5235987755982994
1666089083533716969,0.1,0.0,0.0,0.0,0.0,-0.5235987755982994
1666089083584241191,0.1,0.0,0.0,0.0,0.0,-0.5235987755982994
1666089083634203148,0.1,0.0,0.0,0.0,0.0,-0.5235987755982994
1666089083684433392,0.1,0.0,0.0,0.0,0.0,-0.3490658503988664
1666089083733715231,0.1,0.0,0.0,0.0,0.0,-0.3490658503988664
1666089083784456969,0.1,0.0,0.0,0.0,0.0,-0.3490658503988664
1666089083834176725,0.1,0.0,0.0,0.0,0.0,-0.3490658503988664
1666089083884270439,0.1,0.0,0.0,0.0,0.0,-0.3490658503988664
1666089083933890383,0.1,0.0,0.0,0.0,0.0,-0.3490658503988664
1666089083983924919,0.1,0.0,0.0,0.0,0.0,-0.17907589673995972
1666089084034034873,0.1,0.0,0.0,0.0,0.0,-0.17907589673995972
1666089084084280781,0.1,0.0,0.0,0.0,0.0,-0.17907589673995972
1666089084134615942,0.1,0.0,0.0,0.0,0.0,-0.17453292519943345
1666089084183974096,0.1,0.0,0.0,0.0,0.0,-0.17453292519943345
1666089084233816185,0.1,0.0,0.0,0.0,0.0,-0.17453292519943345
1666089084283925856,0.1,0.0,0.0,0.0,0.0,-0.17453292519943345
1666089084334208312,0.1,0.0,0.0,0.0,0.0,-0.1019645556807518
1666089084384183608,0.1,0.0,0.0,0.0,0.0,-0.1019645556807518
1666089084435096653,0.1,0.0,0.0,0.0,0.0,-0.07740487903356552
1666089084484065286,0.1,0.0,0.0,0.0,0.0,-0.07740487903356552
1666089084533761904,0.1,0.0,0.0,0.0,0.0,-0.05563969165086746
1666089084584281947,0.1,0.0,0.0,0.0,0.0,-4.996003610813204e-16
1666089084634026742,0.1,0.0,0.0,0.0,0.0,-4.996003610813204e-16
1666089084684148111,0.1,0.0,0.0,0.0,0.0,-4.996003610813204e-16
1666089084734627005,0.1,0.0,0.0,0.0,0.0,-4.996003610813204e-16
1666089084783916615,0.1,0.0,0.0,0.0,0.0,-4.996003610813204e-16
1666089084834096343,0.1,0.0,0.0,0.0,0.0,0.0841510146856308
1666089084883857812,0.1,0.0,0.0,0.0,0.0,0.09880339354276657
1666089084933701399,0.1,0.0,0.0,0.0,0.0,0.042627811431884766
1666089084984146980,0.1,0.0,0.0,0.0,0.0,0.042627811431884766
1666089085034550534,0.1,0.0,0.0,0.0,0.0,0.05469609051942825
1666089085083834489,0.1,0.0,0.0,0.0,0.0,-0.04530390948057175
1666089085134559848,0.1,0.0,0.0,0.0,0.0,-0.14530390948057176
1666089085188775802,0.1,0.0,0.0,0.0,0.0,-0.24530390948057176
1666089085233935480,0.1,0.0,0.0,0.0,0.0,-0.34530390948057177
1666089085283835919,0.1,0.0,0.0,0.0,0.0,-0.44530390948057175
1666089085333899137,0.1,0.0,0.0,0.0,0.0,-0.5453039094805717
1666089085383883998,0.1,0.0,0.0,0.0,0.0,-0.6453039094805717
1666089085433798939,0.1,0.0,0.0,0.0,0.0,-0.7453039094805717
1666089085488271243,0.1,0.0,0.0,0.0,0.0,-0.8453039094805717
1666089085533717458,0.1,0.0,0.0,0.0,0.0,-0.9453039094805716
1666089085584480399,0.0,0.0,0.0,0.0,0.0,0.0
1666089085634428146,0.0,0.0,0.0,0.0,0.0,0.0
1666089085684067073,0.0,0.0,0.0,0.0,0.0,0.1
1666089085734099575,0.0,0.0,0.0,0.0,0.0,0.2
1666089085784154533,0.0,0.0,0.0,0.0,0.0,0.22796112063870458
1666089085837187763,0.0,0.0,0.0,0.0,0.0,0.26750003650151816
1666089085885395903,0.0,0.0,0.0,0.0,0.0,0.26750003650151816
1666089085934244957,0.0,0.0,0.0,0.0,0.0,0.29670710552861407
1666089085986305369,0.0,0.0,0.0,0.0,0.0,0.31886503945378797
1666089086033863432,0.0,0.0,0.0,0.0,0.0,0.31886503945378797
1666089086084196403,0.0,0.0,0.0,0.0,0.0,0.3375295704009851
1666089086137298700,0.0,0.0,0.0,0.0,0.0,0.3375295704009851
1666089086183945672,0.0,0.0,0.0,0.0,0.0,0.36319278050700693
1666089086233742765,0.0,0.0,0.0,0.0,0.0,0.36319278050700693
1666089086283831125,0.0,0.0,0.0,0.0,0.0,0.3867685643740203
1666089086333918020,0.0,0.0,0.0,0.0,0.0,0.3867685643740203
1666089086383875122,0.0,0.0,0.0,0.0,0.0,0.40324818726952577
1666089086433999044,0.0,0.0,0.0,0.0,0.0,0.4041860987987143
1666089086484006133,0.0,0.0,0.0,0.0,0.0,0.4041860987987143
1666089086533983033,0.0,0.0,0.0,0.0,0.0,0.4203193434480674
1666089086583777930,0.0,0.0,0.0,0.0,0.0,0.42078594116250106
1666089086633885892,0.0,0.0,0.0,0.0,0.0,0.42078594116250106
1666089086684166874,0.0,0.0,0.0,0.0,0.0,0.4282466548787015
1666089086733803132,0.0,0.0,0.0,0.0,0.0,0.4282466548787015
1666089086783973483,0.0,0.0,0.0,0.0,0.0,0.4365602503395502
1666089086833732784,0.0,0.0,0.0,0.0,0.0,0.4365602503395502
1666089086884613133,0.0,0.0,0.0,0.0,0.0,0.4378087668860583
1666089086934310301,0.0,0.0,0.0,0.0,0.0,0.4378087668860583
1666089086983787836,0.0,0.0,0.0,0.0,0.0,0.44255539790351917
1666089087034244010,0.0,0.0,0.0,0.0,0.0,0.43195000669005323
1666089087083758242,0.0,0.0,0.0,0.0,0.0,0.43084474029372927
1666089087134173537,0.0,0.0,0.0,0.0,0.0,0.43084474029372927
1666089087183847619,0.0,0.0,0.0,0.0,0.0,0.43647148942791314
1666089087233917922,0.0,0.0,0.0,0.0,0.0,0.4317201804572862
1666089087284079155,0.0,0.0,0.0,0.0,0.0,0.43431427137938483
1666089087333898105,0.0,0.0,0.0,0.0,0.0,0.43431427137938483
1666089087383824979,0.0,0.0,0.0,0.0,0.0,0.4354196264970865
1666089087433914291,0.0,0.0,0.0,0.0,0.0,0.4354196264970865
1666089087483886127,0.0,0.0,0.0,0.0,0.0,0.4347916006464374
1666089087533752297,0.0,0.0,0.0,0.0,0.0,0.4347916006464374
1666089087584212257,0.0,0.0,0.0,0.0,0.0,0.42034953951811727
1666089087634268265,0.0,0.0,0.0,0.0,0.0,0.42034953951811727
1666089087684152912,0.0,0.0,0.0,0.0,0.0,0.42586560548955116
1666089087735871641,0.0,0.0,0.0,0.0,0.0,0.41610746879101856
1666089087783833914,0.0,0.0,0.0,0.0,0.0,0.41610746879101856
1666089087834005164,0.0,0.0,0.0,0.0,0.0,0.41803987193053926
1666089087883816647,0.0,0.0,0.0,0.0,0.0,0.41538725190319153
1666089087934373508,0.0,0.0,0.0,0.0,0.0,0.41538725190319153
1666089087984403118,0.0,0.0,0.0,0.0,0.0,0.41119827938463277
1666089088034129040,0.0,0.0,0.0,0.0,0.0,0.4032684188285079
1666089088084301790,0.0,0.0,0.0,0.0,0.0,0.4032684188285079
1666089088134205463,0.0,0.0,0.0,0.0,0.0,0.40433116478741477
1666089088183969463,0.0,0.0,0.0,0.0,0.0,0.398383462436137
1666089088233954646,0.0,0.0,0.0,0.0,0.0,0.398383462436137
1666089088284382859,0.0,0.0,0.0,0.0,0.0,0.38701495435544025
1666089088333864850,0.0,0.0,0.0,0.0,0.0,0.37645180967367536
1666089088383855800,0.0,0.0,0.0,0.0,0.0,0.37645180967367536
1666089088434461411,0.0,0.0,0.0,0.0,0.0,0.3757818760264613
1666089088483805973,0.0,0.0,0.0,0.0,0.0,0.3757818760264613
1666089088534375479,0.0,0.0,0.0,0.0,0.0,0.3556617325603733
1666089088584588391,0.0,0.0,0.0,0.0,0.0,0.3556617325603733
1666089088634331136,0.0,0.0,0.0,0.0,0.0,0.35965534616658096
1666089088684018939,0.0,0.0,0.0,0.0,0.0,0.3543178011262694
1666089088734220232,0.0,0.0,0.0,0.0,0.0,0.3543178011262694
1666089088783948041,0.0,0.0,0.0,0.0,0.0,0.35048350848447707
1666089088833825614,0.0,0.0,0.0,0.0,0.0,0.35048350848447707
1666089088883906417,0.0,0.0,0.0,0.0,0.0,0.34604136741823227
1666089088933862749,0.0,0.0,0.0,0.0,0.0,0.33706625802122087
1666089088984017756,0.0,0.0,0.0,0.0,0.0,0.33698292052688045
1666089089033992951,0.0,0.0,0.0,0.0,0.0,0.32660380481327667
1666089089083841372,0.0,0.0,0.0,0.0,0.0,0.32660380481327667
1666089089134008174,0.0,0.0,0.0,0.0,0.0,0.32660380481327667
1666089089183907936,0.0,0.0,0.0,0.0,0.0,0.332841901566181
1666089089233748737,0.0,0.0,0.0,0.0,0.0,0.332841901566181
1666089089283874157,0.0,0.0,0.0,0.0,0.0,0.32169556306804925
1666089089334311157,0.0,0.0,0.0,0.0,0.0,0.3145450377581308
1666089089383882293,0.0,0.0,0.0,0.0,0.0,0.3145450377581308
1666089089433720231,0.0,0.0,0.0,0.0,0.0,0.3145450377581308
1666089089483820465,0.0,0.0,0.0,0.0,0.0,0.3081319139148763
1666089089534261327,0.0,0.0,0.0,0.0,0.0,0.2959934324816091
1666089089584344211,0.0,0.0,0.0,0.0,0.0,0.2910763778466565
1666089089633893531,0.0,0.0,0.0,0.0,0.0,0.2880676209457661
1666089089683821643,0.0,0.0,0.0,0.0,0.0,0.2880676209457661
1666089089733956298,0.0,0.0,0.0,0.0,0.0,0.2880676209457661
1666089089783751769,0.0,0.0,0.0,0.0,0.0,0.259190707100914
1666089089833760448,0.0,0.0,0.0,0.0,0.0,0.259190707100914
1666089089884173481,0.0,0.0,0.0,0.0,0.0,0.24948041924935654
1666089089933763453,0.0,0.0,0.0,0.0,0.0,0.24948041924935654
1666089089983828130,0.0,0.0,0.0,0.0,0.0,0.24948041924935654
1666089090033756442,0.0,0.0,0.0,0.0,0.0,0.24676759832717432
1666089090083812996,0.0,0.0,0.0,0.0,0.0,0.24676759832717432
1666089090134062733,0.0,0.0,0.0,0.0,0.0,0.2336093122365736
1666089090183927205,0.0,0.0,0.0,0.0,0.0,0.2197248299246096
1666089090233817871,0.0,0.0,0.0,0.0,0.0,0.0
1666089090283765090,0.0,0.0,0.0,0.0,0.0,0.0
1666089090333810050,0.0,0.0,0.0,0.0,0.0,0.0
1666089090384286845,0.0,0.0,0.0,0.0,0.0,0.0
1666089090433965201,0.0,0.0,0.0,0.0,0.0,0.0
1666089090484123012,0.0,0.0,0.0,0.0,0.0,0.0
1666089090533993033,0.0,0.0,0.0,0.0,0.0,0.0
1666089090583809794,0.0,0.0,0.0,0.0,0.0,0.0
1666089090633707478,0.0,0.0,0.0,0.0,0.0,0.0
1666089090684281444,0.0,0.0,0.0,0.0,0.0,0.0
1666089090733901168,0.0,0.0,0.0,0.0,0.0,0.0
1666089090784038206,0.0,0.0,0.0,0.0,0.0,0.0
1666089090833806379,0.0,0.0,0.0,0.0,0.0,0.0
1666089090884200928,0.0,0.0,0.0,0.0,0.0,0.0
1666089090934962548,0.0,0.0,0.0,0.0,0.0,0.0
1666089090984103839,0.0,0.0,0.0,0.0,0.0,0.0
1666089091033743743,0.0,0.0,0.0,0.0,0.0,0.0
1666089091084204224,0.0,0.0,0.0,0.0,0.0,0.0
1666089091133815164,0.0,0.0,0.0,0.0,0.0,0.0
1666089091183967467,0.0,0.0,0.0,0.0,0.0,0.0
1666089091234325994,0.0,0.0,0.0,0.0,0.0,0.0
1666089091284209672,0.0,0.0,0.0,0.0,0.0,0.0
1666089091334152532,0.0,0.0,0.0,0.0,0.0,0.0
1666089091383802781,0.0,0.0,0.0,0.0,0.0,0.0
1666089091433716450,0.0,0.0,0.0,0.0,0.0,0.0
1666089091483689387,0.0,0.0,0.0,0.0,0.0,0.0
1666089091534631798,0.0,0.0,0.0,0.0,0.0,0.0
1666089091583701250,0.0,0.0,0.0,0.0,0.0,0.0
1666089091636989979,0.0,0.0,0.0,0.0,0.0,0.0
1666089091684239293,0.0,0.0,0.0,0.0,0.0,0.0
1666089091736199078,0.0,0.0,0.0,0.0,0.0,0.0
1666089091784278152,0.0,0.0,0.0,0.0,0.0,0.0
1666089091834160862,0.0,0.0,0.0,0.0,0.0,0.0
1666089091883935434,0.0,0.0,0.0,0.0,0.0,0.0
1666089091933831902,0.0,0.0,0.0,0.0,0.0,0.0
1666089091983975474,0.0,0.0,0.0,0.0,0.0,0.1
1666089092034064655,0.0,0.0,0.0,0.0,0.0,0.2
1666089092083929692,0.0,0.0,0.0,0.0,0.0,0.21587926572120955
1666089092134260334,0.0,0.0,0.0,0.0,0.0,0.21587926572120955
1666089092186733835,0.0,0.0,0.0,0.0,0.0,0.2167313297619693
1666089092233695585,0.0,0.0,0.0,0.0,0.0,0.2168841315094419
1666089092283726675,0.0,0.0,0.0,0.0,0.0,0.2130171303664847
1666089092333934844,0.0,0.0,0.0,0.0,0.0,0.2130171303664847
1666089092384272646,0.0,0.0,0.0,0.0,0.0,0.2130171303664847
1666089092433858499,0.0,0.0,0.0,0.0,0.0,0.0
1666089092483879318,0.0,0.0,0.0,0.0,0.0,0.1
1666089092533785921,0.0,0.0,0.0,0.0,0.0,0.2
1666089092584306544,0.0,0.0,0.0,0.0,0.0,0.2165315147366935
1666089092633806902,0.0,0.0,0.0,0.0,0.0,0.2165315147366935
1666089092684318321,0.0,0.0,0.0,0.0,0.0,0.0
1666089092733786461,0.0,0.0,0.0,0.0,0.0,0.0
1666089092783821672,0.0,0.0,0.0,0.0,0.0,0.0
1666089092834480344,0.0,0.0,0.0,0.0,0.0,0.0
1666089092883867201,0.0,0.0,0.0,0.0,0.0,0.0
1666089092933816599,0.0,0.0,0.0,0.0,0.0,0.0
1666089092983865749,0.0,0.0,0.0,0.0,0.0,0.0
1666089093034204034,0.0,0.0,0.0,0.0,0.0,0.0
1666089093083972335,0.0,0.0,0.0,0.0,0.0,0.0
1666089093133759961,0.0,0.0,0.0,0.0,0.0,0.0
1666089093183834169,0.0,0.0,0.0,0.0,0.0,0.0
1666089093233869019,0.0,0.0,0.0,0.0,0.0,0.0
1666089093283835781,0.0,0.0,0.0,0.0,0.0,0.0
1666089093334542264,0.0,0.0,0.0,0.0,0.0,0.0
1666089093383784223,0.0,0.0,0.0,0.0,0.0,0.0
1666089093433880781,0.0,0.0,0.0,0.0,0.0,0.0
1666089093483723408,0.0,0.0,0.0,0.0,0.0,0.0
1666089093534006982,0.0,0.0,0.0,0.0,0.0,0.0
1666089093583821318,0.0,0.0,0.0,0.0,0.0,0.0
1666089093634488438,0.0,0.0,0.0,0.0,0.0,0.0
1666089093683749479,0.0,0.0,0.0,0.0,0.0,0.0
1666089093734794075,0.0,0.0,0.0,0.0,0.0,0.0
1666089093784966149,0.0,0.0,0.0,0.0,0.0,0.0
1666089093833864773,0.0,0.0,0.0,0.0,0.0,0.0
1666089093883918120,0.0,0.0,0.0,0.0,0.0,0.0
1666089093934070412,0.0,0.0,0.0,0.0,0.0,0.0
1666089093984438676,0.0,0.0,0.0,0.0,0.0,0.0
1666089094033760976,0.0,0.0,0.0,0.0,0.0,0.0
1666089094083820013,0.0,0.0,0.0,0.0,0.0,0.0
1666089094133986429,0.0,0.0,0.0,0.0,0.0,0.0
1666089094184782497,0.0,0.0,0.0,0.0,0.0,0.0
1666089094233745168,0.0,0.0,0.0,0.0,0.0,0.0
1666089094283796039,0.0,0.0,0.0,0.0,0.0,0.0
1666089094333989441,0.0,0.0,0.0,0.0,0.0,0.0
1666089094384007320,0.0,0.0,0.0,0.0,0.0,0.0
1666089094433802826,0.0,0.0,0.0,0.0,0.0,0.0
1666089094483958582,0.0,0.0,0.0,0.0,0.0,0.0
1666089094534089248,0.0,0.0,0.0,0.0,0.0,0.0
1666089094583787863,0.0,0.0,0.0,0.0,0.0,0.0
1666089094633776132,0.0,0.0,0.0,0.0,0.0,0.0
1666089094683842460,0.0,0.0,0.0,0.0,0.0,0.0
1666089094733868781,0.0,0.0,0.0,0.0,0.0,0.0
1666089094783706315,0.0,0.0,0.0,0.0,0.0,0.0
1666089094834182445,0.0,0.0,0.0,0.0,0.0,0.0
1666089094884245945,0.0,0.0,0.0,0.0,0.0,0.0
1666089094933928409,0.0,0.0,0.0,0.0,0.0,0.0
1666089094983878041,0.0,0.0,0.0,0.0,0.0,0.0
1666089095033767657,0.0,0.0,0.0,0.0,0.0,0.0
1666089095083735635,0.0,0.0,0.0,0.0,0.0,0.0
1666089095137418149,0.0,0.0,0.0,0.0,0.0,0.0
1666089095183955855,0.0,0.0,0.0,0.0,0.0,0.0
1666089095233870852,0.0,0.0,0.0,0.0,0.0,0.0
1666089095283843435,0.0,0.0,0.0,0.0,0.0,0.0
1666089095333872798,0.0,0.0,0.0,0.0,0.0,0.0
1666089095384503082,0.0,0.0,0.0,0.0,0.0,0.0
1666089095433920586,0.0,0.0,0.0,0.0,0.0,0.0
1666089095483824284,0.0,0.0,0.0,0.0,0.0,0.0
1666089095533789282,0.0,0.0,0.0,0.0,0.0,0.0
1666089095584171047,0.0,0.0,0.0,0.0,0.0,0.0
1666089095637269883,0.0,0.0,0.0,0.0,0.0,0.0
1666089095683965195,0.0,0.0,0.0,0.0,0.0,0.0
1666089095734336764,0.0,0.0,0.0,0.0,0.0,0.0
1666089095784049155,0.0,0.0,0.0,0.0,0.0,0.0
1666089095833948918,0.0,0.0,0.0,0.0,0.0,0.0
1666089095883743599,0.0,0.0,0.0,0.0,0.0,0.0
1666089095934262564,0.0,0.0,0.0,0.0,0.0,0.0
1666089095983874638,0.0,0.0,0.0,0.0,0.0,0.0
1666089096033951978,0.0,0.0,0.0,0.0,0.0,0.0
1666089096084456561,0.0,0.0,0.0,0.0,0.0,0.0
1666089096134136248,0.0,0.0,0.0,0.0,0.0,0.0
1666089096184032043,0.0,0.0,0.0,0.0,0.0,0.0
1666089096234244441,0.0,0.0,0.0,0.0,0.0,0.0
1666089096283973354,0.0,0.0,0.0,0.0,0.0,0.0
1666089096333789004,0.0,0.0,0.0,0.0,0.0,0.0
1666089096383866286,0.0,0.0,0.0,0.0,0.0,0.0
1666089096434062721,0.0,0.0,0.0,0.0,0.0,0.0
1666089096484458220,0.0,0.0,0.0,0.0,0.0,0.0
1666089096533925979,0.0,0.0,0.0,0.0,0.0,0.0
1666089096583931758,0.0,0.0,0.0,0.0,0.0,0.0
1666089096633845786,0.0,0.0,0.0,0.0,0.0,0.0
1666089096684315358,0.0,0.0,0.0,0.0,0.0,0.0
1666089096735089481,0.0,0.0,0.0,0.0,0.0,0.0
1666089096783710573,0.0,0.0,0.0,0.0,0.0,0.1
1666089096833794139,0.0,0.0,0.0,0.0,0.0,0.2
1666089096884556583,0.0,0.0,0.0,0.0,0.0,0.21954815417854986
1666089096933921716,0.0,0.0,0.0,0.0,0.0,0.2284283445410249
1666089096984323295,0.0,0.0,0.0,0.0,0.0,0.23078310564185828
1666089097034044347,0.0,0.0,0.0,0.0,0.0,0.23078310564185828
1666089097083723332,0.0,0.0,0.0,0.0,0.0,0.2324497548979723
1666089097135368756,0.0,0.0,0.0,0.0,0.0,0.22865052439717456
1666089097183727487,0.0,0.0,0.0,0.0,0.0,0.22885231760381794
1666089097234755724,0.0,0.0,0.0,0.0,0.0,0.23129699619972519
1666089097283791741,0.0,0.0,0.0,0.0,0.0,0.23129699619972519
1666089097334145080,0.0,0.0,0.0,0.0,0.0,0.23129699619972519
1666089097383860796,0.0,0.0,0.0,0.0,0.0,0.2325941890095364
1666089097442333617,0.0,0.0,0.0,0.0,0.0,0.2325941890095364
1666089097483866770,0.0,0.0,0.0,0.0,0.0,0.2151971367485168
1666089097534020014,0.0,0.0,0.0,0.0,0.0,0.2151971367485168
1666089097584297031,0.0,0.0,0.0,0.0,0.0,0.0
1666089097633879486,0.0,0.0,0.0,0.0,0.0,0.0
1666089097684203629,0.0,0.0,0.0,0.0,0.0,0.0
1666089097737160684,0.0,0.0,0.0,0.0,0.0,0.0
1666089097783801696,0.0,0.0,0.0,0.0,0.0,0.0
1666089097834426307,0.0,0.0,0.0,0.0,0.0,0.0
1666089097883819362,0.0,0.0,0.0,0.0,0.0,0.0
1666089097933969795,0.0,0.0,0.0,0.0,0.0,0.0
1666089097983801882,0.0,0.0,0.0,0.0,0.0,0.0
1666089098034454217,0.0,0.0,0.0,0.0,0.0,0.0
1666089098083829163,0.0,0.0,0.0,0.0,0.0,0.0
1666089098134174786,0.0,0.0,0.0,0.0,0.0,0.0
1666089098183768841,0.0,0.0,0.0,0.0,0.0,0.0
1666089098233747827,0.0,0.0,0.0,0.0,0.0,0.0
1666089098283796941,0.0,0.0,0.0,0.0,0.0,0.0
1666089098333752180,0.0,0.0,0.0,0.0,0.0,0.0
1666089098383785385,0.0,0.0,0.0,0.0,0.0,0.0
1666089098433842191,0.0,0.0,0.0,0.0,0.0,0.0
1666089098483932158,0.0,0.0,0.0,0.0,0.0,0.0
1666089098533918662,0.0,0.0,0.0,0.0,0.0,0.0
1666089098583803998,0.0,0.0,0.0,0.0,0.0,0.0
1666089098633907290,0.0,0.0,0.0,0.0,0.0,0.0
1666089098684354422,0.0,0.0,0.0,0.0,0.0,0.0
1666089098736068116,0.0,0.0,0.0,0.0,0.0,0.0
1666089098783846934,0.0,0.0,0.0,0.0,0.0,0.0
1666089098835527588,0.0,0.0,0.0,0.0,0.0,0.0
1666089098883911695,0.0,0.0,0.0,0.0,0.0,0.0
1666089098933900603,0.0,0.0,0.0,0.0,0.0,0.0
1666089098984051209,0.0,0.0,0.0,0.0,0.0,0.0
1666089099033967902,0.0,0.0,0.0,0.0,0.0,0.0
1666089099083869959,0.0,0.0,0.0,0.0,0.0,0.0
1666089099134059425,0.0,0.0,0.0,0.0,0.0,0.0
1666089099185321777,0.0,0.0,0.0,0.0,0.0,0.0
1666089099233995474,0.0,0.0,0.0,0.0,0.0,0.0
1666089099283924102,0.0,0.0,0.0,0.0,0.0,0.0
1666089099333956760,0.0,0.0,0.0,0.0,0.0,0.0
1666089099384464671,0.0,0.0,0.0,0.0,0.0,0.0
1666089099433852293,0.0,0.0,0.0,0.0,0.0,0.0
1666089099483812554,0.0,0.0,0.0,0.0,0.0,0.0
1666089099534243379,0.0,0.0,0.0,0.0,0.0,0.0
1666089099583869896,0.0,0.0,0.0,0.0,0.0,0.0
1666089099634383625,0.0,0.0,0.0,0.0,0.0,0.0
1666089099683908664,0.0,0.0,0.0,0.0,0.0,0.0
1666089099733998280,0.0,0.0,0.0,0.0,0.0,0.0
1666089099784280472,0.0,0.0,0.0,0.0,0.0,0.0
1666089099833740679,0.0,0.0,0.0,0.0,0.0,0.0
1666089099883782192,0.0,0.0,0.0,0.0,0.0,-0.1
1666089099934056588,0.0,0.0,0.0,0.0,0.0,-0.2
1666089099983798181,0.0,0.0,0.0,0.0,0.0,-0.2869175817290432
1666089100033854224,0.0,0.0,0.0,0.0,0.0,-0.2869175817290432
1666089100083941903,0.0,0.0,0.0,0.0,0.0,-0.3201921042430349
1666089100133943214,0.0,0.0,0.0,0.0,0.0,-0.3201921042430349
1666089100184173957,0.0,0.0,0.0,0.0,0.0,-0.3201921042430349
1666089100234177874,0.0,0.0,0.0,0.0,0.0,-0.3554743219092953
1666089100287129463,0.0,0.0,0.0,0.0,0.0,-0.40557560367545215
1666089100334346530,0.0,0.0,0.0,0.0,0.0,-0.40557560367545215
1666089100383790244,0.0,0.0,0.0,0.0,0.0,-0.45497311411353475
1666089100434102433,0.0,0.0,0.0,0.0,0.0,-0.45497311411353475
1666089100484079850,0.0,0.0,0.0,0.0,0.0,-0.46957806679131525
1666089100534174616,0.0,0.0,0.0,0.0,0.0,-0.4785635295270727
1666089100584245660,0.0,0.0,0.0,0.0,0.0,-0.4785635295270727
1666089100634001828,0.0,0.0,0.0,0.0,0.0,-0.5034432520747587
1666089100683754955,0.0,0.0,0.0,0.0,0.0,-0.5034432520747587
1666089100734801272,0.0,0.0,0.0,0.0,0.0,-0.5271217226187092
1666089100784043352,0.0,0.0,0.0,0.0,0.0,-0.5271217226187092
1666089100834448903,0.0,0.0,0.0,0.0,0.0,-0.6119973911411973
1666089100883841813,0.0,0.0,0.0,0.0,0.0,-0.6119973911411973
1666089100934064813,0.0,0.0,0.0,0.0,0.0,-0.6601161372798164
1666089100984972726,0.0,0.0,0.0,0.0,0.0,-0.6601161372798164
1666089101034217458,0.0,0.0,0.0,0.0,0.0,-0.6601161372798164
1666089101083935733,0.0,0.0,0.0,0.0,0.0,-0.7073070927874703
1666089101134014506,0.0,0.0,0.0,0.0,0.0,-0.7392420596880106
1666089101183827033,0.0,0.0,0.0,0.0,0.0,-0.7534226803193056
1666089101234052167,0.0,0.0,0.0,0.0,0.0,-0.7534226803193056
1666089101283970892,0.0,0.0,0.0,0.0,0.0,-0.7717604212832092
1666089101333945939,0.0,0.0,0.0,0.0,0.0,-0.7717604212832092
1666089101383843365,0.0,0.0,0.0,0.0,0.0,-0.7737937617606987
1666089101433838335,0.0,0.0,0.0,0.0,0.0,-0.771371043483475
1666089101484010920,0.0,0.0,0.0,0.0,0.0,-0.771371043483475
1666089101533906579,0.0,0.0,0.0,0.0,0.0,-0.7619013050085512
1666089101583867337,0.0,0.0,0.0,0.0,0.0,-0.7401457419635032
1666089101634257652,0.0,0.0,0.0,0.0,0.0,-0.7401457419635032
1666089101683855886,0.0,0.0,0.0,0.0,0.0,-0.7197077637693129
1666089101734552207,0.0,0.0,0.0,0.0,0.0,-0.6979618624914367
1666089101784113366,0.0,0.0,0.0,0.0,0.0,-0.6979618624914367
1666089101834523242,0.0,0.0,0.0,0.0,0.0,-0.6674987727547266
1666089101883883876,0.0,0.0,0.0,0.0,0.0,-0.6674987727547266
1666089101933934665,0.0,0.0,0.0,0.0,0.0,-0.6346913432204567
1666089101984737396,0.0,0.0,0.0,0.0,0.0,-0.5936634475004818
1666089102033987271,0.0,0.0,0.0,0.0,0.0,-0.5601162214113263
1666089102084109295,0.0,0.0,0.0,0.0,0.0,-0.5601162214113263
1666089102136527186,0.0,0.0,0.0,0.0,0.0,-0.5235987755982994
1666089102184144252,0.0,0.0,0.0,0.0,0.0,-0.5235987755982994
1666089102234644161,0.0,0.0,0.0,0.0,0.0,-0.47289745493744706
1666089102283868728,0.0,0.0,0.0,0.0,0.0,-0.47289745493744706
1666089102334210444,0.0,0.0,0.0,0.0,0.0,-0.43893983956213645
