%time,field.x,field.y,field.z
1666090401705635771,0.0,0.0,0.0
1666090401723080673,0.0,0.0,0.0
1666090401840546189,0.0,0.0,0.0
1666090401840888459,0.0,0.0,0.0
1666090401945359212,0.0,0.0,0.0
1666090401995462294,0.0,0.0,0.0
1666090402077133767,0.0,0.0,0.0
1666090402100892871,0.0,0.0,0.0
1666090402206595753,0.0,0.0,0.0
1666090402206834997,0.0,0.0,0.0
1666090402346522624,0.0,0.0,0.0
1666090402415660780,0.0,0.0,0.0
1666090402415843458,0.0,0.0,0.0
1666090402498583316,0.0,0.0,0.0
1666090402585592849,0.0,0.0,0.0
1666090402738201240,0.0,0.0,0.0
1666090402738244588,0.0,0.0,0.0
1666090402877638909,0.0,0.0,0.0
1666090402963191066,0.0,0.0,0.0
1666090402963231516,0.0,0.0,0.0
1666090403045817333,0.0,0.0,0.0
1666090403151518058,0.0,0.0,0.0
1666090403230759215,0.0,0.0,0.0
1666090403230792843,0.0,0.0,0.0
1666090403316023536,0.0,0.0,0.0
1666090403369659158,0.0,0.0,0.0
1666090403438611237,0.0,0.0,0.0
1666090403533982593,0.0,0.0,0.0
1666090403534016173,0.0,0.0,0.0
1666090403604505570,0.0,0.0,0.0
1666090403753662816,0.0,0.0,0.0
1666090403843354050,0.0,0.0,0.0
1666090403843495716,0.0,0.0,0.0
1666090403902216415,0.0,0.0,0.0
1666090403963782361,0.0,0.0,0.0
1666090404029473827,0.0,0.0,0.0
1666090404156271380,0.0,0.0,0.0
1666090404233891346,0.0,0.0,0.0
1666090404233934721,0.0,0.0,0.0
1666090404349086996,0.0,0.0,0.0
1666090404435456235,0.0,0.0,0.0
1666090404435732066,0.0,0.0,0.0
1666090404509242000,0.0,0.0,0.0
1666090404565627524,0.0,0.0,0.0
1666090404693264624,0.0,0.0,0.0
1666090404772683952,0.0,0.0,0.0
1666090404787366791,0.0,0.0,0.0
1666090404917325773,0.0,0.0,0.0
1666090404917431696,0.0,0.0,0.0
1666090405011951847,0.0,0.0,0.0
1666090405102731931,0.0,0.0,0.0
1666090405194155170,0.0,0.0,0.0
1666090405268962500,0.0,0.0,0.0
1666090405268986272,0.0,0.0,0.0
1666090405333577300,0.0,0.0,0.0
1666090405430099733,0.0,0.0,0.0
1666090405477351656,0.0,0.0,0.0
1666090405581950670,0.0,0.0,0.0
1666090405581987050,0.0,0.0,0.0
1666090405634966367,0.0,0.0,0.0
1666090405689615649,0.0,0.0,0.0
1666090405770032352,0.0,0.0,0.0
1666090405847734787,0.0,0.0,0.0
1666090405909095922,0.0,0.0,0.0
1666090405969106423,0.0,0.0,0.0
1666090406083060502,0.0,0.0,0.0
1666090406184514065,0.0,0.0,0.0
1666090406184664217,0.0,0.0,0.0
1666090406320817029,0.0,0.0,0.0
1666090406320840307,0.0,0.0,0.0
1666090406406366552,0.0,0.0,0.0
1666090406487099736,0.0,0.0,0.0
1666090406555161469,0.0,0.0,0.0
1666090406637489509,0.0,0.0,0.0
1666090406714640756,0.0,0.0,0.0
1666090406777743242,0.0,0.0,0.0
1666090406868838855,0.0,0.0,0.0
1666090406943496233,0.0,0.0,0.0
1666090406998544708,0.0,0.0,0.0
1666090407036846057,0.0,0.0,0.0
1666090407136600346,0.0,0.0,0.0
1666090407136737590,0.0,0.0,0.0
1666090407205086870,0.0,0.0,0.0
1666090407270160543,0.0,0.0,0.0
1666090407364446367,0.0,0.0,0.0
1666090407441338988,0.0,0.0,0.0
1666090407496474751,0.0,0.0,0.0
1666090407552264643,0.0,0.0,0.0
1666090407667282847,0.0,0.0,0.0
1666090407723447721,0.0,0.0,0.0
1666090407780687622,0.0,0.0,0.0
1666090407817995375,0.0,0.0,0.0
1666090407911968661,0.0,0.0,0.0
1666090407965770689,0.0,0.0,0.0
1666090408033742073,0.0,0.0,0.0
1666090408089829448,0.0,0.0,0.0
1666090408144946429,0.0,0.0,0.0
1666090408280188802,0.0,0.0,0.0
1666090408286126337,0.0,0.0,0.0
1666090408348425783,0.0,0.0,0.0
1666090408425381440,0.0,0.0,0.0
1666090408546863334,0.0,0.0,0.0
1666090408553719575,0.0,0.0,0.0
1666090408670654325,0.0,0.0,0.0
1666090408670671061,0.0,0.0,0.0
1666090408775300053,0.0,0.0,0.0
1666090408817589804,0.0,0.0,0.0
1666090408869728512,0.0,0.0,0.0
1666090408954181751,0.0,0.0,0.0
1666090409031965110,0.0,0.0,0.0
1666090409053344905,0.0,0.0,0.0
1666090409121010545,0.0,0.0,0.0
1666090409221916165,0.0,0.0,0.0
1666090409273414173,0.0,0.0,0.0
1666090409347284907,0.0,0.0,0.0
1666090409402243118,0.0,0.0,0.0
1666090409457288425,0.0,0.0,0.0
1666090409505777889,0.0,0.0,0.0
1666090409561648186,0.0,0.0,0.0
1666090409609014373,0.0,0.0,0.0
1666090409712798835,0.0,0.0,0.0
1666090409712825300,0.0,0.0,0.0
1666090409812982956,0.0,0.0,0.0
1666090409813288577,0.0,0.0,0.0
1666090409870349721,0.0,0.0,0.0
1666090409931182696,0.0,0.0,0.0
1666090409993055756,0.0,0.0,0.0
1666090410129985427,0.0,0.0,0.0
1666090410142677165,0.0,0.0,0.0
1666090410252868802,0.0,0.0,0.0
1666090410335851795,0.0,0.0,0.0
1666090410424934240,0.0,0.0,0.0
1666090410472868751,0.0,0.0,0.0
1666090410582760690,0.0,0.0,0.0
1666090410673155675,0.0,0.0,0.0
1666090410735632209,0.0,0.0,0.0
1666090410797550853,0.0,0.0,0.0
1666090410897530037,0.0,0.0,0.0
1666090410958339549,0.0,0.0,0.0
1666090411057395127,0.0,0.0,0.0
1666090411057423304,0.0,0.0,0.0
1666090411221477907,0.0,0.0,0.0
1666090411221557040,0.0,0.0,0.0
1666090411310833458,0.0,0.0,0.0
1666090411419083034,0.0,0.0,0.0
1666090411419219319,0.0,0.0,0.0
1666090411555560122,0.0,0.0,0.0
1666090411635653284,0.0,0.0,0.0
1666090411715141888,0.0,0.0,0.0
1666090411798683042,0.0,0.0,0.0
1666090411927704177,0.0,0.0,0.0
1666090411927729494,0.0,0.0,0.0
1666090412014201437,0.0,0.0,0.0
1666090412086078514,0.0,0.0,0.0
1666090412166098702,0.0,0.0,0.0
1666090412242193859,0.0,0.0,0.0
1666090412309608708,0.0,0.0,0.0
1666090412406180038,0.0,0.0,0.0
1666090412507061024,0.0,0.0,0.0
1666090412511975314,0.0,0.0,0.0
1666090412582382400,0.0,0.0,0.0
1666090412647085173,0.0,0.0,0.0
1666090412758354413,0.0,0.0,0.0
1666090412849728870,0.0,0.0,0.0
1666090412849757979,0.0,0.0,0.0
1666090412907346206,0.0,0.0,0.0
1666090412974088921,0.0,0.0,0.0
1666090413071490066,0.0,0.0,0.0
1666090413118257700,0.0,0.0,0.0
1666090413222812895,0.0,0.0,0.0
1666090413222840250,0.0,0.0,0.0
1666090413328332835,0.0,0.0,0.0
1666090413412285813,0.0,0.0,0.0
1666090413528843968,0.0,0.0,0.0
1666090413528887111,0.0,0.0,0.0
1666090413668669585,0.0,0.0,0.0
1666090413669049906,0.0,0.0,0.0
1666090413741952663,0.0,0.0,0.0
1666090413857196968,0.0,0.0,0.0
1666090413897338834,0.0,0.0,0.0
1666090413968290309,0.0,0.0,0.0
1666090414049657004,0.0,0.0,0.0
1666090414119443660,0.0,0.0,0.0
1666090414125937630,0.0,0.0,0.0
1666090414189206224,0.0,0.0,0.0
1666090414248434417,0.0,0.0,0.0
1666090414307134101,0.0,0.0,0.0
1666090414402730563,0.0,0.0,0.0
1666090414450388683,0.0,0.0,0.0
1666090414510272720,0.0,0.0,0.0
1666090414610195984,0.0,0.0,0.0
1666090414710586617,0.7929415106773376,-1.018613576889038,0.0
1666090414712579450,0.7715316414833069,-1.0452220439910889,0.0
1666090414812889944,0.7511712312698364,-1.066772222518921,0.0
1666090414921496025,0.7364106178283691,-1.0716131925582886,0.0
1666090415001331758,0.7074054479598999,-1.094855546951294,0.0
1666090415044115162,0.6858686208724976,-1.114011287689209,0.0
1666090415094462526,0.6936820149421692,-1.0852034091949463,0.0
1666090415176769141,0.6980938911437988,-1.0694679021835327,0.0
1666090415233629772,0.6991969347000122,-1.0593034029006958,0.0
1666090415276823730,0.7023411989212036,-1.0503038167953491,0.0
1666090415327549424,0.704012930393219,-1.0445759296417236,0.0
1666090415394278810,0.7052798867225647,-1.0416195392608643,0.0
1666090415522184364,0.7157948613166809,-1.0390559434890747,0.0
1666090415568458798,0.7310246825218201,-1.035398006439209,0.0
1666090415615909948,0.7442718148231506,-1.027940034866333,0.0
1666090415698017450,0.7615708112716675,-1.0166550874710083,0.0
1666090415800717497,0.7838101983070374,-1.006126880645752,0.0
1666090415901043143,0.8050740957260132,-0.9909474849700928,0.0
1666090415944269820,0.8295021653175354,-0.9784558415412903,0.0
1666090415988125315,0.8567461967468262,-0.9611808657646179,0.0
1666090416071576801,0.8898621797561646,-0.9360474944114685,0.0
1666090416190986586,0.931614875793457,-0.911846399307251,0.0
1666090416192258305,0.97495436668396,-0.8799970149993896,0.0
1666090416318214063,1.0097029209136963,-0.8478646874427795,0.0
1666090416415211935,1.0355088710784912,-0.8244618773460388,0.0
1666090416451835911,1.0687216520309448,-0.7773253917694092,0.0
1666090416527731317,1.0914173126220703,-0.7200912833213806,0.0
1666090416656034056,1.100791335105896,-0.6772763133049011,0.0
1666090416691957439,1.1111069917678833,-0.6232082843780518,0.0
1666090416810528870,1.1185128688812256,-0.5879338979721069,0.0
1666090416852708046,1.1199040412902832,-0.5462849736213684,0.0
1666090416925856137,1.1203254461288452,-0.5285555720329285,0.0
1666090416976727193,1.1140273809432983,-0.5028797388076782,0.0
1666090417081646505,1.1071593761444092,-0.48114868998527527,0.0
1666090417083038062,1.096756100654602,-0.4689592719078064,0.0
1666090417189556827,1.0878571271896362,-0.46470627188682556,0.0
1666090417278930835,1.0733885765075684,-0.47222596406936646,0.0
1666090417362419255,1.04692542552948,-0.4996725618839264,0.0
1666090417445773050,1.0216739177703857,-0.5375717282295227,0.0
1666090417529867619,0.9930080771446228,-0.5859917998313904,0.0
1666090417629329538,0.9603012800216675,-0.6295351982116699,0.0
1666090417697305633,0.933599591255188,-0.6660715341567993,0.0
1666090417760374749,0.9261272549629211,-0.7190736532211304,0.0
1666090417896555477,0.9141340851783752,-0.7731156945228577,0.0
1666090417906606573,0.9039156436920166,-0.8276851177215576,0.0
1666090417971895729,0.8998905420303345,-0.8856067657470703,0.0
1666090418038347866,0.9037212133407593,-0.9514445662498474,0.0
1666090418121439107,0.906428337097168,-1.0194553136825562,0.0
1666090418260365875,0.9150181412696838,-1.0802490711212158,0.0
1666090418304727219,0.9182469844818115,-1.1318740844726562,0.0
1666090418367706317,0.9223171472549438,-1.1793384552001953,0.0
1666090418466840072,0.9276420474052429,-1.2219618558883667,0.0
1666090418508373341,0.9370805025100708,-1.2634271383285522,0.0
1666090418554163794,0.9509536623954773,-1.2984658479690552,0.0
1666090418615474859,0.9697871804237366,-1.3336877822875977,0.0
1666090418704601525,0.9976039528846741,-1.3577122688293457,0.0
1666090418757211229,1.031295657157898,-1.3694576025009155,0.0
1666090418879218778,1.0661054849624634,-1.3723584413528442,0.0
1666090418881021026,1.1059772968292236,-1.3684097528457642,0.0
1666090419030604244,1.129524827003479,-1.385027289390564,0.0
1666090419032047316,1.1644399166107178,-1.3914790153503418,0.0
1666090419197936569,1.201891303062439,-1.3913211822509766,0.0
1666090419199386654,1.2506786584854126,-1.3838034868240356,0.0
1666090419297000516,1.3134772777557373,-1.3720685243606567,0.0
1666090419383028736,1.3554916381835938,-1.339692234992981,0.0
1666090419468567226,1.393130898475647,-1.3068207502365112,0.0
1666090419567422344,1.4176241159439087,-1.263648271560669,0.0
1666090419651062257,1.4354642629623413,-1.2142332792282104,0.0
1666090419741896659,1.4488396644592285,-1.1653759479522705,0.0
1666090419825429816,1.4639660120010376,-1.1264894008636475,0.0
1666090419948781311,1.4594751596450806,-1.0458720922470093,0.0
1666090420029392744,1.453092098236084,-0.9884852766990662,0.0
1666090420076132677,1.452560305595398,-0.9451757669448853,0.0
1666090420186540446,1.43837571144104,-0.9100261926651001,0.0
1666090420228596286,1.417419672012329,-0.8785557150840759,0.0
1666090420276079771,1.3941417932510376,-0.8426804542541504,0.0
1666090420384290887,1.3729933500289917,-0.8068923950195312,0.0
1666090420461394447,1.3440724611282349,-0.766046404838562,0.0
1666090420535998513,1.319791316986084,-0.7284837365150452,0.0
1666090420618548644,1.3087130784988403,-0.674561083316803,0.0
1666090420709997219,1.3069531917572021,-0.6338871121406555,0.0
1666090420837726992,1.3079642057418823,-0.5581085085868835,0.0
1666090420889955119,1.3115413188934326,-0.5110131502151489,0.0
1666090421021288087,1.330683946609497,-0.45322078466415405,0.0
1666090421037946361,1.3382731676101685,-0.3771403431892395,0.0
1666090421171316206,1.3393402099609375,-0.33036598563194275,0.0
1666090421260196400,1.374003291130066,-0.1773405373096466,0.0
1666090421367608258,1.410142421722412,-0.032360270619392395,0.0
1666090421432549464,1.444392204284668,0.10634087771177292,0.0
1666090421528873543,1.4750654697418213,0.2737042307853699,0.0
1666090421574989903,1.4814592599868774,0.416203111410141,0.0
1666090421640074683,1.4729952812194824,0.5212582349777222,0.0
1666090421724887769,1.4582866430282593,0.6262739300727844,0.0
1666090421789328707,1.4619537591934204,0.7206885814666748,0.0
1666090421872133143,1.4253249168395996,0.8146174550056458,0.0
1666090421997358569,1.3999899625778198,0.8915812373161316,0.0
1666090422070245954,1.3752363920211792,0.9758618474006653,0.0
1666090422134369781,1.3186177015304565,1.0390105247497559,0.0
1666090422253597190,1.267906665802002,1.0966159105300903,0.0
1666090422316716326,1.236599326133728,1.1620944738388062,0.0
1666090422383703220,1.1888539791107178,1.1990082263946533,0.0
1666090422449625943,1.1559386253356934,1.2233163118362427,0.0
1666090422496082684,1.124414086341858,1.2446787357330322,0.0
1666090422572314332,1.0964101552963257,1.2690116167068481,0.0
1666090422628698756,1.0742381811141968,1.2922803163528442,0.0
1666090422676067566,1.0534491539001465,1.3103545904159546,0.0
1666090422768145503,1.0351084470748901,1.3283766508102417,0.0
1666090422837152717,1.021155834197998,1.3466325998306274,0.0
1666090422882238432,1.0036766529083252,1.3617503643035889,0.0
1666090422952537416,0.9941858649253845,1.3753865957260132,0.0
1666090423005728713,0.9821214079856873,1.3833454847335815,0.0
1666090423075074150,0.9598270654678345,1.3974493741989136,0.0
1666090423191736436,0.9348418712615967,1.4076142311096191,0.0
1666090423253942133,0.9054149389266968,1.4190869331359863,0.0
1666090423329290588,0.8776635527610779,1.4276140928268433,0.0
1666090423391073938,0.849927544593811,1.4383103847503662,0.0
1666090423437052230,0.827903151512146,1.4458198547363281,0.0
1666090423532718099,0.8050141930580139,1.4496080875396729,0.0
1666090423574969154,0.7827703952789307,1.4536539316177368,0.0
1666090423644309805,0.7715069055557251,1.447694182395935,0.0
1666090423743682542,0.7530860900878906,1.4606910943984985,0.0
1666090423778545562,0.7396306991577148,1.468975305557251,0.0
1666090423843962196,0.7343625426292419,1.4699110984802246,0.0
1666090423903499334,0.7357937097549438,1.4637346267700195,0.0
1666090424013077237,0.7464383244514465,1.4425864219665527,0.0
1666090424047562863,0.7662913203239441,1.41595458984375,0.0
1666090424115113583,0.8034350872039795,1.3751881122589111,0.0
1666090424242770583,0.8415999412536621,1.3229085206985474,0.0
1666090424318586074,0.8960747718811035,1.2655887603759766,0.0
1666090424382645971,0.9453843235969543,1.200226902961731,0.0
1666090424420970713,0.999222457408905,1.1330528259277344,0.0
1666090424509126099,1.051034927368164,1.0677021741867065,0.0
1666090424557833721,1.0979169607162476,0.9976106882095337,0.0
1666090424644782716,1.1489288806915283,0.9305410385131836,0.0
1666090424721157964,1.1906629800796509,0.8481855988502502,0.0
1666090424757745896,1.229746699333191,0.7736855149269104,0.0
1666090424816791848,1.267328143119812,0.7023771405220032,0.0
1666090424917338604,1.2988247871398926,0.6270432472229004,0.0
1666090424941765275,1.3216086626052856,0.5557425022125244,0.0
1666090425064080595,1.3599880933761597,0.49346935749053955,0.0
1666090425065793050,1.3793690204620361,0.3958442807197571,0.0
1666090425198772147,1.394547939300537,0.33752745389938354,0.0
1666090425244234421,1.4032751321792603,0.2843392789363861,0.0
1666090425369200795,1.4041180610656738,0.23513004183769226,0.0
1666090425371145162,1.3995524644851685,0.19126302003860474,0.0
1666090425462803279,1.3864563703536987,0.15154249966144562,0.0
1666090425541128482,1.3791295289993286,0.12388471513986588,0.0
1666090425665667518,1.3554413318634033,0.10242415219545364,0.0
1666090425765503515,1.3314602375030518,0.08650778234004974,0.0
1666090425882752648,1.3089323043823242,0.07654764503240585,0.0
1666090425974668696,1.2836055755615234,0.07083123922348022,0.0
1666090425976131484,1.2590632438659668,0.06954233348369598,0.0
1666090426085549143,1.231238842010498,0.08921860158443451,0.0
1666090426184132780,1.2099038362503052,0.1026427149772644,0.0
1666090426269498389,1.1931114196777344,0.1162586510181427,0.0
1666090426336169403,1.1784101724624634,0.13050320744514465,0.0
1666090426407357079,1.171274185180664,0.14125069975852966,0.0
1666090426479670307,1.1650054454803467,0.15272673964500427,0.0
1666090426547364582,1.1563305854797363,0.16284354031085968,0.0
1666090426682694233,1.1430752277374268,0.16655077040195465,0.0
1666090426684218306,1.1194219589233398,0.16510021686553955,0.0
1666090426810947164,1.0992686748504639,0.17707253992557526,0.0
1666090426911378728,1.0823194980621338,0.1887877881526947,0.0
1666090426928206932,1.057421326637268,0.1761873960494995,0.0
1666090427008220856,1.0314490795135498,0.15867340564727783,0.0
1666090427077074455,1.0135372877120972,0.14185023307800293,0.0
1666090427205527247,0.9935853481292725,0.11685704439878464,0.0
1666090427283635991,0.9712538123130798,0.09304185211658478,0.0
1666090427370918722,0.9496489763259888,0.07099612802267075,0.0
1666090427390927124,0.9338954091072083,0.05472912639379501,0.0
1666090427472885200,0.9159969091415405,0.0387759655714035,0.0
1666090427551846516,0.9172565340995789,0.030350366607308388,0.0
1666090427619556040,0.9107391834259033,0.01081428024917841,0.0
1666090427724133634,0.9271948337554932,-0.013095548376441002,0.0
1666090427790130297,0.9376150369644165,-0.037373121827840805,0.0
1666090427911072792,0.9508154392242432,-0.06893126666545868,0.0
1666090427952866420,0.9695621132850647,-0.09965238720178604,0.0
1666090428076224553,0.9887049794197083,-0.12769201397895813,0.0
1666090428124281752,1.0108425617218018,-0.14999663829803467,0.0
1666090428212700443,1.0492210388183594,-0.1708526313304901,0.0
1666090428311369846,1.0711692571640015,-0.199245423078537,0.0
1666090428352197596,1.0976375341415405,-0.22851166129112244,0.0
1666090428409059448,1.121039867401123,-0.26266953349113464,0.0
1666090428533055229,1.141348958015442,-0.29064974188804626,0.0
1666090428613537425,1.1626535654067993,-0.31610482931137085,0.0
1666090428734615656,1.1920315027236938,-0.3443792760372162,0.0
1666090428837883317,1.214416265487671,-0.37336787581443787,0.0
1666090428886920022,1.2254141569137573,-0.3930172622203827,0.0
1666090428962702149,1.2470461130142212,-0.4240652024745941,0.0
1666090429040026461,1.2669602632522583,-0.4488426446914673,0.0
1666090429109452909,1.2856011390686035,-0.47229278087615967,0.0
1666090429180655211,1.3042802810668945,-0.4945225715637207,0.0
1666090429225192458,1.318017601966858,-0.5129294395446777,0.0
1666090429291566714,1.3261750936508179,-0.5321907997131348,0.0
1666090429363196508,1.3365395069122314,-0.559075117111206,0.0
1666090429477304228,1.3457224369049072,-0.5885569453239441,0.0
1666090429563955402,1.3490331172943115,-0.6216297149658203,0.0
1666090429610615750,1.3299659490585327,-0.6517657041549683,0.0
1666090429682100649,1.3258092403411865,-0.6804425716400146,0.0
1666090429736273346,1.2994929552078247,-0.7124767899513245,0.0
1666090429817332108,1.2895663976669312,-0.7478116750717163,0.0
1666090429919308958,1.2639060020446777,-0.7763444781303406,0.0
1666090429977875462,1.2400665283203125,-0.8024358749389648,0.0
1666090430050101103,1.219954252243042,-0.8294101357460022,0.0
1666090430123070925,1.1949971914291382,-0.8580763936042786,0.0
1666090430224460142,1.1774845123291016,-0.8830417990684509,0.0
1666090430289171295,1.164745569229126,-0.9168838858604431,0.0
1666090430371458082,1.1506946086883545,-0.9528014659881592,0.0
1666090430412739532,1.139173984527588,-0.9929094910621643,0.0
1666090430541254758,1.1189497709274292,-1.0241881608963013,0.0
1666090430555955133,1.0942292213439941,-1.0536054372787476,0.0
1666090430680134953,1.069373607635498,-1.0850703716278076,0.0
1666090430747103895,1.0383247137069702,-1.1182856559753418,0.0
1666090430815563228,1.0108343362808228,-1.1564382314682007,0.0
1666090430945337677,0.9813490509986877,-1.1871223449707031,0.0
1666090430997095077,0.9540503025054932,-1.2168197631835938,0.0
1666090431066810401,0.9267024993896484,-1.2438093423843384,0.0
1666090431117313581,0.903718113899231,-1.2714991569519043,0.0
1666090431208844367,0.8855177760124207,-1.2968225479125977,0.0
1666090431253549440,0.8673447370529175,-1.3157169818878174,0.0
1666090431354844475,0.8584327697753906,-1.3337575197219849,0.0
1666090431372255958,0.8566585183143616,-1.3497081995010376,0.0
1666090431495188062,0.8759985566139221,-1.3576178550720215,0.0
1666090431553187744,0.900846004486084,-1.3621965646743774,0.0
1666090431615431248,0.911822497844696,-1.3800245523452759,0.0
1666090431738928058,0.939493715763092,-1.3876781463623047,0.0
1666090431783806621,0.9791468381881714,-1.3892008066177368,0.0
1666090431898400609,1.0369269847869873,-1.3844767808914185,0.0
1666090431944231896,1.0973206758499146,-1.3564008474349976,0.0
1666090431988056955,1.181810736656189,-1.3017325401306152,0.0
1666090432113507168,1.2722007036209106,-1.2298622131347656,0.0
1666090432200752498,1.3685039281845093,-1.1490153074264526,0.0
1666090432280242685,1.4492744207382202,-1.0599278211593628,0.0
1666090432324225857,1.510575771331787,-0.9633950591087341,0.0
1666090432345630622,1.569850206375122,-0.8678119778633118,0.0
1666090432448518282,1.633543848991394,-0.7611382007598877,0.0
1666090432547941645,1.6847435235977173,-0.6542375087738037,0.0
1666090432592162531,1.7389490604400635,-0.5556758642196655,0.0
1666090432636191966,1.7838066816329956,-0.46294721961021423,0.0
1666090432693375575,1.839299201965332,-0.3769375681877136,0.0
1666090432777607566,1.8771964311599731,-0.2927224636077881,0.0
1666090432858441215,1.89512038230896,-0.2150118052959442,0.0
1666090432918629923,1.8952512741088867,-0.13945119082927704,0.0
1666090433065221457,1.8516818284988403,-0.05867332965135574,0.0
1666090433144822387,1.8078922033309937,0.019851990044116974,0.0
1666090433188123981,1.7686538696289062,0.09849152714014053,0.0
1666090433286477205,1.7326173782348633,0.16673544049263,0.0
1666090433364600407,1.6949964761734009,0.2132112979888916,0.0
1666090433427301682,1.650648593902588,0.266632616519928,0.0
1666090433525376001,1.6023359298706055,0.31040704250335693,0.0
1666090433626182628,1.5766576528549194,0.35510632395744324,0.0
1666090433665090040,1.5546057224273682,0.3946009576320648,0.0
1666090433724037774,1.4909604787826538,0.410640686750412,0.0
1666090433829875115,1.4338518381118774,0.43900537490844727,0.0
1666090433894286599,1.368847131729126,0.4644107222557068,0.0
1666090434015721773,1.3036099672317505,0.4951496720314026,0.0
1666090434130513556,1.242272973060608,0.5147419571876526,0.0
1666090434131780072,1.1898802518844604,0.5324951410293579,0.0
1666090434223467318,1.1391361951828003,0.5433205366134644,0.0
1666090434225139984,1.0963042974472046,0.5655866265296936,0.0
1666090434311379136,1.0475060939788818,0.5680721402168274,0.0
1666090434397738106,1.0066447257995605,0.5896034240722656,0.0
1666090434465146641,0.9702316522598267,0.5991161465644836,0.0
1666090434563068939,0.9444992542266846,0.6174213886260986,0.0
1666090434616312666,0.9151192903518677,0.6423317790031433,0.0
1666090434750459518,0.8909282088279724,0.6435713768005371,0.0
1666090434752972822,0.8695183992385864,0.6447269320487976,0.0
1666090434847152003,0.8437644243240356,0.6584818363189697,0.0
1666090434929818029,0.8220273852348328,0.6700156927108765,0.0
1666090435050909471,0.8163248300552368,0.6645002961158752,0.0
1666090435147415842,0.7951747179031372,0.6767653822898865,0.0
1666090435152274245,0.7939937114715576,0.6640374064445496,0.0
1666090435230016351,0.7851625084877014,0.6741185188293457,0.0
1666090435329517264,0.7958230376243591,0.6654866933822632,0.0
1666090435420890009,0.8112995624542236,0.6555679440498352,0.0
1666090435514630360,0.8050940036773682,0.6543299555778503,0.0
1666090435556121788,0.7993751168251038,0.6487671136856079,0.0
1666090435623151791,0.8175368309020996,0.626955509185791,0.0
1666090435725603483,0.840759813785553,0.6110761165618896,0.0
1666090435730954483,0.8433046936988831,0.6112381219863892,0.0
1666090435848520064,0.851577877998352,0.608656644821167,0.0
1666090435932667522,0.8635811805725098,0.6023522615432739,0.0
1666090435995580706,0.8761516213417053,0.5920024514198303,0.0
1666090436040362732,0.8892444968223572,0.5791410803794861,0.0
1666090436093685485,0.9043801426887512,0.5318204760551453,0.0
1666090436157831675,0.9185796976089478,0.49498093128204346,0.0
1666090436222659318,0.9201990365982056,0.46068233251571655,0.0
1666090436331666967,0.9255340695381165,0.4572787582874298,0.0
1666090436387614360,0.926899790763855,0.45147889852523804,0.0
1666090436518517788,0.9256082773208618,0.44597184658050537,0.0
1666090436519709708,0.9192814826965332,0.4390467405319214,0.0
1666090436616653106,0.9151133298873901,0.43533486127853394,0.0
1666090436678044439,0.9103745818138123,0.4313230812549591,0.0
1666090436745555916,0.90940260887146,0.4307619035243988,0.0
1666090436823534210,0.9103682637214661,0.43392226099967957,0.0
1666090436927590980,0.9129338264465332,0.43911540508270264,0.0
1666090436984586186,0.9149429798126221,0.433764785528183,0.0
1666090437049617068,0.9182525277137756,0.42864111065864563,0.0
1666090437120898711,0.9205329418182373,0.42329201102256775,0.0
1666090437230074027,0.9224253296852112,0.41336774826049805,0.0
1666090437280923577,0.9234912395477295,0.40203824639320374,0.0
1666090437395833213,0.9267082214355469,0.3855820894241333,0.0
1666090437397124107,0.9303112626075745,0.3643685579299927,0.0
1666090437469665493,0.9315060377120972,0.34686434268951416,0.0
1666090437567658643,0.9333293437957764,0.3259912133216858,0.0
1666090437622121665,0.9296916127204895,0.30608993768692017,0.0
1666090437685681379,0.9035311937332153,0.28898659348487854,0.0
1666090437748596891,0.8849760890007019,0.2714625298976898,0.0
1666090437818348338,0.8772536516189575,0.25864675641059875,0.0
1666090437882554404,0.8673145174980164,0.24997387826442719,0.0
1666090438004089717,0.8631285429000854,0.2401793897151947,0.0
1666090438048284570,0.8594797253608704,0.22952963411808014,0.0
1666090438123926508,0.8574590682983398,0.21843045949935913,0.0
1666090438167934520,0.8550096750259399,0.20982599258422852,0.0
1666090438251758856,0.8551135063171387,0.20414134860038757,0.0
1666090438320082600,0.8566491603851318,0.1963137835264206,0.0
1666090438369645374,0.856483519077301,0.19380857050418854,0.0
1666090438440795180,0.8585818409919739,0.1850011944770813,0.0
1666090438491047256,0.8627849817276001,0.17120206356048584,0.0
1666090438568129265,0.8670306205749512,0.16391955316066742,0.0
1666090438615533584,0.8709600567817688,0.1486242115497589,0.0
1666090438670987499,0.8710124492645264,0.13113844394683838,0.0
1666090438723707511,0.87105792760849,0.12350808084011078,0.0
1666090438792268156,0.8709544539451599,0.10937701165676117,0.0
1666090438868307320,0.8693020343780518,0.09724313765764236,0.0
1666090438931150461,0.8652965426445007,0.08703764528036118,0.0
1666090439051014256,0.8651145696640015,0.07367999106645584,0.0
1666090439104149583,0.8719481825828552,0.053969673812389374,0.0
1666090439186727650,0.8774974942207336,0.036422550678253174,0.0
1666090439212977471,0.8822603821754456,0.02191535010933876,0.0
1666090439372364608,0.8805128335952759,0.009677870199084282,0.0
1666090439373847596,0.8857322931289673,-0.003791072638705373,0.0
1666090439480998766,0.8802850842475891,-0.007793522905558348,0.0
1666090439482456841,0.8849615454673767,-0.013267414644360542,0.0
1666090439587119021,0.8900670409202576,-0.021869266405701637,0.0
1666090439652809541,0.8973333239555359,-0.029477737843990326,0.0
1666090439774218390,0.8986591100692749,-0.03266068547964096,0.0
1666090439836869212,0.9014500975608826,-0.03177983686327934,0.0
1666090439903331356,0.9026414752006531,-0.030436918139457703,0.0
1666090439975935552,0.9081167578697205,-0.019347410649061203,0.0
1666090440017076193,0.9151811003684998,-0.00947849452495575,0.0
1666090440064052290,0.9205451011657715,0.0040158480405807495,0.0
1666090440136499306,0.9054299592971802,0.019448183476924896,0.0
1666090440231450226,0.8991966843605042,0.02171408385038376,0.0
1666090440327183238,0.893977701663971,0.02357962727546692,0.0
1666090440407636378,0.890636146068573,0.026762830093503,0.0
1666090440448300907,0.8864795565605164,0.031063277274370193,0.0
1666090440492131967,0.8832026720046997,0.035984206944704056,0.0
1666090440571895355,0.8807923793792725,0.03698228672146797,0.0
1666090440653954694,0.8667279481887817,0.029795054346323013,0.0
1666090440676630901,0.869705319404602,0.036571405827999115,0.0
1666090440740330288,0.8608400821685791,0.03542991355061531,0.0
1666090440843686207,0.8625832200050354,0.03814276307821274,0.0
1666090440932660045,0.852942705154419,0.036496564745903015,0.0
1666090440975022825,0.843705952167511,0.034531839191913605,0.0
1666090441056399207,0.8470762372016907,0.036778006702661514,0.0
1666090441157435160,0.8508448600769043,0.03228863328695297,0.0
1666090441158835685,0.8536786437034607,0.02682756632566452,0.0
1666090441280165568,0.8571749925613403,0.03112907148897648,0.0
1666090441314517536,0.8598384857177734,0.03134150430560112,0.0
1666090441433863425,0.8535574078559875,0.029394373297691345,0.0
1666090441504075722,0.8573845028877258,0.03584563359618187,0.0
1666090441505338188,0.8616563081741333,0.03734671324491501,0.0
1666090441573266777,0.8627197742462158,0.03902657330036163,0.0
1666090441631361791,0.862220048904419,0.03860238194465637,0.0
1666090441733432756,0.8635721802711487,0.037646207958459854,0.0
1666090441892634631,0.8652651309967041,0.038598448038101196,0.0
1666090441894100105,0.8667837977409363,0.040427520871162415,0.0
1666090441985394461,0.8686608076095581,0.042816102504730225,0.0
1666090442071982854,0.8710445165634155,0.04474207013845444,0.0
1666090442192849698,0.8717942833900452,0.04565323144197464,0.0
1666090442283712224,0.8727956414222717,0.04870936647057533,0.0
1666090442291605389,0.8736932277679443,0.051212385296821594,0.0
1666090442362767104,0.875777006149292,0.05364004895091057,0.0
1666090442470475985,0.8771305680274963,0.05814219266176224,0.0
1666090442538322535,0.8787451982498169,0.060310885310173035,0.0
1666090442621764116,0.8786174058914185,0.06354790180921555,0.0
1666090442777928583,0.8787042498588562,0.06196563318371773,0.0
1666090442780298240,0.882632315158844,0.0605509877204895,0.0
1666090442872710127,0.885039210319519,0.058870647102594376,0.0
1666090442973469970,0.8868056535720825,0.053871940821409225,0.0
1666090443027306752,0.8876141905784607,0.051679253578186035,0.0
1666090443097079853,0.8861550092697144,0.05023849755525589,0.0
1666090443178138780,0.8877395987510681,0.04899878427386284,0.0
1666090443271712061,0.889234721660614,0.04999367147684097,0.0
