%time,field.linear.x,field.linear.y,field.linear.z,field.angular.x,field.angular.y,field.angular.z
1666090343266584098,0.47540825605392456,0.0,0.0,0.0,0.0,-1.2217304763960313
1666090343389143224,0.5496178269386292,0.0,0.0,0.0,0.0,-1.3962634015954642
1666090343520739022,0.5249742269515991,0.0,0.0,0.0,0.0,-1.3962634015954642
1666090343568160231,0.4960266947746277,0.0,0.0,0.0,0.0,-1.3962634015954642
1666090343609927515,0.4958134591579437,0.0,0.0,0.0,0.0,-1.3962634015954642
1666090343668538393,0.4744760394096374,0.0,0.0,0.0,0.0,-1.3962634015954642
1666090343770850452,0.34161171317100525,0.0,0.0,0.0,0.0,-1.3962634015954642
1666090343860245323,0.45692676305770874,0.0,0.0,0.0,0.0,-1.3962634015954642
1666090343990034541,0.4640966057777404,0.0,0.0,0.0,0.0,-1.3962634015954642
1666090344028382330,0.46174523234367365,0.0,0.0,0.0,0.0,-1.3962634015954642
1666090344156328825,0.4727525115013122,0.0,0.0,0.0,0.0,-1.3962634015954642
1666090344210426174,0.4717574417591095,0.0,0.0,0.0,0.0,-1.3962634015954642
1666090344243725246,0.4837307631969452,0.0,0.0,0.0,0.0,-1.3962634015954642
1666090344327481384,0.49185174703598017,0.0,0.0,0.0,0.0,-1.3962634015954642
1666090344415723960,0.37873029708862305,0.0,0.0,0.0,0.0,-1.2217304763960313
1666090344550209489,0.3930273056030273,0.0,0.0,0.0,0.0,-1.2217304763960313
1666090344592061988,0.531497597694397,0.0,0.0,0.0,0.0,-1.2217304763960313
1666090344672760975,0.5501593351364136,0.0,0.0,0.0,0.0,-1.2217304763960313
1666090344803725566,0.5701004862785339,0.0,0.0,0.0,0.0,-1.2217304763960313
1666090344850549264,0.5888553261756897,0.0,0.0,0.0,0.0,-1.2217304763960313
1666090344925150791,0.6079843044281005,0.0,0.0,0.0,0.0,-1.0471975511965983
1666090345060091298,0.6338351368904114,0.0,0.0,0.0,0.0,-1.0471975511965983
1666090345110849055,0.650696337223053,0.0,0.0,0.0,0.0,-0.6981317007977323
1666090345166383753,0.6586331725120544,0.0,0.0,0.0,0.0,-0.3208131194114685
1666090345273369599,0.6653363108634949,0.0,0.0,0.0,0.0,-0.3051081895828247
1666090345359029752,0.6737605333328247,0.0,0.0,0.0,0.0,-0.28784990310668945
1666090345447540600,0.6826595664024353,0.0,0.0,0.0,0.0,-0.27254191040992737
1666090345493186309,0.6105648279190063,0.0,0.0,0.0,0.0,-0.17008192837238312
1666090345574167316,0.6772764921188354,0.0,0.0,0.0,0.0,-0.23306730389595032
1666090345710226572,0.6723967790603637,0.0,0.0,0.0,0.0,-0.21244433522224426
1666090345765083281,0.6040024161338806,0.0,0.0,0.0,0.0,-0.17453292519943345
1666090345873345122,0.6657798886299132,0.0,0.0,0.0,0.0,-0.3490658503988664
1666090345915559853,0.5974333882331848,0.0,0.0,0.0,0.0,-0.10830643773078918
1666090346009564389,0.5866172909736633,0.0,0.0,0.0,0.0,-0.11473805457353592
1666090346100231981,0.6385236978530884,0.0,0.0,0.0,0.0,-0.2112608700990677
1666090346197544518,0.6289141178131104,0.0,0.0,0.0,0.0,-0.2206076830625534
1666090346273420843,0.6194449663162231,0.0,0.0,0.0,0.0,-0.23160424828529358
1666090346405654147,0.619022786617279,0.0,0.0,0.0,0.0,-0.2449011504650116
1666090346453990599,0.6255581974983215,0.0,0.0,0.0,0.0,-0.3490658503988664
1666090346568740686,0.5532905459403991,0.0,0.0,0.0,0.0,-0.6981317007977323
1666090346613054252,0.6553484201431274,0.0,0.0,0.0,0.0,-1.0471975511965983
1666090346745319610,0.6824741363525391,0.0,0.0,0.0,0.0,-1.0471975511965983
1666090346827859902,0.6851484179496765,0.0,0.0,0.0,0.0,-1.0471975511965983
1666090346847710334,0.5900885462760925,0.0,0.0,0.0,0.0,-1.0471975511965983
1666090346939124484,0.6903303861618042,0.0,0.0,0.0,0.0,-1.2217304763960313
1666090346956451056,0.6904725432395934,0.0,0.0,0.0,0.0,-1.2217304763960313
1666090347054492822,0.5999801754951477,0.0,0.0,0.0,0.0,-1.2217304763960313
1666090347137421105,0.6988118886947632,0.0,0.0,0.0,0.0,-1.2217304763960313
1666090347211841510,0.7047293782234191,0.0,0.0,0.0,0.0,-1.2217304763960313
1666090347343697650,0.7280493974685669,0.0,0.0,0.0,0.0,-1.2217304763960313
1666090347416831290,0.7403985261917114,0.0,0.0,0.0,0.0,-1.2217304763960313
1666090347439574448,0.739829957485199,0.0,0.0,0.0,0.0,-1.2217304763960313
1666090347515262647,0.7552592754364014,0.0,0.0,0.0,0.0,-1.2217304763960313
1666090347616142593,0.7905359268188477,0.0,0.0,0.0,0.0,-1.2217304763960313
1666090347626483887,0.7898962497711182,0.0,0.0,0.0,0.0,-1.2217304763960313
1666090347671578859,0.7264822721481323,0.0,0.0,0.0,0.0,-1.2217304763960313
1666090347761452067,0.7999999999999999,0.0,0.0,0.0,0.0,-1.2217304763960313
1666090347892441873,0.7999999999999999,0.0,0.0,0.0,0.0,-1.2217304763960313
1666090347935278693,0.7999999999999999,0.0,0.0,0.0,0.0,-1.2217304763960313
1666090348013732686,0.1,0.0,0.0,0.0,0.0,-0.8726646259971653
1666090348090024927,0.1,0.0,0.0,0.0,0.0,-0.8726646259971653
1666090348153026655,0.1,0.0,0.0,0.0,0.0,-0.8726646259971653
1666090348279912446,0.1,0.0,0.0,0.0,0.0,-0.8726646259971653
1666090348321199313,0.1,0.0,0.0,0.0,0.0,-0.8726646259971653
1666090348364005121,0.1,0.0,0.0,0.0,0.0,-0.8726646259971653
1666090348494850039,0.1,0.0,0.0,0.0,0.0,-0.8726646259971653
1666090348570286839,0.1,0.0,0.0,0.0,0.0,-0.8726646259971653
1666090348661945852,0.1,0.0,0.0,0.0,0.0,-0.8726646259971653
1666090348747064478,0.1,0.0,0.0,0.0,0.0,-0.6981317007977323
1666090348791958632,0.1,0.0,0.0,0.0,0.0,-0.6981317007977323
1666090348838643985,0.1,0.0,0.0,0.0,0.0,-0.6981317007977323
1666090348915831054,0.1,0.0,0.0,0.0,0.0,-0.6981317007977323
1666090349003565456,0.1,0.0,0.0,0.0,0.0,-0.5235987755982994
1666090349047512661,0.1,0.0,0.0,0.0,0.0,-0.5235987755982994
1666090349136415896,0.1,0.0,0.0,0.0,0.0,-0.3490658503988664
1666090349211421706,0.1,0.0,0.0,0.0,0.0,-0.3490658503988664
1666090349255211212,0.1,0.0,0.0,0.0,0.0,-0.17453292519943345
1666090349348594833,0.1,0.0,0.0,0.0,0.0,-0.17453292519943345
1666090349489502813,0.1,0.0,0.0,0.0,0.0,-0.05355769023299217
1666090349509259226,0.1,0.0,0.0,0.0,0.0,-0.05183679237961769
1666090349600375270,0.1,0.0,0.0,0.0,0.0,-4.996003610813204e-16
1666090349691019691,0.7999999999999999,0.0,0.0,0.0,0.0,-0.17453292519943345
1666090349767111293,0.7999999999999999,0.0,0.0,0.0,0.0,0.058716222643852234
1666090349854888911,0.7999999999999999,0.0,0.0,0.0,0.0,-4.996003610813204e-16
1666090349947676671,0.7999999999999999,0.0,0.0,0.0,0.0,-4.996003610813204e-16
1666090349991153055,0.7999999999999999,0.0,0.0,0.0,0.0,-4.996003610813204e-16
1666090350047422021,0.7999999999999999,0.0,0.0,0.0,0.0,-4.996003610813204e-16
1666090350114010192,0.7999999999999999,0.0,0.0,0.0,0.0,-4.996003610813204e-16
1666090350199591364,0.7999999999999999,0.0,0.0,0.0,0.0,-4.996003610813204e-16
1666090350286373965,0.7999999999999999,0.0,0.0,0.0,0.0,0.17784662544727325
1666090350333868856,0.7999999999999999,0.0,0.0,0.0,0.0,0.18699993193149567
1666090350409288468,0.7999999999999999,0.0,0.0,0.0,0.0,0.18428759276866913
1666090350497983939,0.7999999999999999,0.0,0.0,0.0,0.0,0.19088990986347198
1666090350631939945,0.7999999999999999,0.0,0.0,0.0,0.0,0.19733452796936035
1666090350722719818,0.7999999999999999,0.0,0.0,0.0,0.0,0.1946585476398468
1666090350753765131,0.7999999999999999,0.0,0.0,0.0,0.0,0.19445766508579254
1666090350887597430,0.7999999999999999,0.0,0.0,0.0,0.0,0.1879866123199463
1666090350968938327,0.7999999999999999,0.0,0.0,0.0,0.0,0.18470175564289093
1666090351019683662,0.7999999999999999,0.0,0.0,0.0,0.0,0.5235987755982984
1666090351128653791,0.7999999999999999,0.0,0.0,0.0,0.0,0.5235987755982984
1666090351185774864,0.7784066796302794,0.0,0.0,0.0,0.0,0.5235987755982984
1666090351296921909,0.7404130697250365,0.0,0.0,0.0,0.0,0.5235987755982984
1666090351315411921,0.6999773383140564,0.0,0.0,0.0,0.0,0.3490658503988654
1666090351463127447,0.6595706939697266,0.0,0.0,0.0,0.0,0.17464451491832733
1666090351490128581,0.6250651478767395,0.0,0.0,0.0,0.0,0.1761469841003418
1666090351566199307,0.5776373147964476,0.0,0.0,0.0,0.0,0.17264112830162048
1666090351650585509,0.5301080942153931,0.0,0.0,0.0,0.0,0.1699974089860916
1666090351782628693,0.48184934258461,0.0,0.0,0.0,0.0,0.16548782587051392
1666090351872105461,0.43387463688850403,0.0,0.0,0.0,0.0,0.16077978909015656
1666090351948606782,0.39194419980049133,0.0,0.0,0.0,0.0,0.155197873711586
1666090352036809739,0.36021378636360163,0.0,0.0,0.0,0.0,0.17453292519943245
1666090352170461990,0.30388697981834406,0.0,0.0,0.0,0.0,0.3490658503988654
1666090352249733290,0.41350221633911133,0.0,0.0,0.0,0.0,1.0471975511965972
1666090352378172574,0.2663457691669464,0.0,0.0,0.0,0.0,1.0471975511965972
1666090352529772215,0.22822117805480954,0.0,0.0,0.0,0.0,1.2217304763960302
1666090352555864787,0.22886087000370026,0.0,0.0,0.0,0.0,1.2217304763960302
1666090352679130606,0.21846790611743921,0.0,0.0,0.0,0.0,1.2217304763960302
1666090352730549044,0.21464082598686218,0.0,0.0,0.0,0.0,1.2217304763960302
1666090352772893939,0.20976091921329498,0.0,0.0,0.0,0.0,1.2217304763960302
1666090352817538833,0.2104006111621856,0.0,0.0,0.0,0.0,1.2217304763960302
1666090352893016349,0.20816516876220703,0.0,0.0,0.0,0.0,1.2217304763960302
1666090353009764884,0.21640397608280182,0.0,0.0,0.0,0.0,1.2217304763960302
1666090353128979857,0.2213532775640487,0.0,0.0,0.0,0.0,1.2217304763960302
1666090353142386799,0.22078466415405268,0.0,0.0,0.0,0.0,1.2217304763960302
1666090353172194454,0.38026878237724304,0.0,0.0,0.0,0.0,1.2217304763960302
1666090353260322889,0.23000799119472504,0.0,0.0,0.0,0.0,1.2217304763960302
1666090353393089373,0.23832781612873077,0.0,0.0,0.0,0.0,1.2217304763960302
1666090353450760949,0.25496676564216614,0.0,0.0,0.0,0.0,0.6981317007977313
1666090353557945984,0.28709354996681213,0.0,0.0,0.0,0.0,0.3490658503988654
1666090353648512823,0.44974851608276367,0.0,0.0,0.0,0.0,0.29814407229423523
1666090353738430650,0.3465099632740021,0.0,0.0,0.0,0.0,0.21859310567378998
1666090353814598899,0.4138633608818054,0.0,0.0,0.0,0.0,0.21167652308940887
1666090353930832667,0.4629437327384948,0.0,0.0,0.0,0.0,0.20079047977924347
1666090353992266310,0.502490758895874,0.0,0.0,0.0,0.0,0.1964748352766037
1666090354064177912,0.6162617206573486,0.0,0.0,0.0,0.0,0.2757338881492615
1666090354070598745,0.6152666807174682,0.0,0.0,0.0,0.0,0.2757653295993805
1666090354163307031,0.6346874237060547,0.0,0.0,0.0,0.0,0.27605968713760376
1666090354248726382,0.5686039328575134,0.0,0.0,0.0,0.0,0.8726646259971643
1666090354292413939,0.5689059495925903,0.0,0.0,0.0,0.0,0.8726646259971643
1666090354352386162,0.5657819509506226,0.0,0.0,0.0,0.0,0.8726646259971643
1666090354463773166,0.565184473991394,0.0,0.0,0.0,0.0,0.8726646259971643
1666090354553069632,0.6487756967544556,0.0,0.0,0.0,0.0,0.8726646259971643
1666090354636936863,0.5534906387329102,0.0,0.0,0.0,0.0,0.8726646259971643
1666090354721785176,0.5485574007034302,0.0,0.0,0.0,0.0,1.0471975511965972
1666090354788416217,0.5382625460624695,0.0,0.0,0.0,0.0,1.0471975511965972
1666090354851090090,0.5312938690185547,0.0,0.0,0.0,0.0,1.0471975511965972
1666090354896568457,0.5313649773597717,0.0,0.0,0.0,0.0,1.0471975511965972
1666090355024240024,0.5237577557563782,0.0,0.0,0.0,0.0,1.0471975511965972
1666090355066851535,0.5236867070198059,0.0,0.0,0.0,0.0,1.0471975511965972
1666090355112389971,0.5184609889984131,0.0,0.0,0.0,0.0,1.0471975511965972
1666090355169292917,0.5188111662864685,0.0,0.0,0.0,0.0,1.0471975511965972
1666090355320238827,0.5258331894874573,0.0,0.0,0.0,0.0,1.0471975511965972
1666090355351069472,0.5408610105514526,0.0,0.0,0.0,0.0,0.8726646259971643
1666090355441475516,0.5553370118141174,0.0,0.0,0.0,0.0,0.8726646259971643
1666090355532247933,0.5649512410163879,0.0,0.0,0.0,0.0,0.8726646259971643
1666090355559476728,0.5626767873764038,0.0,0.0,0.0,0.0,0.8726646259971643
1666090355605660272,0.5813753008842467,0.0,0.0,0.0,0.0,0.8726646259971643
1666090355699486940,0.5963405966758727,0.0,0.0,0.0,0.0,0.6981317007977313
1666090355751871412,0.6059407591819763,0.0,0.0,0.0,0.0,0.6981317007977313
1666090355815448606,0.6169008612632751,0.0,0.0,0.0,0.0,0.6981317007977313
1666090355932253877,0.6834647059440612,0.0,0.0,0.0,0.0,0.6981317007977313
1666090355996773414,0.630878746509552,0.0,0.0,0.0,0.0,0.5235987755982984
1666090356068679235,0.6814674139022826,0.0,0.0,0.0,0.0,0.5235987755982984
1666090356070433250,0.6806145310401917,0.0,0.0,0.0,0.0,0.5235987755982984
1666090356155110547,0.6350299119949341,0.0,0.0,0.0,0.0,0.5235987755982984
1666090356231487485,0.6289846897125244,0.0,0.0,0.0,0.0,0.3490658503988654
1666090356368142625,0.6149854660034179,0.0,0.0,0.0,0.0,0.3490658503988654
1666090356415281591,0.601211667060852,0.0,0.0,0.0,0.0,0.3490658503988654
1666090356491370115,0.5932057499885559,0.0,0.0,0.0,0.0,0.17453292519943245
1666090356580508157,0.5809539556503296,0.0,0.0,0.0,0.0,0.17453292519943245
1666090356668075563,0.578484833240509,0.0,0.0,0.0,0.0,0.0789031833410263
1666090356755683296,0.5562000274658203,0.0,0.0,0.0,0.0,-4.996003610813204e-16
1666090356811033292,0.5451009273529053,0.0,0.0,0.0,0.0,-4.996003610813204e-16
1666090356921139494,0.5316535234451294,0.0,0.0,0.0,0.0,-0.0607331357896328
1666090357058680808,0.4947713613510132,0.0,0.0,0.0,0.0,-0.07929789274930954
1666090357098024039,0.4951978027820587,0.0,0.0,0.0,0.0,-0.07899419963359833
1666090357228763912,0.4394020736217498,0.0,0.0,0.0,0.0,-0.09708970040082932
1666090357306203371,0.41508713364601135,0.0,0.0,0.0,0.0,-0.10814220458269119
1666090357348919618,0.41508713364601135,0.0,0.0,0.0,0.0,-0.10816314071416855
1666090357392866476,0.0,0.0,0.0,0.0,0.0,-0.28265822280990266
1666090357512903405,0.0,0.0,0.0,0.0,0.0,-0.34183348623427556
1666090357688947476,0.0,0.0,0.0,0.0,0.0,-0.3990558516398189
1666090357733371666,0.0,0.0,0.0,0.0,0.0,-0.4753715778744821
1666090357796940522,0.0,0.0,0.0,0.0,0.0,-0.5235987755982994
1666090357907910649,0.0,0.0,0.0,0.0,0.0,-0.554326137208321
1666090357996886127,0.0,0.0,0.0,0.0,0.0,-0.576898909028596
1666090358070501389,0.0,0.0,0.0,0.0,0.0,-0.5883221720794349
1666090358205751492,0.0,0.0,0.0,0.0,0.0,-0.5977624940249208
1666090358340179508,0.4195280969142914,0.0,0.0,0.0,0.0,-0.1816483438014984
1666090358352445836,0.44278827309608454,0.0,0.0,0.0,0.0,-0.18725372850894928
1666090358460701667,0.4782697558403015,0.0,0.0,0.0,0.0,-0.19859103858470917
1666090358507376592,0.47805655002593994,0.0,0.0,0.0,0.0,-0.19846190512180328
1666090358595214206,0.5118973851203918,0.0,0.0,0.0,0.0,-0.2009432315826416
1666090358652701950,0.5741143822669983,0.0,0.0,0.0,0.0,-0.20737113058567047
1666090358714683248,0.6010015606880188,0.0,0.0,0.0,0.0,-0.20002999901771545
1666090358764765327,0.600148618221283,0.0,0.0,0.0,0.0,-0.20041047036647797
1666090358903341868,0.6459125876426697,0.0,0.0,0.0,0.0,-0.18992522358894348
1666090359042051342,0.6720640659332275,0.0,0.0,0.0,0.0,-0.1844581663608551
1666090359064629221,0.6999143958091735,0.0,0.0,0.0,0.0,-0.17917031049728394
1666090359144403300,0.7289460897445679,0.0,0.0,0.0,0.0,-0.17422212660312653
1666090359196657627,0.7282353639602661,0.0,0.0,0.0,0.0,-0.1743687093257904
1666090359240605433,0.718658149242401,0.0,0.0,0.0,0.0,-0.07868121564388275
1666090359407925241,0.7999999999999999,0.0,0.0,0.0,0.0,-4.996003610813204e-16
1666090359538918362,0.7999999999999999,0.0,0.0,0.0,0.0,-0.14828398823738098
1666090359552250391,0.7999999999999999,0.0,0.0,0.0,0.0,-0.14057525992393494
1666090359652892077,0.7999999999999999,0.0,0.0,0.0,0.0,-4.996003610813204e-16
1666090359663832813,0.7999999999999999,0.0,0.0,0.0,0.0,-4.996003610813204e-16
1666090359797164614,0.7999999999999999,0.0,0.0,0.0,0.0,-4.996003610813204e-16
1666090359840018387,0.7999999999999999,0.0,0.0,0.0,0.0,-4.996003610813204e-16
1666090359854106130,0.7999999999999999,0.0,0.0,0.0,0.0,-4.996003610813204e-16
1666090359961313932,0.7999999999999999,0.0,0.0,0.0,0.0,-4.996003610813204e-16
1666090360048954781,0.7999999999999999,0.0,0.0,0.0,0.0,-0.11698538810014725
1666090360136456527,0.7999999999999999,0.0,0.0,0.0,0.0,-0.11375167965888977
1666090360179581262,0.7999999999999999,0.0,0.0,0.0,0.0,-0.11117766797542572
1666090360305254401,0.7999999999999999,0.0,0.0,0.0,0.0,-0.027307966724038124
1666090360395851456,0.7999999999999999,0.0,0.0,0.0,0.0,-0.027578432112932205
1666090360454153572,0.7999999999999999,0.0,0.0,0.0,0.0,-0.10872839391231537
1666090360523826189,0.7999999999999999,0.0,0.0,0.0,0.0,-0.10781343281269073
1666090360609150659,0.7999999999999999,0.0,0.0,0.0,0.0,-0.10497090965509415
1666090360695341501,0.7999999999999999,0.0,0.0,0.0,0.0,-0.17453292519943345
1666090360756437718,0.7999999999999999,0.0,0.0,0.0,0.0,-0.17453292519943345
1666090360861355308,0.7999999999999999,0.0,0.0,0.0,0.0,-0.17453292519943345
1666090360948747952,0.7999999999999999,0.0,0.0,0.0,0.0,-0.17453292519943345
1666090361034944265,0.7999999999999999,0.0,0.0,0.0,0.0,-0.17453292519943345
1666090361116368279,0.7999999999999999,0.0,0.0,0.0,0.0,-0.17453292519943345
1666090361164939446,0.7999999999999999,0.0,0.0,0.0,0.0,-0.3490658503988664
1666090361206898891,0.7999999999999999,0.0,0.0,0.0,0.0,-0.3490658503988664
1666090361293574118,0.7999999999999999,0.0,0.0,0.0,0.0,-0.3490658503988664
1666090361379206136,0.7999999999999999,0.0,0.0,0.0,0.0,-0.3490658503988664
1666090361490748757,0.7999999999999999,0.0,0.0,0.0,0.0,-0.3490658503988664
1666090361499806997,0.7989324331283568,0.0,0.0,0.0,0.0,-0.3490658503988664
1666090361598409007,0.7960942387580872,0.0,0.0,0.0,0.0,-0.3490658503988664
1666090361633195737,0.7932019829750061,0.0,0.0,0.0,0.0,-0.3490658503988664
1666090361721915294,0.7894651889801025,0.0,0.0,0.0,0.0,-0.3490658503988664
1666090361795076062,0.7823845744132994,0.0,0.0,0.0,0.0,-0.3490658503988664
1666090361885859463,0.7735168337821959,0.0,0.0,0.0,0.0,-0.5235987755982994
1666090361957133565,0.7497777938842773,0.0,0.0,0.0,0.0,-0.5235987755982994
1666090362023220521,0.7345435619354247,0.0,0.0,0.0,0.0,-0.5235987755982994
1666090362073760920,0.6800949573516846,0.0,0.0,0.0,0.0,-0.5235987755982994
1666090362076699503,0.6802371144294739,0.0,0.0,0.0,0.0,-0.5235987755982994
1666090362183839821,0.7136229276657104,0.0,0.0,0.0,0.0,-0.5235987755982994
1666090362230197134,0.7036244273185729,0.0,0.0,0.0,0.0,-0.5235987755982994
1666090362360198419,0.6923444271087646,0.0,0.0,0.0,0.0,-0.5235987755982994
1666090362377353624,0.6676293015480042,0.0,0.0,0.0,0.0,-0.5235987755982994
1666090362487659425,0.6411214470863342,0.0,0.0,0.0,0.0,-0.3490658503988664
1666090362625662438,0.5477268695831299,0.0,0.0,0.0,0.0,-0.3490658503988664
1666090362724138608,0.549294650554657,0.0,0.0,0.0,0.0,-0.17453292519943345
1666090362739644803,0.551995575428009,0.0,0.0,0.0,0.0,-0.17453292519943345
1666090362795866862,0.5217635035514832,0.0,0.0,0.0,0.0,-0.17453292519943345
1666090362904193093,0.45969247817993164,0.0,0.0,0.0,0.0,-4.996003610813204e-16
1666090362949331585,0.4597635567188263,0.0,0.0,0.0,0.0,-4.996003610813204e-16
1666090363036697958,0.41899105906486506,0.0,0.0,0.0,0.0,-4.996003610813204e-16
1666090363106215627,0.39946839213371277,0.0,0.0,0.0,0.0,-0.0390944629907608
1666090363206627170,0.3771083950996399,0.0,0.0,0.0,0.0,-0.0342213474214077
1666090363303129478,0.0,0.0,0.0,0.0,0.0,0.17453292519943245
1666090363334637000,0.0,0.0,0.0,0.0,0.0,0.17453292519943245
1666090363437005332,0.4070412814617157,0.0,0.0,0.0,0.0,0.3490658503988654
1666090363457150419,0.4115191400051117,0.0,0.0,0.0,0.0,0.3490658503988654
1666090363504559016,0.3719761073589325,0.0,0.0,0.0,0.0,0.3490658503988654
1666090363637091249,0.37110602855682373,0.0,0.0,0.0,0.0,0.3490658503988654
1666090363723828096,0.3749805986881256,0.0,0.0,0.0,0.0,0.5235987755982984
1666090363755205664,0.37682342529296875,0.0,0.0,0.0,0.0,0.5235987755982984
1666090363845945269,0.38354572653770447,0.0,0.0,0.0,0.0,0.5235987755982984
1666090363982368764,0.3914424777030945,0.0,0.0,0.0,0.0,0.5235987755982984
1666090364059445848,0.4102049767971038,0.0,0.0,0.0,0.0,0.5235987755982984
1666090364102997570,0.4103471338748932,0.0,0.0,0.0,0.0,0.5235987755982984
1666090364152217897,0.42725902795791626,0.0,0.0,0.0,0.0,0.5235987755982984
1666090364224007134,0.43622311949729914,0.0,0.0,0.0,0.0,0.5235987755982984
1666090364359578874,0.46139222383499146,0.0,0.0,0.0,0.0,0.5235987755982984
1666090364403863267,0.460539311170578,0.0,0.0,0.0,0.0,0.5235987755982984
1666090364481174155,0.4707200825214386,0.0,0.0,0.0,0.0,0.5235987755982984
1666090364522200010,0.48086297512054443,0.0,0.0,0.0,0.0,0.5235987755982984
1666090364612128992,0.4908956587314605,0.0,0.0,0.0,0.0,0.5235987755982984
1666090364699207009,0.5248938798904419,0.0,0.0,0.0,0.0,0.5235987755982984
1666090364799765443,0.5422285199165344,0.0,0.0,0.0,0.0,0.5235987755982984
1666090364821086407,0.6107521653175354,0.0,0.0,0.0,0.0,0.5235987755982984
1666090364933405302,0.5652350187301636,0.0,0.0,0.0,0.0,0.5235987755982984
1666090364951594045,0.5648085474967957,0.0,0.0,0.0,0.0,0.5235987755982984
1666090365035381468,0.5840256810188293,0.0,0.0,0.0,0.0,0.5235987755982984
1666090365096271981,0.5898209214210509,0.0,0.0,0.0,0.0,0.3490658503988654
1666090365098711926,0.5900341868400574,0.0,0.0,0.0,0.0,0.3490658503988654
1666090365251854879,0.5933676362037659,0.0,0.0,0.0,0.0,0.3490658503988654
1666090365296505558,0.5948065519332886,0.0,0.0,0.0,0.0,0.3490658503988654
1666090365385407963,0.5942853093147277,0.0,0.0,0.0,0.0,0.3490658503988654
1666090365416528483,0.6079416871070862,0.0,0.0,0.0,0.0,0.3490658503988654
1666090365547666358,0.5592015385627747,0.0,0.0,0.0,0.0,0.3490658503988654
1666090365648340567,0.5485261678695678,0.0,0.0,0.0,0.0,0.17453292519943245
1666090365778559825,0.5087241530418396,0.0,0.0,0.0,0.0,0.17453292519943245
1666090365805916052,0.5095060467720032,0.0,0.0,0.0,0.0,0.17453292519943245
1666090365892534250,0.4325366616249084,0.0,0.0,0.0,0.0,0.3490658503988654
1666090365937115221,0.40469780564308167,0.0,0.0,0.0,0.0,0.3490658503988654
1666090365981037436,0.40405809879302973,0.0,0.0,0.0,0.0,0.3490658503988654
1666090366018388618,0.42422440648078913,0.0,0.0,0.0,0.0,0.3490658503988654
1666090366037827853,0.42550376057624817,0.0,0.0,0.0,0.0,0.3490658503988654
1666090366143060930,0.4029577374458313,0.0,0.0,0.0,0.0,0.5235987755982984
1666090366277229952,0.0,0.0,0.0,0.0,0.0,0.38355133527865015
1666090366325538315,0.0,0.0,0.0,0.0,0.0,0.40001244240619305
1666090366398102821,0.0,0.0,0.0,0.0,0.0,0.43366949845768515
1666090366530054399,0.0,0.0,0.0,0.0,0.0,0.46915045694445195
1666090366621878110,0.0,0.0,0.0,0.0,0.0,0.4795322343476346
1666090366671615425,0.0,0.0,0.0,0.0,0.0,0.46886217493489496
1666090366674242901,0.0,0.0,0.0,0.0,0.0,0.4590386397345407
1666090366781407858,0.0,0.0,0.0,0.0,0.0,0.47054725556347976
1666090366914072106,0.0,0.0,0.0,0.0,0.0,0.4508989959094486
1666090367003523654,0.0,0.0,0.0,0.0,0.0,0.41073522586902245
1666090367016446088,0.0,0.0,0.0,0.0,0.0,0.3628848238976286
1666090367120734409,0.0,0.0,0.0,0.0,0.0,0.3436288795206607
1666090367208793709,0.0,0.0,0.0,0.0,0.0,0.29601466051500247
1666090367342555430,0.0,0.0,0.0,0.0,0.0,0.17453292519943245
1666090367420960139,0.0,0.0,0.0,0.0,0.0,0.17453292519943245
1666090367467510951,0.0,0.0,0.0,0.0,0.0,0.17453292519943245
1666090367553853453,0.0,0.0,0.0,0.0,0.0,-4.996003610813204e-16
1666090367596780222,0.0,0.0,0.0,0.0,0.0,-4.996003610813204e-16
1666090367660941361,0.0,0.0,0.0,0.0,0.0,-4.996003610813204e-16
1666090367809246968,0.0,0.0,0.0,0.0,0.0,-4.996003610813204e-16
1666090367902651135,0.0,0.0,0.0,0.0,0.0,-4.996003610813204e-16
1666090367977107863,0.0,0.0,0.0,0.0,0.0,-4.996003610813204e-16
1666090368059501063,0.0,0.0,0.0,0.0,0.0,-4.996003610813204e-16
1666090368109005627,0.0,0.0,0.0,0.0,0.0,-4.996003610813204e-16
1666090368205001329,0.0,0.0,0.0,0.0,0.0,-4.996003610813204e-16
1666090368230134965,0.0,0.0,0.0,0.0,0.0,-4.996003610813204e-16
1666090368237297000,0.0,0.0,0.0,0.0,0.0,-4.996003610813204e-16
1666090368410404761,0.0,0.0,0.0,0.0,0.0,-4.996003610813204e-16
1666090368477620996,0.0,0.0,0.0,0.0,0.0,-4.996003610813204e-16
1666090368621451990,0.0,0.0,0.0,0.0,0.0,-4.996003610813204e-16
1666090368666437747,0.0,0.0,0.0,0.0,0.0,-4.996003610813204e-16
1666090368753800514,0.0,0.0,0.0,0.0,0.0,-4.996003610813204e-16
1666090368841225618,0.0,0.0,0.0,0.0,0.0,-4.996003610813204e-16
1666090368920996928,0.0,0.0,0.0,0.0,0.0,-4.996003610813204e-16
1666090368966595394,0.0,0.0,0.0,0.0,0.0,-4.996003610813204e-16
1666090369060189225,0.0,0.0,0.0,0.0,0.0,-4.996003610813204e-16
1666090369151073705,0.0,0.0,0.0,0.0,0.0,-4.996003610813204e-16
1666090369266037381,0.0,0.0,0.0,0.0,0.0,-4.996003610813204e-16
1666090369353749542,0.0,0.0,0.0,0.0,0.0,-4.996003610813204e-16
1666090369404236608,0.0,0.0,0.0,0.0,0.0,-4.996003610813204e-16
1666090369476899092,0.0,0.0,0.0,0.0,0.0,-4.996003610813204e-16
1666090369604850052,0.0,0.0,0.0,0.0,0.0,-4.996003610813204e-16
1666090369693091315,0.0,0.0,0.0,0.0,0.0,-4.996003610813204e-16
1666090369782337725,0.0,0.0,0.0,0.0,0.0,-4.996003610813204e-16
1666090369817714332,0.0,0.0,0.0,0.0,0.0,0.17453292519943245
1666090369949584412,0.0,0.0,0.0,0.0,0.0,0.17453292519943245
1666090370045855226,0.0,0.0,0.0,0.0,0.0,0.17453292519943245
1666090370086312519,0.0,0.0,0.0,0.0,0.0,0.17453292519943245
1666090370161061873,0.0,0.0,0.0,0.0,0.0,0.22459318400300757
1666090370248964696,0.0,0.0,0.0,0.0,0.0,0.237978503028565
1666090370342442555,0.0,0.0,0.0,0.0,0.0,0.251220060500546
1666090370398632364,0.0,0.0,0.0,0.0,0.0,0.2508885015300915
1666090370460741457,0.0,0.0,0.0,0.0,0.0,0.2508123567604181
1666090370553829011,0.0,0.0,0.0,0.0,0.0,0.2492163024282059
1666090370597681229,0.0,0.0,0.0,0.0,0.0,0.2348698318025591
1666090370642078140,0.0,0.0,0.0,0.0,0.0,0.227788297083189
1666090370723315215,0.0,0.0,0.0,0.0,0.0,0.22005107703297727
1666090370817561946,0.0,0.0,0.0,0.0,0.0,0.17453292519943245
1666090370945774275,0.0,0.0,0.0,0.0,0.0,0.17453292519943245
1666090370991799347,0.0,0.0,0.0,0.0,0.0,0.17453292519943245
1666090371078024100,0.0,0.0,0.0,0.0,0.0,0.17453292519943245
1666090371171908057,0.0,0.0,0.0,0.0,0.0,0.17453292519943245
1666090371196872589,0.0,0.0,0.0,0.0,0.0,0.17453292519943245
1666090371338333189,0.0,0.0,0.0,0.0,0.0,0.17453292519943245
1666090371377148880,0.0,0.0,0.0,0.0,0.0,0.17453292519943245
1666090371465427748,0.0,0.0,0.0,0.0,0.0,0.17453292519943245
1666090371545865391,0.0,0.0,0.0,0.0,0.0,-4.996003610813204e-16
1666090371609257346,0.0,0.0,0.0,0.0,0.0,-4.996003610813204e-16
1666090371772598057,0.0,0.0,0.0,0.0,0.0,-4.996003610813204e-16
1666090371842010905,0.0,0.0,0.0,0.0,0.0,-4.996003610813204e-16
