%time,field.linear.x,field.linear.y,field.linear.z,field.angular.x,field.angular.y,field.angular.z
1666089363546331616,0.0,0.0,0.0,0.0,0.0,0.0
1666089363566215828,0.0,0.0,0.0,0.0,0.0,0.0
1666089363586064230,0.0,0.0,0.0,0.0,0.0,0.0
1666089363606063478,0.0,0.0,0.0,0.0,0.0,0.0
1666089363625032818,0.0,0.0,0.0,0.0,0.0,0.0
1666089363645994981,0.0,0.0,0.0,0.0,0.0,0.0
1666089363666033473,0.0,0.0,0.0,0.0,0.0,0.0
1666089363686029583,0.0,0.0,0.0,0.0,0.0,0.0
1666089363706025493,0.0,0.0,0.0,0.0,0.0,0.0
1666089363748025587,0.0,0.0,0.0,0.0,0.0,0.0
1666089363748034193,0.0,0.0,0.0,0.0,0.0,0.0
1666089363792031072,0.0,0.0,0.0,0.0,0.0,0.0
1666089363792039281,0.0,0.0,0.0,0.0,0.0,0.0
1666089363836050325,0.0,0.0,0.0,0.0,0.0,0.0
1666089363836058494,0.0,0.0,0.0,0.0,0.0,0.0
1666089363880063870,0.0,0.0,0.0,0.0,0.0,0.0
1666089363880071864,0.0,0.0,0.0,0.0,0.0,0.0
1666089363924033543,0.0,0.0,0.0,0.0,0.0,0.0
1666089363924046388,0.0,0.0,0.0,0.0,0.0,0.0
1666089363972027676,0.0,0.0,0.0,0.0,0.0,0.0
1666089363972037988,0.0,0.0,0.0,0.0,0.0,0.0
1666089363972046637,0.0,0.0,0.0,0.0,0.0,0.0
1666089364016029599,0.0,0.0,0.0,0.0,0.0,0.0
1666089364016041414,0.0,0.0,0.0,0.0,0.0,0.0
1666089364025850188,0.0,0.0,0.0,0.0,0.0,0.0
1666089364045895998,0.0,0.0,0.0,0.0,0.0,0.0
1666089364088029750,0.0,0.0,0.0,0.0,0.0,0.0
1666089364088036032,0.0,0.0,0.0,0.0,0.0,0.0
1666089364132037543,0.0,0.0,0.0,0.0,0.0,0.0
1666089364132046719,0.0,0.0,0.0,0.0,0.0,0.0
1666089364176021610,0.0,0.0,0.0,0.0,0.0,0.0
1666089364176028317,0.0,0.0,0.0,0.0,0.0,0.0
1666089364220022120,0.0,0.0,0.0,0.0,0.0,0.0
1666089364220030001,0.0,0.0,0.0,0.0,0.0,0.0
1666089364264024269,0.0,0.0,0.0,0.0,0.0,0.0
1666089364264038723,0.0,0.0,0.0,0.0,0.0,0.0
1666089364308027909,0.0,0.0,0.0,0.0,0.0,0.0
1666089364308039229,0.0,0.0,0.0,0.0,0.0,0.0
1666089364308045469,0.0,0.0,0.0,0.0,0.0,0.0
1666089364356023201,0.0,0.0,0.0,0.0,0.0,0.0
1666089364356028333,0.0,0.0,0.0,0.0,0.0,0.0
1666089364366807687,0.0,0.0,0.0,0.0,0.0,0.0
1666089364385776719,0.0,0.0,0.0,0.0,0.0,0.0
1666089364428045981,0.0,0.0,0.0,0.0,0.0,0.0
1666089364428056224,0.0,0.0,0.0,0.0,0.0,0.0
1666089364476032051,0.0,0.0,0.0,0.0,0.0,0.0
1666089364476046674,0.0,0.0,0.0,0.0,0.0,0.0
1666089364520025963,0.0,0.0,0.0,0.0,0.0,0.0
1666089364520037519,0.0,0.0,0.0,0.0,0.0,0.0
1666089364564024496,0.0,0.0,0.0,0.0,0.0,0.0
1666089364564029756,0.0,0.0,0.0,0.0,0.0,0.0
1666089364608045274,0.0,0.0,0.0,0.0,0.0,0.0
1666089364608052045,0.0,0.0,0.0,0.0,0.0,0.0
1666089364608062205,0.0,0.0,0.0,0.0,0.0,0.0
1666089364656098295,0.0,0.0,0.0,0.0,0.0,0.0
1666089364656111868,0.0,0.0,0.0,0.0,0.0,0.0
1666089364666680868,0.0,0.0,0.0,0.0,0.0,0.0
1666089364686679346,0.0,0.0,0.0,0.0,0.0,0.0
1666089364728044583,0.0,0.0,0.0,0.0,0.0,0.0
1666089364728056527,0.0,0.0,0.0,0.0,0.0,0.0
1666089364776043933,0.0,0.0,0.0,0.0,0.0,0.0
1666089364776058767,0.0,0.0,0.0,0.0,0.0,0.0
1666089364820042471,0.0,0.0,0.0,0.0,0.0,0.0
1666089364820056087,0.0,0.0,0.0,0.0,0.0,0.0
1666089364868037657,0.0,0.0,0.0,0.0,0.0,0.0
1666089364868047904,0.0,0.0,0.0,0.0,0.0,0.0
1666089364868051042,0.0,0.0,0.0,0.0,0.0,0.0
1666089364912035362,0.0,0.0,0.0,0.0,0.0,0.0
1666089364912050295,0.0,0.0,0.0,0.0,0.0,0.0
1666089364927575134,0.0,0.0,0.0,0.0,0.0,0.0
1666089364946577307,0.0,0.0,0.0,0.0,0.0,0.0
1666089364988038671,0.0,0.0,0.0,0.0,0.0,0.0
1666089364988051553,0.0,0.0,0.0,0.0,0.0,0.0
1666089365032058510,0.0,0.0,0.0,0.0,0.0,0.0
1666089365032064900,0.0,0.0,0.0,0.0,0.0,0.0
1666089365076143180,0.0,0.0,0.0,0.0,0.0,0.0
1666089365076175519,0.0,0.0,0.0,0.0,0.0,0.0
1666089365120047470,0.0,0.0,0.0,0.0,0.0,0.0
1666089365120059975,0.0,0.0,0.0,0.0,0.0,0.0
1666089365164032225,0.0,0.0,0.0,0.0,0.0,0.0
1666089365164040960,0.0,0.0,0.0,0.0,0.0,0.0
1666089365208035490,0.0,0.0,0.0,0.0,0.0,0.0
1666089365208047815,0.0,0.0,0.0,0.0,0.0,0.0
1666089365208053683,0.0,0.0,0.0,0.0,0.0,0.0
1666089365252246372,0.0,0.0,0.0,0.0,0.0,0.0
1666089365252257589,0.0,0.0,0.0,0.0,0.0,0.0
1666089365266412078,0.0,0.0,0.0,0.0,0.0,0.0
1666089365286453943,0.0,0.0,0.0,0.0,0.0,0.0
1666089365328042728,0.0,0.0,0.0,0.0,0.0,0.0
1666089365328053179,0.0,0.0,0.0,0.0,0.0,0.0
1666089365372032962,0.0,0.0,0.0,0.0,0.0,0.0
1666089365372042886,0.0,0.0,0.0,0.0,0.0,0.0
1666089365416070583,0.0,0.0,0.0,0.0,0.0,0.0
1666089365416079377,0.0,0.0,0.0,0.0,0.0,0.0
1666089365460092668,0.0,0.0,0.0,0.0,0.0,0.0
1666089365460102279,0.0,0.0,0.0,0.0,0.0,0.0
1666089365504141485,0.0,0.0,0.0,0.0,0.0,0.0
1666089365504158358,0.0,0.0,0.0,0.0,0.0,0.0
1666089365552041852,0.0,0.0,0.0,0.0,0.0,0.0
1666089365552051750,0.0,0.0,0.0,0.0,0.0,0.0
1666089365552060931,0.0,0.0,0.0,0.0,0.0,0.0
1666089365596031783,0.0,0.0,0.0,0.0,0.0,0.0
1666089365596040923,0.0,0.0,0.0,0.0,0.0,0.0
1666089365607276749,0.0,0.0,0.0,0.0,0.0,0.0
1666089365626249082,0.0,0.0,0.0,0.0,0.0,0.0
1666089365668262931,0.0,0.0,0.0,0.0,0.0,0.0
1666089365716206106,0.0,0.0,0.0,0.0,0.0,0.0
1666089365716230965,0.0,0.0,0.0,0.0,0.0,0.0
1666089365716236957,0.0,0.0,0.0,0.0,0.0,0.0
1666089365764223475,0.0,0.0,0.0,0.0,0.0,0.0
1666089365764282895,0.0,0.0,0.0,0.0,0.0,0.0
1666089365767768296,0.0,0.0,0.0,0.0,0.0,0.0
1666089365787322810,0.0,0.0,0.0,0.0,0.0,0.0
1666089365828052711,0.0,0.0,0.0,0.0,0.0,0.0
1666089365828065391,0.0,0.0,0.0,0.0,0.0,0.0
1666089365876332169,0.0,0.0,0.0,0.0,0.0,0.0
1666089365876341416,0.0,0.0,0.0,0.0,0.0,0.0
1666089365920097100,0.0,0.0,0.0,0.0,0.0,0.0
1666089365920111981,0.0,0.0,0.0,0.0,0.0,0.0
1666089365964096208,0.0,0.0,0.0,0.0,0.0,0.0
1666089365964131303,0.0,0.0,0.0,0.0,0.0,0.0
1666089366008180967,0.0,0.0,0.0,0.0,0.0,0.0
1666089366008207676,0.0,0.0,0.0,0.0,0.0,0.0
1666089366008234890,0.0,0.0,0.0,0.0,0.0,0.0
1666089366052234389,0.0,0.0,0.0,0.0,0.0,0.0
1666089366052266424,0.0,0.0,0.0,0.0,0.0,0.0
1666089366068036774,-0.002132302208337933,0.0,0.0,0.0,0.0,-0.0010471975511965976
1666089366087552763,0.0,0.0,0.0,0.0,0.0,0.0
1666089366128098728,0.0,0.0,0.0,0.0,0.0,0.0
1666089366128112404,0.0,0.0,0.0,0.0,0.0,0.0
1666089366172063941,0.0,0.0,0.0,0.0,0.0,0.0
1666089366172074624,0.0,0.0,0.0,0.0,0.0,0.0
1666089366216056152,0.0,0.0,0.0,0.0,0.0,0.0
1666089366216068901,0.0,0.0,0.0,0.0,0.0,0.008377580409572781
1666089366264050037,0.0,0.0,0.0,0.0,0.0,0.008552113334772213
1666089366264061732,0.0,0.0,0.0,0.0,0.0,0.008377580409572781
1666089366308097436,0.0,0.0,0.0,0.0,0.0,0.00645771823237902
1666089366308115909,0.0,0.0,0.0,0.0,0.0,0.0
1666089366352042350,0.0,0.0,0.0,0.0,0.0,0.0
1666089366352052547,0.002132302208337933,0.0,0.0,0.0,0.0,0.0
1666089366352062574,0.0,0.0,0.0,0.0,0.0,0.0
1666089366396046446,0.0,0.0,0.0,0.0,0.0,0.0
1666089366396057873,0.0,0.0,0.0,0.0,0.0,0.0
1666089366407031423,-0.002132302208337933,0.0,0.0,0.0,0.0,0.0
1666089366427148016,-0.004264604416675866,0.0,0.0,0.0,0.0,0.0
1666089366472040157,-0.008529208833351731,0.0,0.0,0.0,0.0,0.0006981317007977319
1666089366472050804,-0.006396906625013799,0.0,0.0,0.0,0.0,0.0019198621771937623
1666089366516048113,0.0,0.0,0.0,0.0,0.0,0.0
1666089366516058945,0.0,0.0,0.0,0.0,0.0,0.0
1666089366560067024,0.0,0.0,0.0,0.0,0.0,0.0
1666089366560076895,0.0,0.0,0.0,0.0,0.0,0.0
1666089366604090654,0.0,0.0,0.0,0.0,0.0,0.0
1666089366604117504,0.0,0.0,0.0,0.0,0.0,0.0
1666089366648058460,0.0,0.0,0.0,0.0,0.0,0.0
1666089366648070365,0.0,0.0,0.0,0.0,0.0,0.0
1666089366648077045,0.0,0.0,0.0,0.0,0.0,0.0
1666089366692047596,0.0,0.0,0.0,0.0,0.0,0.0
1666089366692078076,0.0,0.0,0.0,0.0,0.0,0.0
1666089366707200957,0.0,0.0,0.0,0.0,0.0,0.0
1666089366727009178,0.0,0.0,0.0,0.0,0.0,0.0
1666089366772071316,0.0,0.0,0.0,0.0,0.0,0.0
1666089366772084377,0.0,0.0,0.0,0.0,0.0,0.0
1666089366816072410,0.0,0.0,0.0,0.0,0.0,0.0
1666089366816083828,0.0,0.0,0.0,0.0,0.0,0.0
1666089366860072479,0.0,0.0,0.0,0.0,0.0,0.0
1666089366860085036,0.0,0.0,0.0,0.0,0.0,0.0
1666089366904118336,0.0,0.0,0.0,0.0,0.0,0.0
1666089366904135660,0.0,0.0,0.0,0.0,0.0,0.0
1666089366948082347,0.0,0.0,0.0,0.0,0.0,0.0
1666089366948096108,0.0,0.0,0.0,0.0,0.0,0.0
1666089366948100911,0.0,0.0,0.0,0.0,0.0,0.0
1666089366996058223,0.0,0.0,0.0,0.0,0.0,0.0
1666089366996071563,0.0,0.0,0.0,0.0,0.0,0.0
1666089367008098257,0.0,0.0,0.0,0.0,0.0,0.0
1666089367028200425,0.0,0.0,0.0,0.0,0.0,0.0
1666089367072097539,0.0,0.0,0.0,0.0,0.0,0.0
1666089367072111930,0.0,0.0,0.0,0.0,0.0,0.0
1666089367116113231,0.0,0.0,0.0,0.0,0.0,0.0
1666089367116125710,0.0,0.0,0.0,0.0,0.0,0.0
1666089367160064332,0.0,0.0,0.0,0.0,0.0,0.0
1666089367160079176,0.0,0.0,0.0,0.0,0.0,0.0
1666089367204126149,0.0,0.0,0.0,0.0,0.0,0.0
1666089367204142532,0.0,0.0,0.0,0.0,0.0,0.0
1666089367248061760,0.0,0.0,0.0,0.0,0.0,0.0
1666089367248075790,0.0,0.0,0.0,0.0,0.0,0.0
1666089367248084665,0.0,0.0,0.0,0.0,0.0,0.0
1666089367292077794,0.0,0.0,0.0,0.0,0.0,0.0
1666089367292098949,0.0,0.0,0.0,0.0,0.0,0.0
1666089367307840207,0.0,0.0,0.0,0.0,0.0,0.0
1666089367327906595,0.0,0.0,0.0,0.0,0.0,0.0
1666089367370150958,0.0,0.0,0.0,0.0,0.0,0.0
1666089367412118399,0.0,0.0,0.0,0.0,0.0,0.0
1666089367412136245,0.0,0.0,0.0,0.0,0.0,0.0
1666089367412142844,0.0,0.0,0.0,0.0,0.0,0.0
1666089367456076630,0.0,0.0,0.0,0.0,0.0,0.0
1666089367456091379,0.0,0.0,0.0,0.0,0.0,0.0
1666089367467959665,0.0,0.0,0.0,0.0,0.0,0.0
1666089367487950476,0.0,0.0,0.0,0.0,0.0,0.0
1666089367528118503,0.0,0.0,0.0,0.0,0.0,0.0
1666089367572121699,0.0,0.0,0.0,0.0,0.0,0.0
1666089367572133743,0.0,0.0,0.0,0.0,0.0,0.0
1666089367572149190,0.0,0.0,0.0,0.0,0.0,0.0
1666089367620039658,0.0,0.0,0.0,0.0,0.0,0.0
1666089367620051104,0.0,0.0,0.0,0.0,0.0,0.0
1666089367627678155,0.0,0.0,0.0,0.0,0.0,0.0
1666089367648559712,0.0,0.0,0.0,0.0,0.0,0.0
1666089367692090673,0.0,0.0,0.0,0.0,0.0,0.0
1666089367692102736,0.0,0.0,0.0,0.0,0.0,0.0
1666089367736088016,0.0,0.0,0.0,0.0,0.0,0.0
1666089367736098626,0.0,0.0,0.0,0.0,0.0,0.0
1666089367784390205,0.0,0.0,0.0,0.0,0.0,0.0
1666089367784465642,0.0,0.0,0.0,0.0,0.0,0.0
1666089367828067832,0.0,0.0,0.0,0.0,0.0,0.0
1666089367828076467,0.0,0.0,0.0,0.0,0.0,0.0
1666089367872101204,0.0,0.0,0.0,0.0,0.0,0.0
1666089367872119276,0.0,0.0,0.0,0.0,0.0,0.0
1666089367872132146,0.0,0.0,0.0,0.0,0.0,0.0
1666089367916127414,0.0,0.0,0.0,0.0,0.0,0.0
1666089367916141055,0.0,0.0,0.0,0.0,0.0,0.0
1666089367928692900,0.0,0.0,0.0,0.0,0.0,0.0
1666089367949281801,0.0,0.0,0.0,0.0,0.0,0.0
1666089367992088746,0.0,0.0,0.0,0.0,0.0,0.0
1666089367992118411,0.0,0.0,0.0,0.0,0.0,0.0
1666089368036077844,0.0,0.0,0.0,0.0,0.0,0.0
1666089368036095060,0.0,0.0,0.0,0.0,0.0,0.0
1666089368084086911,0.0,0.0,0.0,0.0,0.0,0.0
1666089368084102645,0.0,0.0,0.0,0.0,0.0,0.0
1666089368128069873,0.0,0.0,0.0,0.0,0.0,0.0
1666089368128085980,0.0,0.0,0.0,0.0,0.0,0.0
1666089368172071848,0.0,0.0,0.0,0.0,0.0,0.0
1666089368172086614,0.0,0.0,0.0,0.0,0.0,0.0
1666089368172121080,0.0,0.0,0.0,0.0,0.0,0.0
1666089368216557184,0.0,0.0,0.0,0.0,0.0,0.0
1666089368216587772,0.0,0.0,0.0,0.0,0.0,0.0
1666089368228927388,0.0,0.0,0.0,0.0,0.0,0.0
1666089368248526553,0.0,0.0,0.0,0.0,0.0,0.0
1666089368292098785,0.0,0.0,0.0,0.0,0.0,0.0
1666089368292111283,0.0,0.0,0.0,0.0,0.0,0.0
1666089368336250962,0.0,0.0,0.0,0.0,0.0,0.0
1666089368336261064,0.0,0.0,0.0,0.0,0.0,0.0
1666089368380093705,0.0,0.0,0.0,0.0,0.0,0.0
1666089368380162095,0.0,0.0,0.0,0.0,0.0,0.0
1666089368428062537,0.0,0.0,0.0,0.0,0.0,0.0
1666089368428075010,0.0,0.0,0.0,0.0,0.0,0.0
1666089368476106336,0.0,0.0,0.0,0.0,0.0,0.0
1666089368476121740,0.0,0.0,0.0,0.0,0.0,0.0
1666089368476125823,0.0,0.0,0.0,0.0,0.0,0.0
1666089368520051911,0.0,0.0,0.0,0.0,0.0,0.0
1666089368520064204,0.0,0.0,0.0,0.0,0.0,0.0
1666089368539547093,0.0,0.0,0.0,0.0,0.0,0.0
1666089368548417698,0.0,0.0,0.0,0.0,0.0,0.0
1666089368592301147,0.0,0.0,0.0,0.0,0.0,0.0
1666089368592346241,0.0,0.0,0.0,0.0,0.0,0.0
1666089368640080778,0.0,0.0,0.0,0.0,0.0,0.0
1666089368640098035,0.0,0.0,0.0,0.0,0.0,0.0
1666089368684160288,0.0,0.0,0.0,0.0,0.0,0.0
1666089368684176814,0.0,0.0,0.0,0.0,0.0,0.0
1666089368732091568,0.0,0.0,0.0,0.0,0.0,0.0
1666089368732108016,0.0,0.0,0.0,0.0,0.0,0.0
1666089368732138438,0.0,0.0,0.0,0.0,0.0,0.0
1666089368776118908,0.0,0.0,0.0,0.0,0.0,0.0
1666089368776143954,0.0,0.0,0.0,0.0,0.0,0.0
1666089368789294448,0.0,0.0,0.0,0.0,0.0,0.0
1666089368809205325,0.0,0.0,0.0,0.0,0.0,0.0
1666089368852069015,0.0,0.0,0.0,0.0,0.0,0.0
1666089368852080980,0.0,0.0,0.0,0.0,0.0,0.0
1666089368896086957,0.0,0.0,0.0,0.0,0.0,0.0
1666089368896098803,0.0,0.0,0.0,0.0,0.0,0.0
1666089368940157646,0.0,0.0,0.0,0.0,0.0,0.0
1666089368940185644,0.0,0.0,0.0,0.0,0.0,0.0
1666089368984070337,0.0,0.0,0.0,0.0,0.0,0.0
1666089368984086570,0.0,0.0,0.0,0.0,0.0,0.0
1666089369028076866,0.0,0.0,0.0,0.0,0.0,0.0
1666089369028091807,0.0,0.0,0.0,0.0,0.0,0.0
1666089369072154266,0.0,0.0,0.0,0.0,0.0,0.0
1666089369072182775,0.0,0.0,0.0,0.0,0.0,0.0
1666089369072359178,0.0,0.0,0.0,0.0,0.0,0.0
1666089369116116613,0.0,0.0,0.0,0.0,0.0,0.0
1666089369116139609,0.0,0.0,0.0,0.0,0.0,0.0
1666089369129404836,0.0,0.0,0.0,0.0,0.0,0.0
1666089369149387377,0.0,0.0,0.0,0.0,0.0,0.0
1666089369192089907,0.0,0.0,0.0,0.0,0.0,0.0
1666089369192103958,0.0,0.0,0.0,0.0,0.0,0.0
1666089369240079357,0.0,0.0,0.0,0.0,0.0,0.0
1666089369240096532,0.0,0.0,0.0,0.0,0.0,0.0
1666089369284088416,0.0,0.0,0.0,0.0,0.0,0.0
1666089369284106467,0.0,0.0,0.0,0.0,0.0,0.0
1666089369328095124,0.0,0.0,0.0,0.0,0.0,0.0
1666089369328108338,0.0,0.0,0.0,0.0,0.0,0.0
1666089369372140842,0.0,0.0,0.0,0.0,0.0,0.0
1666089369372160473,0.0,0.0,0.0,0.0,0.0,0.0
1666089369372177433,0.0,0.0,0.0,0.0,0.0,0.0
1666089369416108585,0.0,0.0,0.0,0.0,0.0,0.0
1666089369416128028,0.0,0.0,0.0,0.0,0.0,0.0
1666089369429155388,0.0,0.0,0.0,0.0,0.0,0.0
1666089369449340708,0.0,0.0,0.0,0.0,0.0,0.0
1666089369492134404,0.0,0.0,0.0,0.0,0.0,0.0
1666089369492167873,0.0,0.0,0.0,0.0,0.0,0.0
1666089369536089894,0.0,0.0,0.0,0.0,0.0,0.0
1666089369536106871,0.0,0.0,0.0,0.0,0.0,0.0
1666089369580078243,0.0,0.0,0.0,0.0,0.0,0.0
1666089369580093880,0.0,0.0,0.0,0.0,0.0,0.0
1666089369624233390,0.0,0.0,0.0,0.0,0.0,0.0
1666089369624249895,0.0,0.0,0.0,0.0,0.0,0.0
1666089369668102396,0.0,0.0,0.0,0.0,0.0,0.0
1666089369668122752,0.0,0.0,0.0,0.0,0.0,0.0
1666089369712127151,0.0,0.0,0.0,0.0,0.0,0.0
1666089369712147906,0.0,0.0,0.0,0.0,0.0,0.0
1666089369712155533,0.0,0.0,0.0,0.0,0.0,0.0
1666089369756095022,0.0,0.0,0.0,0.0,0.0,0.0
1666089369756107301,0.0,0.0,0.0,0.0,0.0,0.0
1666089369769376672,0.0,0.0,0.0,0.0,0.0,0.0
1666089369789177808,0.0,0.0,0.0,0.0,0.0,0.0
1666089369832074084,0.0,0.0,0.0,0.0,0.0,0.0
1666089369832090301,0.0,0.0,0.0,0.0,0.0,0.0
1666089369880084893,0.0,0.0,0.0,0.0,0.0,0.0
1666089369880099032,0.0,0.0,0.0,0.0,0.0,0.0
1666089369924078416,0.0,0.0,0.0,0.0,0.0,0.0
1666089369924090897,0.0,0.0,0.0,0.0,0.0,0.0
1666089369968125687,0.0,0.0,0.0,0.0,0.0,0.0
1666089369968143697,0.0,0.0,0.0,0.0,0.0,0.0
1666089370012296530,0.0,0.0,0.0,0.0,0.0,0.0
1666089370012332125,0.0,0.0,0.0,0.0,0.0,0.0
1666089370012540874,0.0,0.0,0.0,0.0,0.0,0.0
1666089370056125850,0.0,0.0,0.0,0.0,0.0,0.0
1666089370056143563,0.0,0.0,0.0,0.0,0.0,0.0
1666089370070081180,0.0,0.0,0.0,0.0,0.0,0.0
1666089370090050541,0.0,0.0,0.0,0.0,0.0,0.0
1666089370132064475,0.0,0.0,0.0,0.0,0.0,0.0
1666089370132076114,0.0,0.0,0.0,0.0,0.0,0.0
1666089370180116106,0.0,0.0,0.0,0.0,0.0,0.0
1666089370180137193,0.0,0.0,0.0,0.0,0.0,0.0
1666089370224175197,0.0,0.0,0.0,0.0,0.0,0.0
1666089370224202675,0.0,0.0,0.0,0.0,0.0,0.0
1666089370272057190,0.0,0.0,0.0,0.0,0.0,0.0
1666089370272071031,0.0,0.0,0.0,0.0,0.0,0.0
1666089370272084084,0.0,0.0,0.0,0.0,0.0,0.0
1666089370316108207,0.0,0.0,0.0,0.0,0.0,0.0
1666089370316123802,0.0,0.0,0.0,0.0,0.0,0.0
1666089370330019692,0.0,0.0,0.0,0.0,0.0,0.0
1666089370349901365,0.0,0.0,0.0,0.0,0.0,0.0
1666089370392332714,0.0,0.0,0.0,0.0,0.0,0.0
1666089370392394019,0.0,0.0,0.0,0.0,0.0,0.0
1666089370436328857,0.0,0.0,0.0,0.0,0.0,0.0
1666089370436388582,0.0,0.0,0.0,0.0,0.0,0.0
1666089370480078228,0.0,0.0,0.0,0.0,0.0,0.0
1666089370480092109,0.0,0.0,0.0,0.0,0.0,0.0
1666089370524329752,0.0,0.0,0.0,0.0,0.0,0.0
1666089370524357747,0.0,0.0,0.0,0.0,0.0,0.0
1666089370568356048,0.0,0.0,0.0,0.0,0.0,0.0
1666089370568393425,0.0,0.0,0.0,0.0,0.0,0.0
1666089370616215848,0.0,0.0,0.0,0.0,0.0,0.0
1666089370616245008,0.0,0.0,0.0,0.0,0.0,0.0
1666089370616284961,0.0,0.0,0.0,0.0,0.0,0.0
1666089370660237496,0.0,0.0,0.0,0.0,0.0,0.0
1666089370660265286,0.0,0.0,0.0,0.0,0.0,0.0
1666089370670094406,0.0,0.0,0.0,0.0,0.0,0.0
1666089370689595984,0.0,0.0,0.0,0.0,0.0,0.0
1666089370732079239,0.0,0.0,0.0,0.0,0.0,0.0
1666089370732100071,0.0,0.0,0.0,0.0,0.0,0.0
1666089370776116025,0.0,0.0,0.0,0.0,0.0,0.0
1666089370776138900,0.0,0.0,0.0,0.0,0.0,0.0
1666089370824065377,0.0,0.0,0.0,0.0,0.0,0.0
1666089370824078919,0.0,0.0,0.0,0.0,0.0,0.0
1666089370868077812,0.0,0.0,0.0,0.0,0.0,0.0
1666089370868096058,0.0,0.0,0.0,0.0,0.0,0.0
1666089370912709546,0.0,0.0,0.0,0.0,0.0,0.0
1666089370912746604,0.0,0.0,0.0,0.0,0.0,0.0
1666089370912784967,0.0,0.0,0.0,0.0,0.0,0.0
1666089370960130548,0.0,0.0,0.0,0.0,0.0,0.0
1666089370960148580,0.0,0.0,0.0,0.0,0.0,0.0
1666089370970615239,0.0,0.0,0.0,0.0,0.0,0.0
1666089370990400204,0.0,0.0,0.0,0.0,0.0,0.0
1666089371032088864,0.0,0.0,0.0,0.0,0.0,0.0
1666089371032107042,0.0,0.0,0.0,0.0,0.0,0.0
1666089371077670011,0.0,0.0,0.0,0.0,0.0,0.0
1666089371077700024,0.0,0.0,0.0,0.0,0.0,0.0
1666089371120073557,0.0,0.0,0.0,0.0,0.0,0.0
1666089371120091160,0.0,0.0,0.0,0.0,0.0,0.0
1666089371164076666,0.0,0.0,0.0,0.0,0.0,0.0
1666089371164095564,0.0,0.0,0.0,0.0,0.0,0.0
1666089371208403806,0.0,0.0,0.0,0.0,0.0,0.0
1666089371208455574,0.0,0.0,0.0,0.0,0.0,0.0
1666089371252227897,0.0,0.0,0.0,0.0,0.0,0.0
1666089371252246774,0.0,0.0,0.0,0.0,0.0,0.0
1666089371252276734,0.0,0.0,0.0,0.0,0.0,0.0
1666089371296118125,0.0,0.0,0.0,0.0,0.0,0.0
1666089371296136650,0.0,0.0,0.0,0.0,0.0,0.0
1666089371310748687,0.0,0.0,0.0,0.0,0.0,0.0
1666089371330544587,0.0,0.0,0.0,0.0,0.0,0.0
1666089371372239637,0.0,0.0,0.0,0.0,0.0,0.0
1666089371372262616,0.0,0.0,0.0,0.0,0.0,0.0
1666089371416139322,0.0,0.0,0.0,0.0,0.0,0.0
1666089371416162123,0.0,0.0,0.0,0.0,0.0,0.0
1666089371460320052,0.0,0.0,0.0,0.0,0.0,0.0
1666089371460376290,0.0,0.0,0.0,0.0,0.0,0.0
1666089371506321184,0.0,0.0,0.0,0.0,0.0,0.0
1666089371506352153,0.0,0.0,0.0,0.0,0.0,0.0
1666089371548525823,0.0,0.0,0.0,0.0,0.0,0.0
1666089371548596816,0.0,0.0,0.0,0.0,0.0,0.0
1666089371592414365,0.0,0.0,0.0,0.0,0.0,0.0
1666089371592453285,0.0,0.0,0.0,0.0,0.0,0.0
1666089371592749755,0.0,0.0,0.0,0.0,0.0,0.0
1666089371647892704,0.0,0.0,0.0,0.0,0.0,0.0
1666089371647925983,0.0,0.0,0.0,0.0,0.0,0.0
1666089371651805936,0.0,0.0,0.0,0.0,0.0,0.0
1666089371671701123,0.0,0.0,0.0,0.0,0.0,0.0
1666089371724300441,0.0,0.0,0.0,0.0,0.0,0.0
1666089371760235389,0.0,0.0,0.0,0.0,0.0,0.0
1666089371760266123,0.0,0.0,0.0,0.0,0.0,0.0
1666089371760274142,0.0,0.0,0.0,0.0,0.0,0.0
1666089371808247802,0.0,0.0,0.0,0.0,0.0,0.0
1666089371808277166,0.0,0.0,0.0,0.0,0.0,0.0
1666089371821673624,0.0,0.0,0.0,0.0,0.0,0.0
1666089371832139382,0.0,0.0,0.0,0.0,0.0,0.0
1666089371872258359,0.0,0.0,0.0,0.0,0.0,0.0
1666089371916141640,0.0,0.0,0.0,0.0,0.0,0.0
1666089371916166547,0.0,0.0,0.0,0.0,0.0,0.0
1666089371916181968,0.0,0.0,0.0,0.0,0.0,0.0
1666089371964155649,0.0,0.0,0.0,0.0,0.0,0.0
1666089371964182046,0.0,0.0,0.0,0.0,0.0,0.0
1666089371971320512,0.0,0.0,0.0,0.0,0.0,0.0
1666089371991424182,0.0,0.0,0.0,0.0,0.0,0.0
1666089372032055150,0.0,0.0,0.0,0.0,0.0,0.0
1666089372032066631,0.0,0.0,0.0,0.0,0.0,0.0
1666089372076099342,0.0,0.0,0.0,0.0,0.0,0.0
1666089372076118307,0.0,0.0,0.0,0.0,0.0,0.0
1666089372124060716,0.0,0.0,0.0,0.0,0.0,0.0
1666089372124073072,0.0,0.0,0.0,0.0,0.0,0.0
1666089372168104167,0.0,0.0,0.0,0.0,0.0,0.0
1666089372168114775,0.0,0.0,0.0,0.0,0.0,0.0
1666089372212141447,0.0,0.0,0.0,0.0,0.0,0.0
1666089372212161979,0.0,0.0,0.0,0.0,0.0,0.0
1666089372212183433,0.0,0.0,0.0,0.0,0.0,0.0
1666089372256054979,0.0,0.0,0.0,0.0,0.0,0.0
1666089372256063319,0.0,0.0,0.0,0.0,0.0,0.0
1666089372272141212,0.0,0.0,0.0,0.0,0.0,0.0
1666089372291175895,0.0,0.0,0.0,0.0,0.0,0.0
1666089372332046020,0.0,0.0,0.0,0.0,0.0,0.0
1666089372332061413,0.0,0.0,0.0,0.0,0.0,0.0
1666089372376318092,0.0,0.0,0.0,0.0,0.0,0.0
1666089372376340247,0.0,0.0,0.0,0.0,0.0,0.0
1666089372420290484,0.0,0.0,0.0,0.0,0.0,0.0
1666089372420322613,0.0,0.0,0.0,0.0,0.0,0.0
1666089372468079748,0.0,0.0,0.0,0.0,0.0,0.0
1666089372468094587,0.0,0.0,0.0,0.0,0.0,0.0
1666089372516168178,0.0,0.0,0.0,0.0,0.0,0.0
1666089372516189044,0.0,0.0,0.0,0.0,0.0,0.0
1666089372516208356,0.0,0.0,0.0,0.0,0.0,0.0
1666089372560124985,0.0,0.0,0.0,0.0,0.0,0.0
1666089372560139364,0.0,0.0,0.0,0.0,0.0,0.0
1666089372572020559,0.0,0.0,0.0,0.0,0.0,0.0
1666089372591826150,0.0,0.0,0.0,0.0,0.0,0.0
1666089372632097966,0.0,0.0,0.0,0.0,0.0,0.0
1666089372632116731,0.0,0.0,0.0,0.0,0.0,0.0
1666089372676206042,0.0,0.0,0.0,0.0,0.0,0.0
1666089372676234264,0.0,0.0,0.0,0.0,0.0,0.0
1666089372720071412,0.0,0.0,0.0,0.0,0.0,0.0
1666089372720084652,0.0,0.0,0.0,0.0,0.0,0.0
1666089372764072940,0.0,0.0,0.0,0.0,0.0,0.0
1666089372764083392,0.0,0.0,0.0,0.0,0.0,0.0
1666089372808264748,0.0,0.0,0.0,0.0,0.0,0.0
1666089372808299645,0.0,0.0,0.0,0.0,0.0,0.0
1666089372852067405,0.0,0.0,0.0,0.0,0.0,0.0
1666089372852080848,0.0,0.0,0.0,0.0,0.0,0.0
1666089372852084720,0.0,0.0,0.0,0.0,0.0,0.0
1666089372896078047,0.0,0.0,0.0,0.0,0.0,0.0
1666089372896094288,0.0,0.0,0.0,0.0,0.0,0.0
1666089372912097601,0.0,0.0,0.0,0.0,0.0,0.0
1666089372931882378,0.0,0.0,0.0,0.0,0.0,0.0
1666089372972215666,0.0,0.0,0.0,0.0,0.0,0.0
1666089372972230498,0.0,0.0,0.0,0.0,0.0,0.0
1666089373016095077,0.0,0.0,0.0,0.0,0.0,0.0
1666089373016109876,0.0,0.0,0.0,0.0,0.0,0.0
1666089373064062995,0.0,0.0,0.0,0.0,0.0,0.0
1666089373064077467,0.0,0.0,0.0,0.0,0.0,0.0
1666089373108161550,0.0,0.0,0.0,0.0,0.0,0.0
1666089373108183565,0.0,0.0,0.0,0.0,0.0,0.0
1666089373152158822,0.0,0.0,0.0,0.0,0.0,0.0
1666089373152173261,0.0,0.0,0.0,0.0,0.0,0.0
1666089373152196263,0.0,0.0,0.0,0.0,0.0,0.0
1666089373196063921,0.0,0.0,0.0,0.0,0.0,0.0
1666089373196079422,0.0,0.0,0.0,0.0,0.0,0.0
1666089373211702926,0.0,0.0,0.0,0.0,0.0,0.0
1666089373231578631,0.0,0.0,0.0,0.0,0.0,0.0
1666089373272070706,0.0,0.0,0.0,0.0,0.0,0.0
1666089373272087244,0.0,0.0,0.0,0.0,0.0,0.0
1666089373316116656,0.0,0.0,0.0,0.0,0.0,0.0
1666089373316146311,0.0,0.0,0.0,0.0,0.0,0.0
1666089373360195805,0.0,0.0,0.0,0.0,0.0,0.0
1666089373360206844,0.0,0.0,0.0,0.0,0.0,0.0
1666089373404059663,0.0,0.0,0.0,0.0,0.0,0.0
1666089373404074440,0.0,0.0,0.0,0.0,0.0,0.0
1666089373448136883,0.0,0.0,0.0,0.0,0.0,0.0
1666089373448154366,0.0,0.0,0.0,0.0,0.0,0.0
1666089373492105180,0.0,0.0,0.0,0.0,0.0,0.0
1666089373492118903,0.0,0.0,0.0,0.0,0.0,0.0
1666089373536075536,0.0,0.0,0.0,0.0,0.0,0.0
1666089373536090926,0.0,0.0,0.0,0.0,0.0,0.0
1666089373536097091,0.0,0.0,0.0,0.0,0.0,0.0
1666089373580085387,0.0,0.0,0.0,0.0,0.0,0.0
1666089373580099797,0.0,0.0,0.0,0.0,0.0,0.0
1666089373591560985,0.0,0.0,0.0,0.0,0.0,0.0
1666089373612061858,0.0,0.0,0.0,0.0,0.0,0.0
1666089373652113666,0.0,0.0,0.0,0.0,0.0,0.0
1666089373696291897,0.0,0.0,0.0,0.0,0.0,0.0
1666089373696329365,0.0,0.0,0.0,0.0,0.0,0.0
1666089373696340033,0.0,0.0,0.0,0.0,0.0,0.0
1666089373740069059,0.0,0.0,0.0,0.0,0.0,0.0
1666089373740086481,0.0,0.0,0.0,0.0,0.0,0.0
1666089373752782425,0.0,0.0,0.0,0.0,0.0,0.0
1666089373772362119,0.0,0.0,0.0,0.0,0.0,0.0
1666089373820049073,0.0,0.0,0.0,0.0,0.0,0.0
1666089373820060837,0.0,0.0,0.0,0.0,0.0,0.0
1666089373868392703,0.0,0.0,0.0,0.0,0.0,0.0
1666089373868453873,0.0,0.0,0.0,0.0,0.0,0.0
1666089373912195901,0.0,0.0,0.0,0.0,0.0,0.0
1666089373912225437,0.0,0.0,0.0,0.0,0.0,0.0
1666089373960132968,0.0,0.0,0.0,0.0,0.0,0.0
1666089373960144705,0.0,0.0,0.0,0.0,0.0,0.0
1666089373960153404,0.0,0.0,0.0,0.0,0.0,0.0
1666089374004096548,0.0,0.0,0.0,0.0,0.0,0.0
1666089374004111136,0.0,0.0,0.0,0.0,0.0,0.0
1666089374013746391,0.0,0.0,0.0,0.0,0.0,0.0
1666089374032273882,0.0,0.0,0.0,0.0,0.0,0.0
1666089374076279055,0.0,0.0,0.0,0.0,0.0,0.0
1666089374076342117,0.0,0.0,0.0,0.0,0.0,0.0
1666089374120243483,0.0,0.0,0.0,0.0,0.0,0.0
1666089374120277929,0.0,0.0,0.0,0.0,0.0,0.0
1666089374164072050,0.0,0.0,0.0,0.0,0.0,0.0
1666089374164095956,0.0,0.0,0.0,0.0,0.0,0.0
1666089374208159404,0.0,0.0,0.0,0.0,0.0,0.0
1666089374208183662,0.0,0.0,0.0,0.0,0.0,0.0
1666089374252110798,0.0,0.0,0.0,0.0,0.0,0.0
1666089374252125223,0.0,0.0,0.0,0.0,0.0,0.0
1666089374296088469,0.0,0.0,0.0,0.0,0.0,0.0
1666089374296106237,0.0,0.0,0.0,0.0,0.0,0.0
1666089374296116869,0.0,0.0,0.0,0.0,0.0,0.0
1666089374340159341,0.0,0.0,0.0,0.0,0.0,0.0
1666089374340198633,0.0,0.0,0.0,0.0,0.0,0.0
1666089374353303616,0.0,0.0,0.0,0.0,0.0,0.0
1666089374372390812,0.0,0.0,0.0,0.0,0.0,0.0
1666089374416176609,0.0,0.0,0.0,0.0,0.0,0.0
1666089374416190530,0.0,0.0,0.0,0.0,0.0,0.0
1666089374460141127,0.0,0.0,0.0,0.0,0.0,0.0
1666089374460160976,0.0,0.0,0.0,0.0,0.0,0.0
1666089374504069839,0.0,0.0,0.0,0.0,0.0,0.0
1666089374504084461,0.0,0.0,0.0,0.0,0.0,0.0
1666089374548220312,0.0,0.0,0.0,0.0,0.0,0.0
1666089374548288983,0.0,0.0,0.0,0.0,0.0,0.0
1666089374592457379,0.0,0.0,0.0,0.0,0.0,0.0
1666089374592504023,0.0,0.0,0.0,0.0,0.0,0.0
1666089374636263021,0.0,0.0,0.0,0.0,0.0,0.0
1666089374636303569,0.0,0.0,0.0,0.0,0.0,0.0
1666089374636339369,0.0,0.0,0.0,0.0,0.0,0.0
1666089374680086683,0.0,0.0,0.0,0.0,0.0,0.0
1666089374680104799,0.0,0.0,0.0,0.0,0.0,0.0
1666089374693341086,0.0,0.0,0.0,0.0,0.0,0.0
1666089374714006245,0.0,0.0,0.0,0.0,0.0,0.0
1666089374756091802,0.0,0.0,0.0,0.0,0.0,0.0
1666089374756104109,0.0,0.0,0.0,0.0,0.0,0.0
1666089374800112782,0.0,0.0,0.0,0.0,0.0,0.0
1666089374800144896,0.0,0.0,0.0,0.0,0.0,0.0
1666089374844404638,0.0,0.0,0.0,0.0,0.0,0.0
1666089374844470760,0.0,0.0,0.0,0.0,0.0,0.0
1666089374888555777,0.0,0.0,0.0,0.0,0.0,0.0
1666089374888656947,0.0,0.0,0.0,0.0,0.0,0.0
1666089374932096749,0.0,0.0,0.0,0.0,0.0,0.0
1666089374932114932,0.0,0.0,0.0,0.0,0.0,0.0
1666089374976074100,0.0,0.0,0.0,0.0,0.0,0.0
1666089374976085968,0.0,0.0,0.0,0.0,0.0,0.0
1666089374976093950,0.0,0.0,0.0,0.0,0.0,0.0
1666089375024171635,0.0,0.0,0.0,0.0,0.0,0.0
1666089375024185912,0.0,0.0,0.0,0.0,0.0,0.0
1666089375033022695,0.0,0.0,0.0,0.0,0.0,0.0
1666089375053111864,0.0,0.0,0.0,0.0,0.0,0.0
1666089375096087608,0.0,0.0,0.0,0.0,0.0,0.0
1666089375096104843,0.0,0.0,0.0,0.0,0.0,0.0
1666089375140105696,0.0,0.0,0.0,0.0,0.0,0.0
1666089375140126180,0.0,0.0,0.0,0.0,0.0,0.0
1666089375184057194,0.0,0.0,0.0,0.0,0.0,0.0
1666089375184068480,0.0,0.0,0.0,0.0,0.0,0.0
1666089375232036354,0.0,0.0,0.0,0.0,0.0,0.0
1666089375232042798,0.0,0.0,0.0,0.0,0.0,0.0
1666089375276865326,0.0,0.0,0.0,0.0,0.0,0.0
1666089375277259994,0.0,0.0,0.0,0.0,0.0,0.0
1666089375277289602,0.0,0.0,0.0,0.0,0.0,0.0
1666089375320109612,0.0,0.0,0.0,0.0,0.0,0.0
1666089375320129465,0.0,0.0,0.0,0.0,0.0,0.0
1666089375333127940,0.0,0.0,0.0,0.0,0.0,0.0
1666089375354067885,0.0,0.0,0.0,0.0,0.0,0.0
1666089375396123941,0.0,0.0,0.0,0.0,0.0,0.0
1666089375396165357,0.0,0.0,0.0,0.0,0.0,0.0
1666089375440043163,0.0,0.0,0.0,0.0,0.0,0.0
1666089375440060870,0.0,0.0,0.0,0.0,0.0,0.0
1666089375484286517,0.0,0.0,0.0,0.0,0.0,0.0
1666089375484319256,0.0,0.0,0.0,0.0,0.0,0.0
1666089375528160810,0.0,0.0,0.0,0.0,0.0,0.0
1666089375528185097,0.0,0.0,0.0,0.0,0.0,0.0
1666089375572067102,0.0,0.0,0.0,0.0,0.0,0.0
1666089375572079681,0.0,0.0,0.0,0.0,0.0,0.0
1666089375616316717,0.0,0.0,0.0,0.0,0.0,0.0
1666089375616352433,0.0,0.0,0.0,0.0,0.0,0.0
1666089375616407208,0.0,0.0,0.0,0.0,0.0,0.0
1666089375660214911,0.0,0.0,0.0,0.0,0.0,0.0
1666089375660232675,0.0,0.0,0.0,0.0,0.0,0.0
1666089375674888678,0.0,0.0,0.0,0.0,0.0,0.0
1666089375694046861,0.0,0.0,0.0,0.0,0.0,0.0
1666089375736073208,0.0,0.0,0.0,0.0,0.0,0.0
1666089375736090888,0.0,0.0,0.0,0.0,0.0,0.0
1666089375780198377,0.0,0.0,0.0,0.0,0.0,0.0
1666089375780224393,0.0,0.0,0.0,0.0,0.0,0.0
1666089375828072364,0.0,0.0,0.0,0.0,0.0,0.0
1666089375828086304,0.0,0.0,0.0,0.0,0.0,0.0
1666089375876580325,0.0,0.0,0.0,0.0,0.0,0.0
1666089375876647093,0.0,0.0,0.0,0.0,0.0,0.0
1666089375876706415,0.0,0.0,0.0,0.0,0.0,0.0
1666089375924147073,0.0,0.0,0.0,0.0,0.0,0.0
1666089375924169582,0.0,0.0,0.0,0.0,0.0,0.0
1666089375935391713,0.0,0.0,0.0,0.0,0.0,0.0
1666089375954041743,0.0,0.0,0.0,0.0,0.0,0.0
1666089375996218131,0.0,0.0,0.0,0.0,0.0,0.0
1666089375996256995,0.0,0.0,0.0,0.0,0.0,0.0
1666089376044461626,0.0,0.0,0.0,0.0,0.0,0.0
1666089376044560728,0.0,0.0,0.0,0.0,0.0,0.0
1666089376088357699,0.0,0.0,0.0,0.0,0.0,0.0
1666089376088395065,0.0,0.0,0.0,0.0,0.0,0.0
1666089376136122380,0.0,0.0,0.0,0.0,0.0,0.0
1666089376136138847,0.0,0.0,0.0,0.0,0.0,0.0
1666089376136143512,0.0,0.0,0.0,0.0,0.0,0.0
1666089376180334796,0.0,0.0,0.0,0.0,0.0,0.0
1666089376180377630,0.0,0.0,0.0,0.0,0.0,0.0
1666089376195253980,0.0,0.0,0.0,0.0,0.0,0.0
1666089376214337991,0.0,0.0,0.0,0.0,0.0,0.0
1666089376260038831,0.0,0.0,0.0,0.0,0.0,0.0022689280275926286
1666089376260049619,0.0,0.0,0.0,0.0,0.0,-0.0013962634015954637
1666089376304141208,0.0,0.0,0.0,0.0,0.0,-0.0012217304763960308
1666089376304165907,0.0,0.0,0.0,0.0,0.0,-0.00017453292519943296
1666089376348251337,0.0,0.0,0.0,0.0,0.0,0.0015707963267948967
1666089376348284865,0.017058417666703463,0.0,0.0,0.0,0.0,0.0024434609527920616
1666089376392102924,0.02345532429171726,0.0,0.0,0.0,0.0,0.00017453292519943296
1666089376392119851,0.021323022083379328,0.0,0.0,0.0,0.0,0.0
1666089376436072772,0.006396906625013799,0.0,0.0,0.0,0.0,-0.002617993877991494
1666089376436086905,0.02345532429171726,0.0,0.0,0.0,0.0,-0.0024434609527920616
1666089376436101001,0.03198453312506899,0.0,0.0,0.0,0.0,0.0015707963267948967
1666089376480063907,0.03198453312506899,0.0,0.0,0.0,0.0,0.0036651914291880917
1666089376480079066,0.03624913754174486,0.0,0.0,0.0,0.0,-0.004886921905584123
1666089376494219035,0.044778346375096596,0.0,0.0,0.0,0.0,-0.006632251157578452
1666089376515484418,0.04904295079177246,0.0,0.0,0.0,0.0,-0.006108652381980153
1666089376556077719,0.06610136845847592,0.0,0.0,0.0,0.0,-0.013439035240356337
1666089376556093233,0.05757215962512419,0.0,0.0,0.0,0.0,-0.016406094968746697
1666089376604034271,0.06823367066681385,0.0,0.0,0.0,0.0,-0.017104226669544427
1666089376604043169,0.07676287950016558,0.0,0.0,0.0,0.0,-0.015358897417550098
1666089376648327737,0.08102748391684146,0.0,0.0,0.0,0.0,-0.004886921905584123
1666089376648380271,0.08955669275019319,0.0,0.0,0.0,0.0,-0.0008726646259971648
1666089376696050836,0.08955669275019319,0.0,0.0,0.0,0.0,-0.0036651914291880917
1666089376696070626,0.10448280820855872,0.0,0.0,0.0,0.0,-0.013264502315156903
1666089376736310711,0.1108797148335725,0.0,0.0,0.0,0.0,-0.029321531433504733
1666089376736335256,0.10661511041689664,0.0,0.0,0.0,0.0,-0.030368728984701335
1666089376736388479,0.12154122587526218,0.0,0.0,0.0,0.0,-0.02757620218151041
1666089376780200871,0.12580583029193804,0.0,0.0,0.0,0.0,-0.033335788713091695
1666089376780233013,0.13859964354196566,0.0,0.0,0.0,0.0,-0.039968039870670144
1666089376794656960,0.12793813250027597,0.0,0.0,0.0,0.0,-0.04415683007545653
1666089376821119715,0.1300704347086139,0.0,0.0,0.0,0.0,-0.035255650890285456
1666089376864090989,0.1492611545836553,0.0,0.0,0.0,0.0,-0.05462880558742251
1666089376864106861,0.14499655016697943,0.0,0.0,0.0,0.0,-0.09546951008408983
1666089376908072067,0.16631957225035876,0.0,0.0,0.0,0.0,-0.10803588069844901
1666089376908086593,0.15352575900033116,0.0,0.0,0.0,0.0,-0.12130038301360589
1666089376952562701,0.15352575900033116,0.0,0.0,0.0,0.0,-0.1335176877775662
1666089376952637649,0.17058417666703463,0.0,0.0,0.0,0.0,-0.15166911199830724
1666089376996553390,0.16631957225035876,0.0,0.0,0.0,0.0,-0.17575465567582899
1666089376996661602,0.18337798991706222,0.0,0.0,0.0,0.0,-0.1616174887346749
1666089377044192629,0.18124568770872432,0.0,0.0,0.0,0.0,-0.19792033717615698
1666089377044215499,0.18977489654207602,0.0,0.0,0.0,0.0,-0.21589722847169854
1666089377044228718,0.19617180316708985,0.0,0.0,0.0,0.0,-0.21886428820008888
1666089377092069294,0.19830410537542775,0.0,0.0,0.0,0.0,-0.23788837704682714
1666089377092084289,0.20683331420877948,0.0,0.0,0.0,0.0,-0.24818581963359365
1666089377094709774,0.20470101200044158,0.0,0.0,0.0,0.0,-0.2663372438543347
1666089377115392105,0.20256870979210362,0.0,0.0,0.0,0.0,-0.2747148242639075
1666089377160163669,0.2196271274588071,0.0,0.0,0.0,0.0,-0.30037116426822413
1666089377160182497,0.22389173187548297,0.0,0.0,0.0,0.0,-0.3077015471266003
1666089377204173976,0.22815633629215884,0.0,0.0,0.0,0.0,-0.3068288825006031
1666089377204188321,0.23242094070883468,0.0,0.0,0.0,0.0,-0.3420845333908886
1666089377248497483,0.22602403408382088,0.0,0.0,0.0,0.0,-0.3712315318991939
1666089377248558614,0.2388178473338485,0.0,0.0,0.0,0.0,-0.3869394951671429
1666089377292293677,0.24734705616720024,0.0,0.0,0.0,0.0,-0.40404372183668724
1666089377292331964,0.25800856720888987,0.0,0.0,0.0,0.0,-0.425685804561417
1666089377336090592,0.25587626500055194,0.0,0.0,0.0,0.0,-0.46652650905808424
1666089377336107031,0.25800856720888987,0.0,0.0,0.0,0.0,-0.47699848457005023
1666089377336113226,0.2601408694172278,0.0,0.0,0.0,0.0,-0.4979424355939822
1666089377380245229,0.2729346826672554,0.0,0.0,0.0,0.0,-0.5312782243070739
1666089377380264103,0.2771992870839313,0.0,0.0,0.0,0.0,-0.5300564938306779
1666089377394334737,0.2729346826672554,0.0,0.0,0.0,0.0,-0.5328490206338689
1666089377414959676,0.2771992870839313,0.0,0.0,0.0,0.0,-0.5473352534254217
1666089377456327651,0.28999310033395886,0.0,0.0,0.0,0.0,-0.570024533701348
1666089377456357284,0.2963900069589727,0.0,0.0,0.0,0.0,-0.5705481324769462
1666089377500134826,0.22389173187548297,0.0,0.0,0.0,0.0,-0.5496041814530143
1666089377500159744,0.22389173187548297,0.0,0.0,0.0,0.0,-0.5555383009097951
1666089377544104662,0.24734705616720024,0.0,0.0,0.0,0.0,-0.5532693728822025
1666089377544121817,0.253743962792214,0.0,0.0,0.0,0.0,-0.551873109480607
1666089377588314150,0.23455324291717264,0.0,0.0,0.0,0.0,-0.5234242426730994
1666089377588341668,0.24308245175052437,0.0,0.0,0.0,0.0,-0.4904375198104066
1666089377632115999,0.2622731716255658,0.0,0.0,0.0,0.0,-0.48520153205442357
1666089377632132268,0.26440547383390367,0.0,0.0,0.0,0.0,-0.5234242426730994
1666089377676154235,0.25587626500055194,0.0,0.0,0.0,0.0,-0.49986229777117597
1666089377676174427,0.2622731716255658,0.0,0.0,0.0,0.0,-0.5195845183187119
1666089377676188082,0.2729346826672554,0.0,0.0,0.0,0.0,-0.5394812717914472
1666089377720274413,0.27080238045891747,0.0,0.0,0.0,0.0,-0.5555383009097951
1666089377720319114,0.27080238045891747,0.0,0.0,0.0,0.0,-0.631285590446349
1666089377734898813,0.27080238045891747,0.0,0.0,0.0,0.0,-0.6531022060962781
1666089377755374443,0.2793315892922692,0.0,0.0,0.0,0.0,-0.6579891280018623
1666089377796092750,0.2963900069589727,0.0,0.0,0.0,0.0,-0.6778858814745976
1666089377796119173,0.3006546113756486,0.0,0.0,0.0,0.0,-0.7044148861049114
1666089377844116938,0.28786079812562093,0.0,0.0,0.0,0.0,-0.7305948248848263
1666089377844135915,0.30278691358398646,0.0,0.0,0.0,0.0,-0.7271041663808375
1666089377888089417,0.317713029042352,0.0,0.0,0.0,0.0,-0.722391777400453
1666089377888104862,0.20256870979210362,0.0,0.0,0.0,0.0,-0.7073819458333017
1666089377932338079,0.13433503912528977,0.0,0.0,0.0,0.0,-0.6600835231042554
1666089377932366505,0.2196271274588071,0.0,0.0,0.0,0.0,-0.5873032932960919
1666089377976138877,0.1407319457503036,0.0,0.0,0.0,0.0,-0.5745623897565333
1666089377976153497,0.06396906625013798,0.0,0.0,0.0,0.0,-0.5914920835008783
1666089377976160538,0.014926115458365532,0.0,0.0,0.0,0.0,-0.5525712411814048
1666089378020088355,0.008529208833351731,0.0,0.0,0.0,0.0,-0.541401133968641
1666089378020106521,0.042646044166758657,0.0,0.0,0.0,0.0,-0.5560618996853933
1666089378036237752,0.05757215962512419,0.0,0.0,0.0,0.0,-0.48659779545601906
1666089378055030563,0.044778346375096596,0.0,0.0,0.0,0.0,-0.4125958351714595
1666089378096263287,0.034116835333406925,0.0,0.0,0.0,0.0,-0.3337069529813158
1666089378096305727,0.03198453312506899,0.0,0.0,0.0,0.0,-0.3272492347489368
1666089378144149230,0.03198453312506899,0.0,0.0,0.0,0.0,-0.30229102644541783
1666089378144161362,0.02345532429171726,0.0,0.0,0.0,0.0,-0.26249751949994715
1666089378188173410,0.002132302208337933,0.0,0.0,0.0,0.0,-0.24818581963359365
1666089378188185339,-0.010661511041689664,0.0,0.0,0.0,0.0,-0.25010568181078746
1666089378232185569,-0.010661511041689664,0.0,0.0,0.0,0.0,-0.25446900494077324
1666089378232213604,-0.008529208833351731,0.0,0.0,0.0,0.0,-0.25499260371637156
1666089378276417751,-0.017058417666703463,0.0,0.0,0.0,0.0,-0.21746802479849348
1666089378276458485,-0.017058417666703463,0.0,0.0,0.0,0.0,-0.1947787445225672
1666089378276487658,-0.017058417666703463,0.0,0.0,0.0,0.0,-0.20071286397934787
1666089378320210604,-0.017058417666703463,0.0,0.0,0.0,0.0,-0.1839577031602023
1666089378320233975,-0.012793813250027599,0.0,0.0,0.0,0.0,-0.16249015336067207
1666089378335486834,-0.002132302208337933,0.0,0.0,0.0,0.0,-0.1499237827463129
1666089378354866327,0.014926115458365532,0.0,0.0,0.0,0.0,-0.13997540600994524
1666089378396111916,0.014926115458365532,0.0,0.0,0.0,0.0,-0.13631021458075712
1666089378396137030,0.012793813250027599,0.0,0.0,0.0,0.0,-0.14137166941154067
1666089378444151694,0.010661511041689664,0.0,0.0,0.0,0.0,-0.131423292675173
1666089378444175175,0.019190719875041395,0.0,0.0,0.0,0.0,-0.10978120995044333
1666089378488156458,0.014926115458365532,0.0,0.0,0.0,0.0,-0.09477137838329208
1666089378488178697,0.006396906625013799,0.0,0.0,0.0,0.0,-0.08866272600131195
1666089378532045908,0.008529208833351731,0.0,0.0,0.0,0.0,-0.0895353906273091
1666089378532058444,0.010661511041689664,0.0,0.0,0.0,0.0,-0.09826203688728076
1666089378576083249,0.010661511041689664,0.0,0.0,0.0,0.0,-0.08220500776893291
1666089378576103440,0.0,0.0,0.0,0.0,0.0,-0.07068583470577033
1666089378576111349,-0.002132302208337933,0.0,0.0,0.0,0.0,-0.08080874436733745
1666089378620199781,-0.006396906625013799,0.0,0.0,0.0,0.0,-0.09023352232810683
1666089378620229395,-0.008529208833351731,0.0,0.0,0.0,0.0,-0.08290313946973064
1666089378635887589,-0.004264604416675866,0.0,0.0,0.0,0.0,-0.06824237375297829
1666089378657897476,0.0,0.0,0.0,0.0,0.0,-0.0651007810993885
1666089378704117279,0.002132302208337933,0.0,0.0,0.0,0.0,-0.07016223593017204
1666089378704141316,0.002132302208337933,0.0,0.0,0.0,0.0,-0.06405358354819189
1666089378748212989,0.002132302208337933,0.0,0.0,0.0,0.0,-0.05864306286700947
1666089378748233731,0.008529208833351731,0.0,0.0,0.0,0.0,-0.04991641660703782
1666089378792126433,0.008529208833351731,0.0,0.0,0.0,0.0,-0.03508111796508602
1666089378792142062,0.004264604416675866,0.0,0.0,0.0,0.0,-0.029321531433504733
1666089378836727887,0.002132302208337933,0.0,0.0,0.0,0.0,-0.03787364476827695
1666089378836795775,0.008529208833351731,0.0,0.0,0.0,0.0,-0.05462880558742251
1666089378880188036,0.008529208833351731,0.0,0.0,0.0,0.0,-0.0497418836818384
1666089378880208904,0.002132302208337933,0.0,0.0,0.0,0.0,-0.039968039870670144
1666089378880227591,0.002132302208337933,0.0,0.0,0.0,0.0,-0.044505895925855396
1666089378924096599,0.002132302208337933,0.0,0.0,0.0,0.0,-0.05619960191421742
1666089378924113885,0.004264604416675866,0.0,0.0,0.0,0.0,-0.03892084231947355
1666089378935404683,0.0,0.0,0.0,0.0,0.0,-0.009075712110370514
1666089378955644952,0.0,0.0,0.0,0.0,0.0,-0.00942477796076938
1666089378996469109,0.002132302208337933,0.0,0.0,0.0,0.0,-0.015707963267948967
1666089379040114598,0.004264604416675866,0.0,0.0,0.0,0.0,-0.012217304763960306
1666089379040136359,0.002132302208337933,0.0,0.0,0.0,0.0,-0.021118483949131385
1666089379040149266,0.006396906625013799,0.0,0.0,0.0,0.0,-0.032812189937493394
1666089379088477154,0.004264604416675866,0.0,0.0,0.0,0.0,-0.04747295565424577
1666089379088551566,0.004264604416675866,0.0,0.0,0.0,0.0,-0.04921828490624009
1666089379096125715,0.006396906625013799,0.0,0.0,0.0,0.0,-0.044505895925855396
1666089379116303048,0.004264604416675866,0.0,0.0,0.0,0.0,-0.035255650890285456
1666089379156475210,0.0,0.0,0.0,0.0,0.0,-0.031241393610698498
1666089379200138948,0.004264604416675866,0.0,0.0,0.0,0.0,-0.03700098014227979
1666089379200163639,0.004264604416675866,0.0,0.0,0.0,0.0,-0.029321531433504733
1666089379200171279,0.002132302208337933,0.0,0.0,0.0,0.0,-0.01937315469713706
1666089379244138354,0.002132302208337933,0.0,0.0,0.0,0.0,-0.01815142422074103
1666089379244157015,0.006396906625013799,0.0,0.0,0.0,0.0,-0.02530727415391778
1666089379256999155,0.002132302208337933,0.0,0.0,0.0,0.0,-0.021642082724729686
1666089379275602907,0.0,0.0,0.0,0.0,0.0,-0.016929693744344998
1666089379316255432,0.002132302208337933,0.0,0.0,0.0,0.0,-0.0291469985083053
1666089379360388986,0.002132302208337933,0.0,0.0,0.0,0.0,-0.028274333882308142
1666089379360410188,0.004264604416675866,0.0,0.0,0.0,0.0,-0.02129301687433082
1666089379360423226,0.002132302208337933,0.0,0.0,0.0,0.0,-0.013264502315156903
1666089379404262643,0.0,0.0,0.0,0.0,0.0,-0.014486232791552934
1666089379404286118,0.002132302208337933,0.0,0.0,0.0,0.0,-0.016406094968746697
1666089379417874985,0.008529208833351731,0.0,0.0,0.0,0.0,-0.00471238898038469
1666089379436379937,0.004264604416675866,0.0,0.0,0.0,0.0,-0.005061454830783556
1666089379480185313,0.002132302208337933,0.0,0.0,0.0,0.0,-0.021467549799530253
1666089379480219911,0.006396906625013799,0.0,0.0,0.0,0.0,-0.02809980095710871
1666089379524509340,0.006396906625013799,0.0,0.0,0.0,0.0,-0.024085543677521744
1666089379524591850,0.004264604416675866,0.0,0.0,0.0,0.0,-0.02530727415391778
1666089379568185375,0.002132302208337933,0.0,0.0,0.0,0.0,-0.040491638646268445
1666089379568214957,0.002132302208337933,0.0,0.0,0.0,0.0,-0.056897733615015135
1666089379616126194,0.006396906625013799,0.0,0.0,0.0,0.0,-0.06073745796940267
1666089379616141239,0.006396906625013799,0.0,0.0,0.0,0.0,-0.05951572749300663
1666089379664509510,0.004264604416675866,0.0,0.0,0.0,0.0,-0.07243116395776468
1666089379664562227,0.008529208833351731,0.0,0.0,0.0,0.0,-0.0853466004225227
1666089379664575783,0.006396906625013799,0.0,0.0,0.0,0.0,-0.08290313946973064
1666089379708083363,0.006396906625013799,0.0,0.0,0.0,0.0,-0.07225663103256524
1666089379708098543,0.004264604416675866,0.0,0.0,0.0,0.0,-0.07190756518216637
1666089379717806504,0.004264604416675866,0.0,0.0,0.0,0.0,-0.08499753457212385
1666089379736800224,0.004264604416675866,0.0,0.0,0.0,0.0,-0.09180431865490173
1666089379780207747,0.006396906625013799,0.0,0.0,0.0,0.0,-0.08342673824532895
1666089379780233220,0.006396906625013799,0.0,0.0,0.0,0.0,-0.07993607974134029
1666089379824188325,0.006396906625013799,0.0,0.0,0.0,0.0,-0.08831366015091306
1666089379824207082,0.010661511041689664,0.0,0.0,0.0,0.0,-0.09058258817850572
1666089379868091147,0.004264604416675866,0.0,0.0,0.0,0.0,-0.09494591130849155
1666089379868111930,0.010661511041689664,0.0,0.0,0.0,0.0,-0.08970992355250852
1666089379912242832,0.006396906625013799,0.0,0.0,0.0,0.0,-0.08307767239493008
1666089379912268410,0.002132302208337933,0.0,0.0,0.0,0.0,-0.08203047484373349
1666089379956178785,0.006396906625013799,0.0,0.0,0.0,0.0,-0.08028514559173915
1666089379956217239,0.008529208833351731,0.0,0.0,0.0,0.0,-0.0762708883121522
1666089380004332945,0.006396906625013799,0.0,0.0,0.0,0.0,-0.07976154681614087
1666089380004359880,0.004264604416675866,0.0,0.0,0.0,0.0,-0.09983283321407564
1666089380004375742,0.017058417666703463,0.0,0.0,0.0,0.0,-0.10995574287564275
1666089380048222228,0.014926115458365532,0.0,0.0,0.0,0.0,-0.1174606586592184
1666089380048256544,0.004264604416675866,0.0,0.0,0.0,0.0,-0.1254891732183923
1666089380057036928,0.002132302208337933,0.0,0.0,0.0,0.0,-0.13107422682477415
1666089380076454151,0.006396906625013799,0.0,0.0,0.0,0.0,-0.13543754995475998
1666089380120354265,0.006396906625013799,0.0,0.0,0.0,0.0,-0.1349139511791617
1666089380120452948,0.004264604416675866,0.0,0.0,0.0,0.0,-0.136659280431156
1666089380164201840,0.002132302208337933,0.0,0.0,0.0,0.0,-0.13578661580515883
1666089380164260370,0.004264604416675866,0.0,0.0,0.0,0.0,-0.14433872913993104
1666089380208173217,0.008529208833351731,0.0,0.0,0.0,0.0,-0.1551597705022959
1666089380208208836,0.006396906625013799,0.0,0.0,0.0,0.0,-0.15690509975429023
1666089380256118369,0.006396906625013799,0.0,0.0,0.0,0.0,-0.14503686084072878
1666089380256138605,0.002132302208337933,0.0,0.0,0.0,0.0,-0.14695672301792254
1666089380300135930,0.006396906625013799,0.0,0.0,0.0,0.0,-0.1492256510455152
1666089380300190374,0.002132302208337933,0.0,0.0,0.0,0.0,-0.15603243512829304
1666089380300540787,0.008529208833351731,0.0,0.0,0.0,0.0,-0.15550883635269475
1666089380344217625,0.002132302208337933,0.0,0.0,0.0,0.0,-0.15655603390389136
1666089380344241098,-0.002132302208337933,0.0,0.0,0.0,0.0,-0.15917402778188283
1666089380357299873,-0.002132302208337933,0.0,0.0,0.0,0.0,-0.16807520696705394
1666089380377241425,0.002132302208337933,0.0,0.0,0.0,0.0,-0.13648474750595657
1666089380424205197,0.002132302208337933,0.0,0.0,0.0,0.0,-0.06579891280018622
1666089380424230322,0.0,0.0,0.0,0.0,0.0,-0.012217304763960306
1666089380472691679,0.002132302208337933,0.0,0.0,0.0,0.0,0.005235987755982988
1666089380473203591,0.002132302208337933,0.0,0.0,0.0,0.0,0.005934119456780722
1666089380516208847,-0.002132302208337933,0.0,0.0,0.0,0.0,0.008377580409572781
1666089380516238636,-0.002132302208337933,0.0,0.0,0.0,0.0,0.006806784082777885
1666089380560507472,0.0,0.0,0.0,0.0,0.0,-0.00645771823237902
1666089380560547865,0.0,0.0,0.0,0.0,0.0,-0.010995574287564275
1666089380560564030,-0.002132302208337933,0.0,0.0,0.0,0.0,-0.007504915783575617
1666089380608090849,0.0,0.0,0.0,0.0,0.0,-0.0013962634015954637
1666089380608113888,0.0,0.0,0.0,0.0,0.0,-0.003316125578789226
1666089380617337124,-0.002132302208337933,0.0,0.0,0.0,0.0,-0.0031415926535897933
1666089380636834159,0.0,0.0,0.0,0.0,0.0,-0.003490658503988659
1666089380680274491,0.0,0.0,0.0,0.0,0.0,-0.01117010721276371
1666089380680317856,0.0,0.0,0.0,0.0,0.0,-0.015358897417550098
1666089380728543303,0.0,0.0,0.0,0.0,0.0,-0.010995574287564275
1666089380728599032,0.0,0.0,0.0,0.0,0.0,-0.00017453292519943296
1666089380772059983,0.0,0.0,0.0,0.0,0.0,0.0006981317007977319
1666089380772070813,0.0,0.0,0.0,0.0,0.0,0.0
1666089380816095680,0.0,0.0,0.0,0.0,0.0,0.0008726646259971648
1666089380816112256,0.0,0.0,0.0,0.0,0.0,-0.00017453292519943296
1666089380860410766,0.0,0.0,0.0,0.0,0.0,0.00017453292519943296
1666089380860467460,0.0,0.0,0.0,0.0,0.0,0.0015707963267948967
1666089380860510553,0.0,0.0,0.0,0.0,0.0,-0.0022689280275926286
1666089380904230840,0.0,0.0,0.0,0.0,0.0,-0.003316125578789226
1666089380904253750,-0.002132302208337933,0.0,0.0,0.0,0.0,-0.002617993877991494
1666089380918135617,0.0,0.0,0.0,0.0,0.0,-0.003316125578789226
1666089380937183259,0.0,0.0,0.0,0.0,0.0,-0.0012217304763960308
1666089380984101928,0.0,0.0,0.0,0.0,0.0,-0.003316125578789226
1666089380984128810,0.0,0.0,0.0,0.0,0.0,-0.0017453292519943296
1666089381028131088,0.0,0.0,0.0,0.0,0.0,-0.0019198621771937623
1666089381028149865,0.0,0.0,0.0,0.0,0.0,-0.0012217304763960308
1666089381072424882,0.0,0.0,0.0,0.0,0.0,0.0005235987755982988
1666089381072494110,0.0,0.0,0.0,0.0,0.0,0.0012217304763960308
1666089381116567295,0.0,0.0,0.0,0.0,0.0,-0.0012217304763960308
1666089381116608806,0.0,0.0,0.0,0.0,0.0,-0.0022689280275926286
1666089381160090384,-0.002132302208337933,0.0,0.0,0.0,0.0,0.0010471975511965976
1666089381160106944,0.0,0.0,0.0,0.0,0.0,0.00034906585039886593
1666089381160113172,0.0,0.0,0.0,0.0,0.0,0.0008726646259971648
1666089381204152106,0.0,0.0,0.0,0.0,0.0,0.0
1666089381204172390,-0.004264604416675866,0.0,0.0,0.0,0.0,-0.0008726646259971648
1666089381219088278,-0.002132302208337933,0.0,0.0,0.0,0.0,-0.0015707963267948967
1666089381236800673,-0.002132302208337933,0.0,0.0,0.0,0.0,-0.0041887902047863905
1666089381280064959,0.0,0.0,0.0,0.0,0.0,-0.008726646259971648
1666089381280073094,0.004264604416675866,0.0,0.0,0.0,0.0,-0.015533430342749534
1666089381324152059,0.002132302208337933,0.0,0.0,0.0,0.0,-0.017627825445142728
1666089381324180117,0.004264604416675866,0.0,0.0,0.0,0.0,-0.016929693744344998
1666089381368279298,0.008529208833351731,0.0,0.0,0.0,0.0,-0.017627825445142728
1666089381368311670,0.012793813250027599,0.0,0.0,0.0,0.0,-0.01815142422074103
1666089381412083833,0.02345532429171726,0.0,0.0,0.0,0.0,-0.022514747350726852
1666089381412099501,0.019190719875041395,0.0,0.0,0.0,0.0,-0.03508111796508602
1666089381456368157,0.021323022083379328,0.0,0.0,0.0,0.0,-0.05707226654021458
1666089381456407806,0.034116835333406925,0.0,0.0,0.0,0.0,-0.06667157742618339
1666089381501729917,0.03198453312506899,0.0,0.0,0.0,0.0,-0.0582939970166106
1666089381501772506,0.042646044166758657,0.0,0.0,0.0,0.0,-0.07016223593017204
1666089381501789638,0.03838143975008279,0.0,0.0,0.0,0.0,-0.08307767239493008
1666089381544106443,0.042646044166758657,0.0,0.0,0.0,0.0,-0.08272860654453122
1666089381544119689,0.05543985741678625,0.0,0.0,0.0,0.0,-0.0736528944341607
1666089381557935800,0.06183676404180006,0.0,0.0,0.0,0.0,-0.07644542123735164
1666089381577377834,0.07249827508348972,0.0,0.0,0.0,0.0,-0.0932005820564972
1666089381624300145,0.06396906625013798,0.0,0.0,0.0,0.0,-0.09232791743050003
1666089381624336291,0.07249827508348972,0.0,0.0,0.0,0.0,-0.08552113334772216
1666089381668103991,0.08529208833351731,0.0,0.0,0.0,0.0,-0.0853466004225227
1666089381668127192,0.08742439054185526,0.0,0.0,0.0,0.0,-0.08080874436733745
1666089381712083015,0.10448280820855872,0.0,0.0,0.0,0.0,-0.06544984694978735
1666089381712098495,0.09382129716686904,0.0,0.0,0.0,0.0,-0.05899212871740834
1666089381756073938,0.09168899495853111,0.0,0.0,0.0,0.0,-0.0466002910282486
1666089381756089630,0.1108797148335725,0.0,0.0,0.0,0.0,-0.03892084231947355
1666089381800047085,0.11727662145858632,0.0,0.0,0.0,0.0,-0.041189770347066175
1666089381800055220,0.12154122587526218,0.0,0.0,0.0,0.0,-0.03159045946109736
1666089381800066503,0.11514431925024839,0.0,0.0,0.0,0.0,-0.030717794835100197
1666089381844106728,0.11514431925024839,0.0,0.0,0.0,0.0,-0.03944444109507184
1666089381844122546,0.1407319457503036,0.0,0.0,0.0,0.0,-0.05183627878423159
1666089381858620358,0.13859964354196566,0.0,0.0,0.0,0.0,-0.04537856055185257
1666089381878650553,0.15139345679199323,0.0,0.0,0.0,0.0,-0.02775073510670984
1666089381920079793,0.14499655016697943,0.0,0.0,0.0,0.0,-0.052185344634630454
1666089381920092453,0.14712885237531736,0.0,0.0,0.0,0.0,-0.061086523819801536
1666089381964095165,0.16418727004202083,0.0,0.0,0.0,0.0,-0.03682644721708035
1666089381964117170,0.16418727004202083,0.0,0.0,0.0,0.0,-0.03892084231947355
1666089382008139393,0.1684518744586967,0.0,0.0,0.0,0.0,-0.06911503837897545
1666089382008161893,0.17698108329204845,0.0,0.0,0.0,0.0,-0.06876597252857658
1666089382056136159,0.17484878108371052,0.0,0.0,0.0,0.0,-0.061086523819801536
1666089382056162262,0.1876425943337381,0.0,0.0,0.0,0.0,-0.06998770300497262
1666089382100340466,0.1876425943337381,0.0,0.0,0.0,0.0,-0.0651007810993885
1666089382100402866,0.19617180316708985,0.0,0.0,0.0,0.0,-0.06387905062299247
1666089382100427960,0.19617180316708985,0.0,0.0,0.0,0.0,-0.048869219055841226
1666089382148061591,0.19190719875041395,0.0,0.0,0.0,0.0,-0.04485496177625426
1666089382148075555,0.21109791862545538,0.0,0.0,0.0,0.0,-0.054977871437821374
1666089382157689840,0.21749482525046915,0.0,0.0,0.0,0.0,-0.061261056745000965
1666089382177394010,0.221759429667145,0.0,0.0,0.0,0.0,-0.061435589670200394
1666089382221711458,0.221759429667145,0.0,0.0,0.0,0.0,-0.05096361415823442
1666089382221735080,0.2196271274588071,0.0,0.0,0.0,0.0,-0.06562437987498679
1666089382268067967,0.23242094070883468,0.0,0.0,0.0,0.0,-0.07766715171374766
1666089382268078920,0.24521475395886227,0.0,0.0,0.0,0.0,-0.08133234314293576
1666089382312096208,0.2516116605838761,0.0,0.0,0.0,0.0,-0.06492624817418907
1666089382312106600,0.2516116605838761,0.0,0.0,0.0,0.0,-0.06806784082777885
1666089382356379336,0.24947935837553817,0.0,0.0,0.0,0.0,-0.07086036763096977
1666089382356437495,0.26867007825057954,0.0,0.0,0.0,0.0,-0.06405358354819189
1666089382400088848,0.2729346826672554,0.0,0.0,0.0,0.0,-0.05009094953223726
1666089382400104688,0.2814638915006072,0.0,0.0,0.0,0.0,-0.03769911184307752
1666089382400110546,0.2814638915006072,0.0,0.0,0.0,0.0,-0.045727626402251434
1666089382444032757,0.2729346826672554,0.0,0.0,0.0,0.0,-0.05078908123303499
1666089382444045427,0.28786079812562093,0.0,0.0,0.0,0.0,-0.03612831551628262
1666089382458436352,0.29425770475063473,0.0,0.0,0.0,0.0,-0.020420352248333655
1666089382479073561,0.3070515180006623,0.0,0.0,0.0,0.0,-0.02617993877991494
1666089382520094287,0.3070515180006623,0.0,0.0,0.0,0.0,-0.03961897402027128
1666089382520110634,0.29425770475063473,0.0,0.0,0.0,0.0,-0.04276056667386108
1666089382564466049,0.30918382020900026,0.0,0.0,0.0,0.0,-0.049567350756638956
1666089382564503311,0.3262422378757037,0.0,0.0,0.0,0.0,-0.05480333851262195
1666089382608061264,0.3347714467090555,0.0,0.0,0.0,0.0,-0.05078908123303499
1666089382608077164,0.33050684229237964,0.0,0.0,0.0,0.0,-0.04537856055185257
1666089382652326380,0.32197763345902786,0.0,0.0,0.0,0.0,-0.04066617157146788
1666089382652380158,0.34330065554240724,0.0,0.0,0.0,0.0,-0.03944444109507184
1666089382696379193,0.36035907320911065,0.0,0.0,0.0,0.0,-0.019896753472735354
1666089382696451566,0.36675597983412445,0.0,0.0,0.0,0.0,-0.005934119456780722
1666089382740058739,0.34330065554240724,0.0,0.0,0.0,0.0,-0.010471975511965976
1666089382740081469,0.34756525995908305,0.0,0.0,0.0,0.0,-0.01064650843716541
1666089382740101467,0.36888828204246243,0.0,0.0,0.0,0.0,-0.010122909661567111
1666089382784288729,0.37954979308415204,0.0,0.0,0.0,0.0,-0.012042771838760872
1666089382784517987,0.38594669970916584,0.0,0.0,0.0,0.0,-0.01832595714594046
1666089382799277427,0.3752851886674762,0.0,0.0,0.0,0.0,-0.02775073510670984
1666089382818416304,0.3752851886674762,0.0,0.0,0.0,0.0,-0.025132741228718346
1666089382860274673,0.40300511737586936,0.0,0.0,0.0,0.0,-0.0291469985083053
1666089382860310448,0.4008728151675314,0.0,0.0,0.0,0.0,-0.034732052114687155
1666089382904053558,0.40300511737586936,0.0,0.0,0.0,0.0,-0.03682644721708035
1666089382904063087,0.4072697217925452,0.0,0.0,0.0,0.0,-0.03089232776029963
1666089382948159877,0.4008728151675314,0.0,0.0,0.0,0.0,-0.034732052114687155
1666089382948205008,0.34116835333406925,0.0,0.0,0.0,0.0,-0.03892084231947355
1666089382992197800,0.33050684229237964,0.0,0.0,0.0,0.0,-0.035430183815484885
1666089382992238326,0.36888828204246243,0.0,0.0,0.0,0.0,-0.026878070480712675
1666089383036097293,0.3966082107508555,0.0,0.0,0.0,0.0,-0.006806784082777885
1666089383036109547,0.38594669970916584,0.0,0.0,0.0,0.0,-0.0024434609527920616
1666089383080302786,0.35822677100077277,0.0,0.0,0.0,0.0,-0.016231562043547268
1666089383080367362,0.36035907320911065,0.0,0.0,0.0,0.0,-0.004537856055185257
1666089383080769212,0.3518298643757589,0.0,0.0,0.0,0.0,0.0022689280275926286
1666089383128245358,0.34330065554240724,0.0,0.0,0.0,0.0,-0.020943951023931952
1666089383128283953,0.34756525995908305,0.0,0.0,0.0,0.0,-0.012391837689159739
1666089383138918147,0.34756525995908305,0.0,0.0,0.0,0.0,-0.008552113334772213
1666089383158840693,0.34330065554240724,0.0,0.0,0.0,0.0,-0.01117010721276371
1666089383200104781,0.32837454008404166,0.0,0.0,0.0,0.0,-0.006981317007977318
1666089383200124453,0.3262422378757037,0.0,0.0,0.0,0.0,-0.006108652381980153
1666089383244109066,0.3347714467090555,0.0,0.0,0.0,0.0,-0.005061454830783556
1666089383244122699,0.34756525995908305,0.0,0.0,0.0,0.0,0.0020943951023931952
1666089383292094376,0.34330065554240724,0.0,0.0,0.0,0.0,-0.0041887902047863905
1666089383292111570,0.34969756216742104,0.0,0.0,0.0,0.0,-0.013788101090755204
1666089383340095438,0.3560944687924348,0.0,0.0,0.0,0.0,-0.017976891295541593
1666089383340111290,0.34969756216742104,0.0,0.0,0.0,0.0,-0.013264502315156903
1666089383340115464,0.317713029042352,0.0,0.0,0.0,0.0,-0.010821041362364843
1666089383388426870,0.31984533125069,0.0,0.0,0.0,0.0,-0.016231562043547268
1666089383388490213,0.3369037489173934,0.0,0.0,0.0,0.0,-0.014835298641951801
1666089383398989425,0.3454329577507451,0.0,0.0,0.0,0.0,-0.01308996938995747
1666089383419248133,0.34116835333406925,0.0,0.0,0.0,0.0,-0.005585053606381855
1666089383460180815,0.34756525995908305,0.0,0.0,0.0,0.0,-0.011868238913561443
1666089383460221267,0.34969756216742104,0.0,0.0,0.0,0.0,-0.00715584993317675
1666089383508076135,0.36035907320911065,0.0,0.0,0.0,0.0,-0.0038397243543875246
1666089383508089656,0.36249137541744864,0.0,0.0,0.0,0.0,-0.007330382858376183
1666089383552269419,0.3646236776257865,0.0,0.0,0.0,0.0,-0.009250245035569947
1666089383552309746,0.3710205842508003,0.0,0.0,0.0,0.0,-0.011693705988362009
1666089383600594345,0.3710205842508003,0.0,0.0,0.0,0.0,-0.012391837689159739
1666089383600654420,0.3902113041258417,0.0,0.0,0.0,0.0,-0.015184364492350668
1666089383600751421,0.38594669970916584,0.0,0.0,0.0,0.0,-0.02391101075232232
1666089383648070857,0.38168209529249003,0.0,0.0,0.0,0.0,-0.02565634000431664
1666089383648090169,0.39874051295919344,0.0,0.0,0.0,0.0,-0.02757620218151041
1666089383658906160,0.38807900191750383,0.0,0.0,0.0,0.0,-0.034732052114687155
1666089383679022700,0.38807900191750383,0.0,0.0,0.0,0.0,-0.030368728984701335
1666089383720103312,0.3902113041258417,0.0,0.0,0.0,0.0,-0.022165681500327987
1666089383720122290,0.3966082107508555,0.0,0.0,0.0,0.0,-0.023038346126325153
1666089383764111860,0.39874051295919344,0.0,0.0,0.0,0.0,-0.00715584993317675
1666089383764131589,0.4008728151675314,0.0,0.0,0.0,0.0,-0.006632251157578452
1666089383812101193,0.39874051295919344,0.0,0.0,0.0,0.0,-0.011344640137963142
1666089383812116435,0.39447590854251763,0.0,0.0,0.0,0.0,-0.00942477796076938
1666089383856669772,0.39874051295919344,0.0,0.0,0.0,0.0,-0.004014257279586958
1666089383856809762,0.39447590854251763,0.0,0.0,0.0,0.0,-0.00645771823237902
1666089383900134873,0.39447590854251763,0.0,0.0,0.0,0.0,-0.010995574287564275
1666089383900156377,0.39447590854251763,0.0,0.0,0.0,0.0,-0.015358897417550098
1666089383900165785,0.37954979308415204,0.0,0.0,0.0,0.0,-0.017104226669544427
1666089383944035865,0.37954979308415204,0.0,0.0,0.0,0.0,-0.023212879051524585
1666089383944046948,0.3710205842508003,0.0,0.0,0.0,0.0,-0.03508111796508602
1666089383960581217,0.36675597983412445,0.0,0.0,0.0,0.0,-0.048520153205442354
1666089383979461651,0.3752851886674762,0.0,0.0,0.0,0.0,-0.06632251157578452
1666089384020121045,0.3731528864591383,0.0,0.0,0.0,0.0,-0.09040805525330627
1666089384020142836,0.3710205842508003,0.0,0.0,0.0,0.0,-0.1174606586592184
1666089384064244267,0.36675597983412445,0.0,0.0,0.0,0.0,-0.11850785621041496
1666089384064262954,0.3752851886674762,0.0,0.0,0.0,0.0,-0.12461650859239512
1666089384108072331,0.36888828204246243,0.0,0.0,0.0,0.0,-0.14381513036433274
1666089384108092860,0.36249137541744864,0.0,0.0,0.0,0.0,-0.1790707812546182
1666089384156862614,0.3646236776257865,0.0,0.0,0.0,0.0,-0.21275563581810877
1666089384156895446,0.35822677100077277,0.0,0.0,0.0,0.0,-0.23108159296404923
1666089384200237413,0.36249137541744864,0.0,0.0,0.0,0.0,-0.24940755010998966
1666089384200272690,0.35822677100077277,0.0,0.0,0.0,0.0,-0.3040363556974122
1666089384200292148,0.34969756216742104,0.0,0.0,0.0,0.0,-0.346273323595675
1666089384244080978,0.3518298643757589,0.0,0.0,0.0,0.0,-0.37576938795437914
1666089384244098524,0.34756525995908305,0.0,0.0,0.0,0.0,-0.40142572795869574
1666089384258665765,0.34330065554240724,0.0,0.0,0.0,0.0,-0.43301618741979314
1666089384279119187,0.34756525995908305,0.0,0.0,0.0,0.0,-0.44907321653814103
1666089384320316436,0.34969756216742104,0.0,0.0,0.0,0.0,-0.47438049069205873
1666089384320358913,0.3454329577507451,0.0,0.0,0.0,0.0,-0.5204571829447091
1666089384364253987,0.34330065554240724,0.0,0.0,0.0,0.0,-0.5424483315198376
1666089384364284337,0.34330065554240724,0.0,0.0,0.0,0.0,-0.5515240436302081
1666089384409466380,0.3369037489173934,0.0,0.0,0.0,0.0,-0.5705481324769462
1666089384409493366,0.3326391445007175,0.0,0.0,0.0,0.0,-0.6166248247295966
1666089384452158997,0.32837454008404166,0.0,0.0,0.0,0.0,-0.661130720655452
1666089384452186108,0.3326391445007175,0.0,0.0,0.0,0.0,-0.6422811647339132
1666089384496329111,0.3369037489173934,0.0,0.0,0.0,0.0,-0.6255260039147678
1666089384496382879,0.32837454008404166,0.0,0.0,0.0,0.0,-0.6543239365726742
1666089384540152371,0.3369037489173934,0.0,0.0,0.0,0.0,-0.666366708411435
1666089384540180120,0.3347714467090555,0.0,0.0,0.0,0.0,-0.6511823439190844
1666089384540195638,0.3347714467090555,0.0,0.0,0.0,0.0,-0.6147049625524029
1666089384584070504,0.3262422378757037,0.0,0.0,0.0,0.0,-0.5892231554732856
1666089384584084817,0.34116835333406925,0.0,0.0,0.0,0.0,-0.5757841202329294
1666089384599495079,0.3390360511257314,0.0,0.0,0.0,0.0,-0.5290092962794812
1666089384620740187,0.3347714467090555,0.0,0.0,0.0,0.0,-0.48537606497962305
