%time,field.linear.x,field.linear.y,field.linear.z,field.angular.x,field.angular.y,field.angular.z
1666089376158208560,0.5198523998260498,0.0,0.0,0.0,0.0,-1.0471975511965983
1666089376262638437,0.3537842929363251,0.0,0.0,0.0,0.0,-1.0471975511965983
1666089376276496871,0.3537842929363251,0.0,0.0,0.0,0.0,-1.0471975511965983
1666089376411649467,0.47530505061149597,0.0,0.0,0.0,0.0,-1.2217304763960313
1666089376504982142,0.46992465853691096,0.0,0.0,0.0,0.0,-1.2217304763960313
1666089376603059401,0.47008717060089106,0.0,0.0,0.0,0.0,-1.2217304763960313
1666089376620444790,0.4695896506309509,0.0,0.0,0.0,0.0,-1.2217304763960313
1666089376752129829,0.46682700514793396,0.0,0.0,0.0,0.0,-1.2217304763960313
1666089376784078276,0.4640236794948578,0.0,0.0,0.0,0.0,-1.2217304763960313
1666089376840186460,0.46345508098602295,0.0,0.0,0.0,0.0,-1.2217304763960313
1666089376961457416,0.4619671404361725,0.0,0.0,0.0,0.0,-1.2217304763960313
1666089377052978882,0.3250160217285156,0.0,0.0,0.0,0.0,-1.2217304763960313
1666089377143093813,0.32078972458839417,0.0,0.0,0.0,0.0,-1.2217304763960313
1666089377159982963,0.44629198312759394,0.0,0.0,0.0,0.0,-1.2217304763960313
1666089377225996893,0.4385107159614563,0.0,0.0,0.0,0.0,-1.2217304763960313
1666089377269987745,0.4385817945003509,0.0,0.0,0.0,0.0,-1.2217304763960313
1666089377314155052,0.4311258494853973,0.0,0.0,0.0,0.0,-1.2217304763960313
1666089377419170377,0.2957368493080139,0.0,0.0,0.0,0.0,-1.0471975511965983
1666089377483328773,0.42581018805503845,0.0,0.0,0.0,0.0,-1.0471975511965983
1666089377579400509,0.41554462909698486,0.0,0.0,0.0,0.0,-1.0471975511965983
1666089377655930872,0.3921954929828643,0.0,0.0,0.0,0.0,-1.0471975511965983
1666089377743569549,0.3815979063510895,0.0,0.0,0.0,0.0,-0.8726646259971653
1666089377783064338,0.0,0.0,0.0,0.0,0.0,-0.7359161072373294
1666089377826061728,0.0,0.0,0.0,0.0,0.0,-0.7357194615780842
1666089377870430376,0.0,0.0,0.0,0.0,0.0,-0.6986128986290274
1666089377958282077,0.0,0.0,0.0,0.0,0.0,-0.6567906206192412
1666089378001635642,0.0,0.0,0.0,0.0,0.0,-0.6108116748495813
1666089378077548001,0.0,0.0,0.0,0.0,0.0,-0.5661734492987234
1666089378181924126,0.0,0.0,0.0,0.0,0.0,-0.47489699545266195
1666089378197023956,0.0,0.0,0.0,0.0,0.0,-0.4706126255455509
1666089378281391516,0.0,0.0,0.0,0.0,0.0,-0.440840005170806
1666089378325726018,0.0,0.0,0.0,0.0,0.0,-0.3997865829658276
1666089378412999108,0.0,0.0,0.0,0.0,0.0,-0.37218278239961844
1666089378529566628,0.0,0.0,0.0,0.0,0.0,-0.338097472700077
1666089378536216121,0.0,0.0,0.0,0.0,0.0,-0.33035289263088563
1666089378621608610,0.0,0.0,0.0,0.0,0.0,-0.30887967050065407
1666089378709112466,0.0,0.0,0.0,0.0,0.0,-0.2912331554367872
1666089378798209371,0.0,0.0,0.0,0.0,0.0,-0.27468773637988453
1666089378961108813,0.0,0.0,0.0,0.0,0.0,-0.2669502007230793
1666089379001920469,0.0,0.0,0.0,0.0,0.0,-0.25978691769520984
1666089379090126066,0.0,0.0,0.0,0.0,0.0,-0.2647867019428734
1666089379133256794,0.0,0.0,0.0,0.0,0.0,-0.26498951536056975
1666089379228362065,0.0,0.0,0.0,0.0,0.0,-0.31139747628171194
1666089379235655714,0.0,0.0,0.0,0.0,0.0,-0.30418963522021863
1666089379305183556,0.0,0.0,0.0,0.0,0.0,-0.31339612890672486
1666089379392896216,0.0,0.0,0.0,0.0,0.0,-0.3490658503988664
1666089379436950798,0.0,0.0,0.0,0.0,0.0,-0.3490658503988664
1666089379528141376,0.0,0.0,0.0,0.0,0.0,-0.34944007189032095
1666089379558304481,0.0,0.0,0.0,0.0,0.0,-0.3490658503988664
1666089379645471790,0.0,0.0,0.0,0.0,0.0,-0.3560614623522725
1666089379733504419,0.0,0.0,0.0,0.0,0.0,-0.38069546147686345
1666089379821566500,0.0,0.0,0.0,0.0,0.0,-0.4001968397282015
1666089379865299348,0.0,0.0,0.0,0.0,0.0,-0.40735864972568253
1666089379878456985,0.0,0.0,0.0,0.0,0.0,-0.4191408952977484
1666089379995408233,0.0,0.0,0.0,0.0,0.0,-0.4303546042787029
1666089380077616107,0.0,0.0,0.0,0.0,0.0,-0.4347352302770466
1666089380122116516,0.0,0.0,0.0,0.0,0.0,-0.426192419355455
1666089380289200609,0.0,0.0,0.0,0.0,0.0,-0.43618045402713046
1666089380345989847,0.0,0.0,0.0,0.0,0.0,-0.411851149622029
1666089380360059001,0.0,0.0,0.0,0.0,0.0,-0.4085027327727872
1666089380446807962,0.0,0.0,0.0,0.0,0.0,-0.4080314236000565
1666089380581235323,0.0,0.0,0.0,0.0,0.0,-0.38404386314881445
1666089380691559521,0.0,0.0,0.0,0.0,0.0,-0.37738082837646736
1666089380700678741,0.0,0.0,0.0,0.0,0.0,-0.3633672607145738
1666089380826045872,0.0,0.0,0.0,0.0,0.0,-0.3753831397126385
1666089380881407877,0.0,0.0,0.0,0.0,0.0,-0.3697481681668494
1666089380909948634,0.0,0.0,0.0,0.0,0.0,-0.37138800071827327
1666089380970405461,0.0,0.0,0.0,0.0,0.0,-0.3810525851213024
1666089381001411452,0.0,0.0,0.0,0.0,0.0,-0.3777286840828883
1666089381089438755,0.0,0.0,0.0,0.0,0.0,-0.3938394146172528
1666089381224698245,0.4342445135116577,0.0,0.0,0.0,0.0,-0.14296816289424896
1666089381334485926,0.3768805265426636,0.0,0.0,0.0,0.0,-0.03440814092755318
1666089381344171190,0.45946949720382685,0.0,0.0,0.0,0.0,-0.15280552208423615
1666089381442561153,0.46975550055503845,0.0,0.0,0.0,0.0,-0.15696196258068085
1666089381476896237,0.4694711863994598,0.0,0.0,0.0,0.0,-0.1576775461435318
1666089381607338423,0.48754259943962097,0.0,0.0,0.0,0.0,-0.1681547909975052
1666089381676572840,0.49524384737014765,0.0,0.0,0.0,0.0,-0.17367415130138397
1666089381683600459,0.4938933551311493,0.0,0.0,0.0,0.0,-0.17313657701015472
1666089381819593988,0.4957994520664215,0.0,0.0,0.0,0.0,-0.1770954132080078
1666089381969417205,0.5164073705673218,0.0,0.0,0.0,0.0,-0.19222845137119293
1666089381982685847,0.5154122710227966,0.0,0.0,0.0,0.0,-0.19270315766334534
1666089382137041757,0.43568322062492365,0.0,0.0,0.0,0.0,-0.09754202514886856
1666089382163736560,0.5194043517112732,0.0,0.0,0.0,0.0,-0.19958575069904327
1666089382240559908,0.5209090709686279,0.0,0.0,0.0,0.0,-0.20207619667053223
1666089382326772934,0.5195125341415405,0.0,0.0,0.0,0.0,-0.20395925641059875
1666089382459721980,0.5160127878189087,0.0,0.0,0.0,0.0,-0.2036646455526352
1666089382547817251,0.42219987511634827,0.0,0.0,0.0,0.0,-0.10629608482122421
1666089382601703595,0.5058602690696716,0.0,0.0,0.0,0.0,-0.20260892808437347
1666089382627698524,0.505575954914093,0.0,0.0,0.0,0.0,-0.20252865552902222
1666089382719980524,0.5009462237358093,0.0,0.0,0.0,0.0,-0.2005886733531952
1666089382844784450,0.40515759587287903,0.0,0.0,0.0,0.0,-0.10091430693864822
1666089382899274623,0.4883747696876526,0.0,0.0,0.0,0.0,-0.1986636221408844
1666089382928946011,0.4883747696876526,0.0,0.0,0.0,0.0,-0.1988172084093094
1666089383020432761,0.39508581161499023,0.0,0.0,0.0,0.0,-0.09940213710069656
1666089383108731239,0.3905401229858398,0.0,0.0,0.0,0.0,-0.09960832446813583
1666089383165519473,0.4772847294807434,0.0,0.0,0.0,0.0,-0.19948385655879974
1666089383272499903,0.3832275569438934,0.0,0.0,0.0,0.0,-0.1050102561712265
1666089383318283072,0.4810141623020172,0.0,0.0,0.0,0.0,-0.20864269137382507
1666089383403836888,0.4782321751117706,0.0,0.0,0.0,0.0,-0.21186430752277374
1666089383450108064,0.47196176648139954,0.0,0.0,0.0,0.0,-0.2154533565044403
1666089383611495263,0.4636410176753998,0.0,0.0,0.0,0.0,-0.21804945170879364
1666089383656582818,0.46094760298728943,0.0,0.0,0.0,0.0,-0.22421154379844666
1666089383743313289,0.45522269606590265,0.0,0.0,0.0,0.0,-0.3490658503988664
1666089383817542700,0.42863729596138,0.0,0.0,0.0,0.0,-0.5235987755982994
1666089383821596436,0.42863729596138,0.0,0.0,0.0,0.0,-0.5235987755982994
1666089383961471463,0.4220801889896392,0.0,0.0,0.0,0.0,-0.8726646259971653
1666089384047094861,0.4044237732887268,0.0,0.0,0.0,0.0,-1.0471975511965983
1666089384120934493,0.39779290556907654,0.0,0.0,0.0,0.0,-1.0471975511965983
1666089384123603207,0.3981482684612274,0.0,0.0,0.0,0.0,-1.0471975511965983
1666089384255277870,0.3933190405368805,0.0,0.0,0.0,0.0,-1.2217304763960313
1666089384301660436,0.386663407087326,0.0,0.0,0.0,0.0,-1.0471975511965983
1666089384393587599,0.3832872807979584,0.0,0.0,0.0,0.0,-1.0471975511965983
1666089384403543852,0.38364267349243164,0.0,0.0,0.0,0.0,-1.0471975511965983
1666089384508502491,0.3878780305385589,0.0,0.0,0.0,0.0,-1.0471975511965983
1666089384596617411,0.3899673223495483,0.0,0.0,0.0,0.0,-1.0471975511965983
1666089384728871385,0.25424173474311823,0.0,0.0,0.0,0.0,-1.0471975511965983
1666089384780050542,0.3964105546474457,0.0,0.0,0.0,0.0,-1.0471975511965983
1666089384784833136,0.40060409903526306,0.0,0.0,0.0,0.0,-1.0471975511965983
1666089384896205117,0.4107426702976227,0.0,0.0,0.0,0.0,-0.8726646259971653
1666089384941012750,0.4142254292964935,0.0,0.0,0.0,0.0,-0.8726646259971653
1666089385029227851,0.3177701830863952,0.0,0.0,0.0,0.0,-0.6981317007977323
1666089385110222680,0.42586812376976013,0.0,0.0,0.0,0.0,-0.6981317007977323
1666089385196817743,0.4327057898044586,0.0,0.0,0.0,0.0,-0.6981317007977323
1666089385239483018,0.42152076959609985,0.0,0.0,0.0,0.0,-0.5235987755982994
1666089385337351736,0.45036670565605164,0.0,0.0,0.0,0.0,-0.5235987755982994
1666089385375622208,0.45022454857826233,0.0,0.0,0.0,0.0,-0.5235987755982994
1666089385405879983,0.4638006091117859,0.0,0.0,0.0,0.0,-0.3490658503988664
1666089385496854548,0.47713905572891235,0.0,0.0,0.0,0.0,-0.3490658503988664
1666089385583674971,0.4893353581428527,0.0,0.0,0.0,0.0,-0.17453292519943345
1666089385627540864,0.4977368414402008,0.0,0.0,0.0,0.0,-0.17453292519943345
1666089385673904507,0.4822362959384918,0.0,0.0,0.0,0.0,-0.17453292519943345
1666089385750593213,0.49569529294967646,0.0,0.0,0.0,0.0,-0.07736551016569138
1666089385841207685,0.4895352721214294,0.0,0.0,0.0,0.0,-0.07090083509683609
1666089385945791634,0.48053115606307983,0.0,0.0,0.0,0.0,-0.06528765708208084
1666089386050311029,0.4689612090587616,0.0,0.0,0.0,0.0,-0.062245018780231476
1666089386124599689,0.45503383874893183,0.0,0.0,0.0,0.0,-4.996003610813204e-16
1666089386210788326,0.4377340078353882,0.0,0.0,0.0,0.0,-4.996003610813204e-16
1666089386316009791,0.4031106233596802,0.0,0.0,0.0,0.0,-4.996003610813204e-16
1666089386343028805,0.40332385897636414,0.0,0.0,0.0,0.0,-4.996003610813204e-16
1666089386445989227,0.0,0.0,0.0,0.0,0.0,-4.996003610813204e-16
1666089386467020409,0.0,0.0,0.0,0.0,0.0,-4.996003610813204e-16
1666089386549837735,0.0,0.0,0.0,0.0,0.0,-4.996003610813204e-16
1666089386593812756,0.0,0.0,0.0,0.0,0.0,-4.996003610813204e-16
1666089386681564564,0.0,0.0,0.0,0.0,0.0,-4.996003610813204e-16
1666089386782703132,0.0,0.0,0.0,0.0,0.0,-4.996003610813204e-16
1666089386889469490,0.0,0.0,0.0,0.0,0.0,-4.996003610813204e-16
1666089386933928707,0.0,0.0,0.0,0.0,0.0,-4.996003610813204e-16
1666089387021835266,0.0,0.0,0.0,0.0,0.0,-4.996003610813204e-16
1666089387064980512,0.0,0.0,0.0,0.0,0.0,-4.996003610813204e-16
1666089387121686278,0.0,0.0,0.0,0.0,0.0,-4.996003610813204e-16
1666089387184889980,0.0,0.0,0.0,0.0,0.0,-4.996003610813204e-16
1666089387277812993,0.0,0.0,0.0,0.0,0.0,-4.996003610813204e-16
1666089387418446014,0.0,0.0,0.0,0.0,0.0,-4.996003610813204e-16
1666089387444619491,0.0,0.0,0.0,0.0,0.0,-4.996003610813204e-16
1666089387533185383,0.0,0.0,0.0,0.0,0.0,-4.996003610813204e-16
1666089387578111067,0.0,0.0,0.0,0.0,0.0,-4.996003610813204e-16
1666089387669618547,0.0,0.0,0.0,0.0,0.0,-4.996003610813204e-16
1666089387749095077,0.42476257681846613,0.0,0.0,0.0,0.0,-0.060050856322050095
1666089387834082796,0.4448244869709015,0.0,0.0,0.0,0.0,-0.057417429983615875
1666089387919398222,0.4689118564128876,0.0,0.0,0.0,0.0,-0.05436653643846512
1666089388008764921,0.511078417301178,0.0,0.0,0.0,0.0,-0.049950577318668365
1666089388084510760,0.5391557812690735,0.0,0.0,0.0,0.0,-4.996003610813204e-16
1666089388131071163,0.5382317900657653,0.0,0.0,0.0,0.0,-4.996003610813204e-16
1666089388176502933,0.5585664510726928,0.0,0.0,0.0,0.0,-4.996003610813204e-16
1666089388270732620,0.5719458460807799,0.0,0.0,0.0,0.0,-0.04635627195239067
1666089388308356535,0.5855351686477661,0.0,0.0,0.0,0.0,-0.04627808555960655
1666089388366453155,0.5995949506759644,0.0,0.0,0.0,0.0,-0.046213146299123764
1666089388429558978,0.6118192076683044,0.0,0.0,0.0,0.0,-0.04653088375926018
1666089388520123793,0.6239328384399414,0.0,0.0,0.0,0.0,-0.04725634306669235
1666089388592523769,0.6420619487762451,0.0,0.0,0.0,0.0,-0.05046935752034187
1666089388682444837,0.650578737258911,0.0,0.0,0.0,0.0,-0.05270330235362053
1666089388685356904,0.6495836973190308,0.0,0.0,0.0,0.0,-0.052801039069890976
1666089388774656134,0.658298671245575,0.0,0.0,0.0,0.0,-0.055022433400154114
1666089388818539691,0.6618914008140564,0.0,0.0,0.0,0.0,-4.996003610813204e-16
1666089388912032692,0.671661078929901,0.0,0.0,0.0,0.0,-0.060027770698070526
1666089388988657644,0.6765112280845642,0.0,0.0,0.0,0.0,-0.06259938329458237
1666089389074702155,0.6821159720420837,0.0,0.0,0.0,0.0,-0.06475318968296051
1666089389174047888,0.6865583658218383,0.0,0.0,0.0,0.0,-0.06592393666505814
1666089389251133827,0.6816003918647765,0.0,0.0,0.0,0.0,-0.17453292519943345
1666089389332935865,0.6815471649169922,0.0,0.0,0.0,0.0,-0.06638197600841522
1666089389419447220,0.6756049990653992,0.0,0.0,0.0,0.0,-0.0652683675289154
1666089389513302110,0.6583330035209655,0.0,0.0,0.0,0.0,-0.062492646276950836
1666089389589892597,0.6384782195091248,0.0,0.0,0.0,0.0,-0.05917080119252205
1666089389729607812,0.6181702017784118,0.0,0.0,0.0,0.0,-0.05511678010225296
1666089389784169923,0.5941144227981567,0.0,0.0,0.0,0.0,-4.996003610813204e-16
1666089389890885355,0.5680637359619141,0.0,0.0,0.0,0.0,-0.045444000512361526
1666089389986830701,0.5383281707763671,0.0,0.0,0.0,0.0,-0.040193259716033936
1666089390066182277,0.4989922642707824,0.0,0.0,0.0,0.0,-0.03580909222364426
1666089390159237890,0.49106895923614496,0.0,0.0,0.0,0.0,-0.03015526756644249
1666089390246763525,0.46269160509109497,0.0,0.0,0.0,0.0,-0.02629346400499344
1666089390325883577,0.43232089281082153,0.0,0.0,0.0,0.0,-0.024172015488147736
1666089390417166269,0.40834718942642206,0.0,0.0,0.0,0.0,-0.020823579281568527
1666089390526412788,0.3858732581138611,0.0,0.0,0.0,0.0,-0.018206512555480003
1666089390575173989,0.402159720659256,0.0,0.0,0.0,0.0,0.10647830367088318
1666089390662588003,0.0,0.0,0.0,0.0,0.0,0.24679508943259917
1666089390704934687,0.0,0.0,0.0,0.0,0.0,0.25668607303957774
1666089390825037737,0.0,0.0,0.0,0.0,0.0,0.2735119921135588
1666089390913901003,0.0,0.0,0.0,0.0,0.0,0.2796277270408025
1666089391017000184,0.0,0.0,0.0,0.0,0.0,0.28992523995250463
1666089391045682322,0.0,0.0,0.0,0.0,0.0,0.2825346859299305
1666089391134352884,0.0,0.0,0.0,0.0,0.0,0.2849061698031809
1666089391164923641,0.0,0.0,0.0,0.0,0.0,0.28015131660847836
1666089391213602296,0.0,0.0,0.0,0.0,0.0,0.2787562930455446
1666089391309249000,0.0,0.0,0.0,0.0,0.0,0.28032277383699944
1666089391387902019,0.0,0.0,0.0,0.0,0.0,0.27765096000307027
1666089391435049993,0.37383174896240234,0.0,0.0,0.0,0.0,-0.004767054226249456
1666089391518903504,0.3905073404312134,0.0,0.0,0.0,0.0,-0.0025212205946445465
1666089391609752489,0.4097267985343933,0.0,0.0,0.0,0.0,-0.00022457962040789425
1666089391727658882,0.4284290671348571,0.0,0.0,0.0,0.0,0.0037218716461211443
1666089391819453215,0.46602374315261835,0.0,0.0,0.0,0.0,0.011105266399681568
1666089391826750157,0.4650997221469879,0.0,0.0,0.0,0.0,0.011220457963645458
1666089391891557925,0.4820872545242309,0.0,0.0,0.0,0.0,0.015025962144136429
1666089391982999769,0.495838463306427,0.0,0.0,0.0,0.0,0.017877895385026932
1666089392071308752,0.5095826983451843,0.0,0.0,0.0,0.0,0.022663379088044167
1666089392118195476,0.5230592489242554,0.0,0.0,0.0,0.0,0.027416476979851723
1666089392239649550,0.5343459844589233,0.0,0.0,0.0,0.0,0.03281800448894501
1666089392350700989,0.5516870617866516,0.0,0.0,0.0,0.0,-4.996003610813204e-16
1666089392377132562,0.5509763360023499,0.0,0.0,0.0,0.0,-4.996003610813204e-16
1666089392446649710,0.5615364909172058,0.0,0.0,0.0,0.0,-4.996003610813204e-16
1666089392547793254,0.6192319989204407,0.0,0.0,0.0,0.0,-4.996003610813204e-16
1666089392634074747,0.5856432318687439,0.0,0.0,0.0,0.0,-4.996003610813204e-16
1666089392681248476,0.5847193002700806,0.0,0.0,0.0,0.0,-4.996003610813204e-16
1666089392709689549,0.6344586610794067,0.0,0.0,0.0,0.0,-4.996003610813204e-16
1666089392804270854,0.6361712813377379,0.0,0.0,0.0,0.0,-4.996003610813204e-16
1666089392895147288,0.5794429183006287,0.0,0.0,0.0,0.0,0.07220005989074707
1666089392946349237,0.572051465511322,0.0,0.0,0.0,0.0,0.07326506823301315
1666089392970067047,0.5646694302558899,0.0,0.0,0.0,0.0,0.07411365211009979
1666089393108221537,0.5490718483924866,0.0,0.0,0.0,0.0,0.07395050674676895
1666089393151811632,0.5490718483924866,0.0,0.0,0.0,0.0,0.0737689882516861
1666089393194807270,0.5380300283432007,0.0,0.0,0.0,0.0,0.07157859951257706
1666089393317155248,0.5284135937690735,0.0,0.0,0.0,0.0,0.06860140711069107
1666089393454907622,0.5611516833305359,0.0,0.0,0.0,0.0,0.5235987755982984
1666089393540638197,0.48998725414276123,0.0,0.0,0.0,0.0,0.5235987755982984
1666089393573152855,0.48977401852607727,0.0,0.0,0.0,0.0,0.5235987755982984
1666089393618468407,0.533015787601471,0.0,0.0,0.0,0.0,0.5235987755982984
1666089393707095061,0.46372973918914795,0.0,0.0,0.0,0.0,0.5235987755982984
1666089393751259249,0.46294787526130676,0.0,0.0,0.0,0.0,0.5235987755982984
1666089393827333009,0.4520283341407776,0.0,0.0,0.0,0.0,0.5235987755982984
1666089393922904725,0.4978097379207611,0.0,0.0,0.0,0.0,0.5235987755982984
1666089394010067122,0.4247249662876129,0.0,0.0,0.0,0.0,0.5235987755982984
1666089394068159732,0.4004574120044708,0.0,0.0,0.0,0.0,0.5235987755982984
1666089394131261426,0.3897513747215271,0.0,0.0,0.0,0.0,0.5235987755982984
1666089394216856048,0.3755806684494018,0.0,0.0,0.0,0.0,0.5235987755982984
1666089394352292196,0.3653031289577484,0.0,0.0,0.0,0.0,0.5235987755982984
1666089394395109532,0.35441720485687256,0.0,0.0,0.0,0.0,0.5235987755982984
1666089394473509974,0.4081098735332489,0.0,0.0,0.0,0.0,0.3490658503988654
1666089394605897997,0.0,0.0,0.0,0.0,0.0,0.3126589018364966
1666089394733813198,0.0,0.0,0.0,0.0,0.0,0.24126527151585928
1666089394772534837,0.0,0.0,0.0,0.0,0.0,0.2299652302049977
1666089394861577782,0.0,0.0,0.0,0.0,0.0,0.17453292519943245
1666089394906286287,0.0,0.0,0.0,0.0,0.0,0.17453292519943245
1666089395018465192,0.0,0.0,0.0,0.0,0.0,-4.996003610813204e-16
1666089395029893895,0.41077473759651184,0.0,0.0,0.0,0.0,0.08236557990312576
1666089395141932486,0.4087430536746979,0.0,0.0,0.0,0.0,-4.996003610813204e-16
1666089395159260491,0.408174455165863,0.0,0.0,0.0,0.0,-4.996003610813204e-16
1666089395290950316,0.4246871769428253,0.0,0.0,0.0,0.0,0.06813739240169525
1666089395336467276,0.4472544491291046,0.0,0.0,0.0,0.0,-0.0641031414270401
1666089395351801363,0.4470411837100982,0.0,0.0,0.0,0.0,-0.0639251172542572
1666089395411651550,0.45197474956512446,0.0,0.0,0.0,0.0,0.04907762259244919
1666089395505626545,0.47399598360061646,0.0,0.0,0.0,0.0,-0.07476044446229935
1666089395590426989,0.4676957428455353,0.0,0.0,0.0,0.0,0.03413434699177742
1666089395651576932,0.4966458976268768,0.0,0.0,0.0,0.0,-0.08801396936178207
1666089395757048934,0.506857693195343,0.0,0.0,0.0,0.0,-0.09677645564079285
1666089395848426014,0.49001878499984736,0.0,0.0,0.0,0.0,-0.00041989635792560875
1666089395891200845,0.48937907814979553,0.0,0.0,0.0,0.0,-0.00038149909232743084
1666089395936391165,0.5318754315376282,0.0,0.0,0.0,0.0,-0.11762707680463791
1666089396012016580,0.5394455790519714,0.0,0.0,0.0,0.0,-0.12488894909620285
1666089396054821831,0.5455664992332458,0.0,0.0,0.0,0.0,-0.131231889128685
1666089396144035106,0.5533707737922668,0.0,0.0,0.0,0.0,-0.13722023367881775
1666089396231786718,0.5530935525894165,0.0,0.0,0.0,0.0,-0.14289970695972443
1666089396315078702,0.5511970520019531,0.0,0.0,0.0,0.0,-0.14981037378311157
1666089396445479043,0.5451099276542664,0.0,0.0,0.0,0.0,-0.15380020439624786
1666089396488959925,0.5418232083320618,0.0,0.0,0.0,0.0,-0.15750735998153687
1666089396576550961,0.5340198874473572,0.0,0.0,0.0,0.0,-0.16019082069396973
1666089396655516612,0.5235178470611572,0.0,0.0,0.0,0.0,-0.16181553900241852
1666089396695215074,0.5107783675193787,0.0,0.0,0.0,0.0,-0.1625078022480011
1666089396784808747,0.49670636653900146,0.0,0.0,0.0,0.0,-0.1600983440876007
1666089396919771106,0.48774674534797663,0.0,0.0,0.0,0.0,-0.1588040292263031
1666089396990217237,0.40171724557876587,0.0,0.0,0.0,0.0,-0.04962052032351494
1666089397096989515,0.4650515019893646,0.0,0.0,0.0,0.0,-0.1583770215511322
1666089397133544438,0.46562010049819946,0.0,0.0,0.0,0.0,-0.15832117199897766
1666089397260117988,0.4604821801185608,0.0,0.0,0.0,0.0,-0.1653774231672287
1666089397356537694,0.3754079937934875,0.0,0.0,0.0,0.0,-0.0599861666560173
1666089397399940693,0.37498149275779724,0.0,0.0,0.0,0.0,-0.060069937258958817
1666089397514690395,0.43696150183677673,0.0,0.0,0.0,0.0,-0.17044733464717865
1666089397538572954,0.42512425780296326,0.0,0.0,0.0,0.0,-0.17164094746112823
1666089397727114956,0.40178641676902765,0.0,0.0,0.0,0.0,-0.17412477731704712
1666089397795494552,0.28462764620780945,0.0,0.0,0.0,0.0,-0.06831631809473038
1666089397815200683,0.28491199016571045,0.0,0.0,0.0,0.0,-0.06807196885347366
1666089397894589801,0.0,0.0,0.0,0.0,0.0,-0.6981317007977323
1666089398028582372,0.0,0.0,0.0,0.0,0.0,-0.7384858946707061
1666089398157674554,0.0,0.0,0.0,0.0,0.0,-0.8088234341958569
1666089398201624078,0.0,0.0,0.0,0.0,0.0,-0.7882812083108528
1666089398289217871,0.0,0.0,0.0,0.0,0.0,-0.8314246822251556
1666089398388779428,0.0,0.0,0.0,0.0,0.0,-0.8726646259971653
1666089398464026583,0.0,0.0,0.0,0.0,0.0,-0.8760329798769586
1666089398503145816,0.0,0.0,0.0,0.0,0.0,-0.8726646259971653
1666089398632617009,0.0,0.0,0.0,0.0,0.0,-0.8726646259971653
1666089398762289112,0.3809276819229126,0.0,0.0,0.0,0.0,-0.20993635058403015
1666089398810847593,0.3945452868938446,0.0,0.0,0.0,0.0,-0.20978529751300812
1666089398860232194,0.3964115381240845,0.0,0.0,0.0,0.0,-0.2032443732023239
1666089398945674256,0.4070663452148437,0.0,0.0,0.0,0.0,-0.19983221590518951
1666089399059336068,0.3150961101055145,0.0,0.0,0.0,0.0,-0.08882511407136917
1666089399153521984,0.3412500321865082,0.0,0.0,0.0,0.0,-0.08097884804010391
1666089399246964263,0.45802730321884155,0.0,0.0,0.0,0.0,-0.17981913685798645
1666089399272482967,0.4120572507381439,0.0,0.0,0.0,0.0,-0.0622616745531559
1666089399447132027,0.49186596274375916,0.0,0.0,0.0,0.0,-0.042981527745723724
1666089399491956945,0.4915105700492859,0.0,0.0,0.0,0.0,-0.0422380194067955
1666089399536097968,0.572400689125061,0.0,0.0,0.0,0.0,-0.1364395171403885
1666089399579611767,0.5931386351585388,0.0,0.0,0.0,0.0,-0.12628349661827087
1666089399654886076,0.6127694845199585,0.0,0.0,0.0,0.0,-0.11575709283351898
1666089399792408965,0.6328759789466857,0.0,0.0,0.0,0.0,-0.10628737509250641
1666089399876560307,0.6580325365066528,0.0,0.0,0.0,0.0,-0.09625165909528732
1666089399934808694,0.6765514612197875,0.0,0.0,0.0,0.0,-0.08694759756326675
1666089399995914113,0.686901032924652,0.0,0.0,0.0,0.0,-0.07925243675708771
1666089400083830428,0.6934162974357605,0.0,0.0,0.0,0.0,-0.07183615118265152
1666089400173130467,0.6973153948783875,0.0,0.0,0.0,0.0,-4.996003610813204e-16
1666089400217457036,0.6968889832496643,0.0,0.0,0.0,0.0,-4.996003610813204e-16
1666089400276617115,0.688892662525177,0.0,0.0,0.0,0.0,-4.996003610813204e-16
1666089400382768600,0.6812896132469177,0.0,0.0,0.0,0.0,0.3490658503988654
1666089400473276268,0.6686736941337584,0.0,0.0,0.0,0.0,0.3490658503988654
1666089400561095132,0.6542734503746033,0.0,0.0,0.0,0.0,-0.06347692757844925
1666089400574332272,0.6414167881011963,0.0,0.0,0.0,0.0,-0.06592778861522675
1666089400684466614,0.6273376345634459,0.0,0.0,0.0,0.0,-0.06872396916151047
1666089400780377394,0.612931489944458,0.0,0.0,0.0,0.0,-0.07487121969461441
1666089400841676719,0.6034110188484191,0.0,0.0,0.0,0.0,-0.078154057264328
1666089400938476712,0.2408010619027274,0.0,0.0,0.0,0.0,-0.08137813955545425
1666089401039049917,0.16424905913216728,0.0,0.0,0.0,0.0,-4.996003610813204e-16
1666089401072440996,0.16486844505582537,0.0,0.0,0.0,0.0,-4.996003610813204e-16
1666089401159411925,0.558257520198822,0.0,0.0,0.0,0.0,-0.08814924210309982
1666089401198052219,0.5351161360740662,0.0,0.0,0.0,0.0,-0.08932879567146301
1666089401281075653,0.5120927095413208,0.0,0.0,0.0,0.0,-0.09039629250764847
1666089401367079908,0.48869118094444275,0.0,0.0,0.0,0.0,-0.08823203295469284
1666089401454429463,0.4711079001426697,0.0,0.0,0.0,0.0,-0.08825553953647614
1666089401499613523,0.4538174867630005,0.0,0.0,0.0,0.0,-0.08704178035259247
1666089401619179915,0.44803062081336975,0.0,0.0,0.0,0.0,-0.08492807298898697
1666089401664341801,0.44459429383277893,0.0,0.0,0.0,0.0,-0.08068720996379852
1666089401753715231,0.4336397349834442,0.0,0.0,0.0,0.0,-0.0788399875164032
1666089401884548178,0.4321051836013794,0.0,0.0,0.0,0.0,-0.0758557990193367
1666089401921085683,0.43217626214027405,0.0,0.0,0.0,0.0,-0.07617693394422531
1666089402056042368,0.4297956526279449,0.0,0.0,0.0,0.0,-0.07457620650529861
1666089402153726685,0.4137472808361053,0.0,0.0,0.0,0.0,-0.07231028378009796
1666089402175745463,0.41424483060836786,0.0,0.0,0.0,0.0,-0.07212527096271515
1666089402309427966,0.4056602418422699,0.0,0.0,0.0,0.0,-0.07128000259399414
1666089402399317000,0.3894152343273163,0.0,0.0,0.0,0.0,-4.996003610813204e-16
1666089402446600141,0.0,0.0,0.0,0.0,0.0,-4.996003610813204e-16
1666089402453096219,0.0,0.0,0.0,0.0,0.0,-4.996003610813204e-16
1666089402513589972,0.0,0.0,0.0,0.0,0.0,-4.996003610813204e-16
1666089402607439739,0.0,0.0,0.0,0.0,0.0,-4.996003610813204e-16
1666089402694234018,0.0,0.0,0.0,0.0,0.0,-4.996003610813204e-16
1666089402830678233,0.0,0.0,0.0,0.0,0.0,-4.996003610813204e-16
1666089402867788776,0.0,0.0,0.0,0.0,0.0,-4.996003610813204e-16
1666089402953453432,0.0,0.0,0.0,0.0,0.0,-4.996003610813204e-16
1666089403013183659,0.0,0.0,0.0,0.0,0.0,-4.996003610813204e-16
1666089403073202173,0.0,0.0,0.0,0.0,0.0,-4.996003610813204e-16
1666089403213287161,0.40772855281829834,0.0,0.0,0.0,0.0,-0.07819034904241562
1666089403319653633,0.4549368619918823,0.0,0.0,0.0,0.0,-0.07705465704202652
1666089403333503859,0.478667289018631,0.0,0.0,0.0,0.0,-0.07606127113103867
1666089403430871280,0.49019309878349304,0.0,0.0,0.0,0.0,-4.996003610813204e-16
1666089403462357692,0.4893401861190796,0.0,0.0,0.0,0.0,-4.996003610813204e-16
1666089403507037548,0.5280711650848389,0.0,0.0,0.0,0.0,-0.07323344796895981
1666089403598397042,0.5491401553153992,0.0,0.0,0.0,0.0,-4.996003610813204e-16
1666089403724633617,0.5840186476707458,0.0,0.0,0.0,0.0,-0.06780926883220673
1666089403861889893,0.6268240809440613,0.0,0.0,0.0,0.0,-4.996003610813204e-16
1666089403951665069,0.6491273641586304,0.0,0.0,0.0,0.0,-4.996003610813204e-16
1666089403979691065,0.6661112904548645,0.0,0.0,0.0,0.0,-0.05194859951734543
1666089404058579123,0.6861470937728881,0.0,0.0,0.0,0.0,-4.996003610813204e-16
1666089404112068878,0.6855785250663757,0.0,0.0,0.0,0.0,-4.996003610813204e-16
1666089404199896061,0.7046196460723876,0.0,0.0,0.0,0.0,-4.996003610813204e-16
1666089404284634718,0.719752311706543,0.0,0.0,0.0,0.0,-4.996003610813204e-16
1666089404417251820,0.7436650395393372,0.0,0.0,0.0,0.0,-4.996003610813204e-16
1666089404431038430,0.7502526044845581,0.0,0.0,0.0,0.0,-4.996003610813204e-16
1666089404535067841,0.7553869485855103,0.0,0.0,0.0,0.0,-4.996003610813204e-16
1666089404578657355,0.7541481256484985,0.0,0.0,0.0,0.0,-4.996003610813204e-16
1666089404608700869,0.749929666519165,0.0,0.0,0.0,0.0,-4.996003610813204e-16
1666089404753341863,0.7405399680137634,0.0,0.0,0.0,0.0,-0.010108033195137978
1666089404797387674,0.7400424480438232,0.0,0.0,0.0,0.0,-0.01012897677719593
1666089404838699544,0.7441576719284058,0.0,0.0,0.0,0.0,0.08231941610574722
1666089404915510692,0.7269161939620972,0.0,0.0,0.0,0.0,-0.01059021521359682
1666089405004547932,0.7353708744049072,0.0,0.0,0.0,0.0,0.082002654671669
1666089405094661788,0.7297653555870056,0.0,0.0,0.0,0.0,0.08154777437448502
1666089405228725262,0.7129172086715698,0.0,0.0,0.0,0.0,-4.996003610813204e-16
1666089405339720297,0.7030519247055054,0.0,0.0,0.0,0.0,-4.996003610813204e-16
1666089405434049131,0.699026882648468,0.0,0.0,0.0,0.0,-0.010853615589439869
1666089405465834511,0.6913879513740538,0.0,0.0,0.0,0.0,-0.01011588890105486
1666089405595821523,0.6823540925979614,0.0,0.0,0.0,0.0,-0.00916068535298109
1666089405655171479,0.6685366034507751,0.0,0.0,0.0,0.0,-0.0072146225720644
1666089405695768043,0.6717326641082764,0.0,0.0,0.0,0.0,0.0915595293045044
1666089405724064284,0.6715194582939148,0.0,0.0,0.0,0.0,0.09143736213445663
1666089405811366843,0.6330693364143372,0.0,0.0,0.0,0.0,-0.00447496771812439
1666089405915871170,0.6170328855514526,0.0,0.0,0.0,0.0,-0.002917251782491803
1666089406034172555,0.5707890391349792,0.0,0.0,0.0,0.0,-0.0005300166667439044
1666089406109601604,0.5470375418663025,0.0,0.0,0.0,0.0,0.0013820866588503122
1666089406128480198,0.5469664931297302,0.0,0.0,0.0,0.0,0.0014763344079256058
1666089406247198255,0.49701356887817383,0.0,0.0,0.0,0.0,0.0028845383785665035
1666089406300930000,0.4695481657981872,0.0,0.0,0.0,0.0,0.003387551521882415
1666089406331762967,0.4698324501514434,0.0,0.0,0.0,0.0,0.003464345820248127
1666089406420212615,0.44179561734199524,0.0,0.0,0.0,0.0,0.004673649091273546
1666089406546436809,0.42348912358283997,0.0,0.0,0.0,0.0,0.007669275626540184
1666089406639369556,0.38833507895469666,0.0,0.0,0.0,0.0,0.010947245173156261
1666089406724486974,0.3679209351539612,0.0,0.0,0.0,0.0,0.011978419497609138
1666089406737487436,0.36856064200401306,0.0,0.0,0.0,0.0,0.011810868047177792
1666089406840626763,0.0,0.0,0.0,0.0,0.0,0.3887313211976795
1666089406941930709,0.0,0.0,0.0,0.0,0.0,0.4074690213545514
1666089406976732661,0.0,0.0,0.0,0.0,0.0,0.3995308384609367
1666089407022036212,0.0,0.0,0.0,0.0,0.0,0.41777984662828543
1666089407141694614,0.0,0.0,0.0,0.0,0.0,0.44896937148897714
1666089407196501695,0.0,0.0,0.0,0.0,0.0,0.4424403187813889
1666089407228941590,0.0,0.0,0.0,0.0,0.0,0.4394920251170598
1666089407334145923,0.0,0.0,0.0,0.0,0.0,0.4421870815474602
1666089407441890443,0.0,0.0,0.0,0.0,0.0,0.42986552838943703
1666089407534539966,0.0,0.0,0.0,0.0,0.0,0.3978804419947272
1666089407597678224,0.4351201653480529,0.0,0.0,0.0,0.0,0.1385798305273056
1666089407745431806,0.460911363363266,0.0,0.0,0.0,0.0,0.136822909116745
1666089407788765120,0.43838706612586975,0.0,0.0,0.0,0.0,0.022081319242715836
1666089407878827363,0.4709760248661041,0.0,0.0,0.0,0.0,0.02225133217871189
1666089407972202883,0.5362493395805359,0.0,0.0,0.0,0.0,0.02056112140417099
1666089407975481938,0.535822868347168,0.0,0.0,0.0,0.0,0.019950253888964653
1666089408040375256,0.5659230947494506,0.0,0.0,0.0,0.0,0.017950301989912987
1666089408181108313,0.620166003704071,0.0,0.0,0.0,0.0,0.011096387170255184
1666089408241133810,0.6611627340316772,0.0,0.0,0.0,0.0,0.10621224343776703
1666089408259982356,0.6607362627983092,0.0,0.0,0.0,0.0,0.10579684376716614
1666089408343130381,0.657287061214447,0.0,0.0,0.0,0.0,0.0021704896353185177
1666089408478976509,0.6727120876312255,0.0,0.0,0.0,0.0,-4.996003610813204e-16
1666089408520519401,0.6853629350662231,0.0,0.0,0.0,0.0,-4.996003610813204e-16
1666089408577282667,0.697408616542816,0.0,0.0,0.0,0.0,-4.996003610813204e-16
1666089408683845918,0.7077270150184631,0.0,0.0,0.0,0.0,-0.012175885029137135
1666089408775317265,0.7149479389190674,0.0,0.0,0.0,0.0,-4.996003610813204e-16
1666089408868651297,0.7286446094512938,0.0,0.0,0.0,0.0,0.07647537440061569
1666089408992935795,0.7189377546310425,0.0,0.0,0.0,0.0,-4.996003610813204e-16
1666089409076938820,0.7182871699333191,0.0,0.0,0.0,0.0,-4.996003610813204e-16
1666089409182776609,0.7087730169296265,0.0,0.0,0.0,0.0,-4.996003610813204e-16
1666089409200202853,0.7080622911453247,0.0,0.0,0.0,0.0,-4.996003610813204e-16
1666089409243791576,0.687490165233612,0.0,0.0,0.0,0.0,-4.996003610813204e-16
1666089409334249400,0.6688545346260071,0.0,0.0,0.0,0.0,0.05895782262086868
1666089409423538994,0.6384016871452332,0.0,0.0,0.0,0.0,-4.996003610813204e-16
1666089409468634677,0.609297513961792,0.0,0.0,0.0,0.0,-4.996003610813204e-16
1666089409542154214,0.5750942230224609,0.0,0.0,0.0,0.0,-4.996003610813204e-16
1666089409690168516,0.5432598590850829,0.0,0.0,0.0,0.0,-4.996003610813204e-16
1666089409720729691,0.5047595500946045,0.0,0.0,0.0,0.0,-4.996003610813204e-16
1666089409866434765,0.47451004385948176,0.0,0.0,0.0,0.0,-4.996003610813204e-16
1666089409956048568,0.440451830625534,0.0,0.0,0.0,0.0,-4.996003610813204e-16
1666089410021684982,0.0,0.0,0.0,0.0,0.0,-4.996003610813204e-16
1666089410124598736,0.0,0.0,0.0,0.0,0.0,-4.996003610813204e-16
1666089410157609718,0.0,0.0,0.0,0.0,0.0,-4.996003610813204e-16
1666089410218372466,0.0,0.0,0.0,0.0,0.0,-4.996003610813204e-16
1666089410326419559,0.0,0.0,0.0,0.0,0.0,-4.996003610813204e-16
1666089410417436277,0.0,0.0,0.0,0.0,0.0,-4.996003610813204e-16
1666089410586286372,0.0,0.0,0.0,0.0,0.0,-4.996003610813204e-16
1666089410644348332,0.0,0.0,0.0,0.0,0.0,-4.996003610813204e-16
1666089410657115864,0.0,0.0,0.0,0.0,0.0,-4.996003610813204e-16
1666089410752677628,0.0,0.0,0.0,0.0,0.0,-4.996003610813204e-16
1666089410797818459,0.0,0.0,0.0,0.0,0.0,-4.996003610813204e-16
1666089410877377348,0.0,0.0,0.0,0.0,0.0,-4.996003610813204e-16
1666089410878066996,0.0,0.0,0.0,0.0,0.0,-4.996003610813204e-16
1666089411018685027,0.0,0.0,0.0,0.0,0.0,-4.996003610813204e-16
1666089411109579819,0.0,0.0,0.0,0.0,0.0,-4.996003610813204e-16
1666089411145354931,0.0,0.0,0.0,0.0,0.0,-4.996003610813204e-16
1666089411229679385,0.0,0.0,0.0,0.0,0.0,-4.996003610813204e-16
1666089411282311960,0.0,0.0,0.0,0.0,0.0,-4.996003610813204e-16
1666089411337009466,0.0,0.0,0.0,0.0,0.0,-4.996003610813204e-16
1666089411454905865,0.0,0.0,0.0,0.0,0.0,-4.996003610813204e-16
1666089411501297388,0.0,0.0,0.0,0.0,0.0,-4.996003610813204e-16
1666089411557166409,0.0,0.0,0.0,0.0,0.0,-4.996003610813204e-16
1666089411713607285,0.0,0.0,0.0,0.0,0.0,-4.996003610813204e-16
1666089411757868052,0.0,0.0,0.0,0.0,0.0,-4.996003610813204e-16
1666089411863476625,0.0,0.0,0.0,0.0,0.0,-4.996003610813204e-16
1666089411877834200,0.0,0.0,0.0,0.0,0.0,-4.996003610813204e-16
1666089412019943354,0.0,0.0,0.0,0.0,0.0,-4.996003610813204e-16
1666089412127335288,0.0,0.0,0.0,0.0,0.0,-4.996003610813204e-16
1666089412210728312,0.0,0.0,0.0,0.0,0.0,-4.996003610813204e-16
1666089412261016183,0.0,0.0,0.0,0.0,0.0,-4.996003610813204e-16
1666089412336218511,0.0,0.0,0.0,0.0,0.0,-4.996003610813204e-16
1666089412344483104,0.0,0.0,0.0,0.0,0.0,-4.996003610813204e-16
1666089412378990257,0.0,0.0,0.0,0.0,0.0,-4.996003610813204e-16
1666089412464926660,0.0,0.0,0.0,0.0,0.0,-4.996003610813204e-16
1666089412553566284,0.0,0.0,0.0,0.0,0.0,-4.996003610813204e-16
1666089412646658764,0.0,0.0,0.0,0.0,0.0,-4.996003610813204e-16
1666089412764641516,0.0,0.0,0.0,0.0,0.0,-4.996003610813204e-16
1666089412819852113,0.0,0.0,0.0,0.0,0.0,-4.996003610813204e-16
1666089412880762681,0.0,0.0,0.0,0.0,0.0,-4.996003610813204e-16
1666089412973566234,0.0,0.0,0.0,0.0,0.0,-4.996003610813204e-16
1666089413104064944,0.0,0.0,0.0,0.0,0.0,-4.996003610813204e-16
1666089413158411245,0.0,0.0,0.0,0.0,0.0,-4.996003610813204e-16
1666089413220784631,0.0,0.0,0.0,0.0,0.0,-4.996003610813204e-16
1666089413308690935,0.0,0.0,0.0,0.0,0.0,-4.996003610813204e-16
1666089413354063585,0.0,0.0,0.0,0.0,0.0,-4.996003610813204e-16
1666089413441144982,0.0,0.0,0.0,0.0,0.0,-4.996003610813204e-16
1666089413563178005,0.0,0.0,0.0,0.0,0.0,-4.996003610813204e-16
1666089413609781761,0.0,0.0,0.0,0.0,0.0,-4.996003610813204e-16
1666089413649216313,0.0,0.0,0.0,0.0,0.0,-4.996003610813204e-16
1666089413737176485,0.0,0.0,0.0,0.0,0.0,-4.996003610813204e-16
1666089413781117541,0.0,0.0,0.0,0.0,0.0,-4.996003610813204e-16
1666089413838933089,0.0,0.0,0.0,0.0,0.0,-4.996003610813204e-16
1666089413946082269,0.0,0.0,0.0,0.0,0.0,-4.996003610813204e-16
1666089414080595460,0.0,0.0,0.0,0.0,0.0,-4.996003610813204e-16
1666089414160609935,0.0,0.0,0.0,0.0,0.0,-4.996003610813204e-16
1666089414247702994,0.0,0.0,0.0,0.0,0.0,-4.996003610813204e-16
1666089414333203074,0.0,0.0,0.0,0.0,0.0,-4.996003610813204e-16
1666089414423790273,0.0,0.0,0.0,0.0,0.0,-4.996003610813204e-16
1666089414479011450,0.0,0.0,0.0,0.0,0.0,-4.996003610813204e-16
1666089414540575636,0.0,0.0,0.0,0.0,0.0,-4.996003610813204e-16
1666089414720406036,0.0,0.0,0.0,0.0,0.0,-4.996003610813204e-16
1666089414867073832,0.0,0.0,0.0,0.0,0.0,-4.996003610813204e-16
1666089414881993985,0.0,0.0,0.0,0.0,0.0,-4.996003610813204e-16
1666089414987169301,0.0,0.0,0.0,0.0,0.0,-4.996003610813204e-16
1666089415014537722,0.0,0.0,0.0,0.0,0.0,-4.996003610813204e-16
1666089415098726190,0.42601367831230164,0.0,0.0,0.0,0.0,-4.996003610813204e-16
1666089415151015201,0.439148873090744,0.0,0.0,0.0,0.0,-4.996003610813204e-16
1666089415184806479,0.439148873090744,0.0,0.0,0.0,0.0,-4.996003610813204e-16
1666089415274724856,0.4533892869949341,0.0,0.0,0.0,0.0,-4.996003610813204e-16
1666089415320720627,0.46601152420043945,0.0,0.0,0.0,0.0,0.17453292519943245
1666089415406259325,0.47260138392448425,0.0,0.0,0.0,0.0,0.17453292519943245
1666089415423688406,0.4725303053855896,0.0,0.0,0.0,0.0,0.17453292519943245
1666089415483789505,0.4924387037754059,0.0,0.0,0.0,0.0,0.17453292519943245
1666089415574052341,0.474416434764862,0.0,0.0,0.0,0.0,0.17453292519943245
1666089415617101943,0.46852880716323847,0.0,0.0,0.0,0.0,0.17453292519943245
1666089415703878923,0.489705890417099,0.0,0.0,0.0,0.0,0.17453292519943245
1666089415748636689,0.4539695680141449,0.0,0.0,0.0,0.0,0.3490658503988654
1666089415827549316,0.44095745682716364,0.0,0.0,0.0,0.0,0.3490658503988654
1666089415876520212,0.42675346136093134,0.0,0.0,0.0,0.0,0.3490658503988654
1666089415964882449,0.45300510525703425,0.0,0.0,0.0,0.0,0.3490658503988654
1666089416007745268,0.3921485543251037,0.0,0.0,0.0,0.0,0.3490658503988654
1666089416131354335,0.3714519739151001,0.0,0.0,0.0,0.0,0.3490658503988654
1666089416170176605,0.0,0.0,0.0,0.0,0.0,0.3055573838309667
1666089416258365864,0.0,0.0,0.0,0.0,0.0,0.32593549448070114
1666089416340899436,0.0,0.0,0.0,0.0,0.0,0.3490658503988654
1666089416361777761,0.0,0.0,0.0,0.0,0.0,0.3490658503988654
1666089416465221405,0.0,0.0,0.0,0.0,0.0,0.35748049335854964
1666089416540590229,0.0,0.0,0.0,0.0,0.0,0.35171404981601756
1666089416600729671,0.0,0.0,0.0,0.0,0.0,0.34022180576163985
1666089416629185136,0.0,0.0,0.0,0.0,0.0,0.335870088472328
1666089416761093347,0.0,0.0,0.0,0.0,0.0,0.3369312050723431
1666089416846360854,0.0,0.0,0.0,0.0,0.0,0.3114246121517888
1666089416881603015,0.0,0.0,0.0,0.0,0.0,0.2896668363075151
1666089416955492019,0.0,0.0,0.0,0.0,0.0,0.2543066256837904
1666089417015867007,0.0,0.0,0.0,0.0,0.0,0.2330327002123382
1666089417063970286,0.0,0.0,0.0,0.0,0.0,0.23121510319648392
1666089417159960972,0.0,0.0,0.0,0.0,0.0,0.17453292519943245
1666089417221176042,0.0,0.0,0.0,0.0,0.0,0.17453292519943245
1666089417309146333,0.0,0.0,0.0,0.0,0.0,0.17453292519943245
1666089417340006870,0.0,0.0,0.0,0.0,0.0,0.17453292519943245
1666089417483257163,0.0,0.0,0.0,0.0,0.0,-4.996003610813204e-16
1666089417598817838,0.0,0.0,0.0,0.0,0.0,-4.996003610813204e-16
1666089417609806426,0.0,0.0,0.0,0.0,0.0,-4.996003610813204e-16
1666089417684814596,0.0,0.0,0.0,0.0,0.0,-4.996003610813204e-16
1666089417765533769,0.0,0.0,0.0,0.0,0.0,-4.996003610813204e-16
1666089417897380921,0.0,0.0,0.0,0.0,0.0,-4.996003610813204e-16
1666089418000988219,0.0,0.0,0.0,0.0,0.0,-4.996003610813204e-16
1666089418022369989,0.0,0.0,0.0,0.0,0.0,-4.996003610813204e-16
1666089418066147893,0.0,0.0,0.0,0.0,0.0,-4.996003610813204e-16
1666089418198381169,0.0,0.0,0.0,0.0,0.0,0.17453292519943245
1666089418298430340,0.0,0.0,0.0,0.0,0.0,0.17453292519943245
1666089418301599068,0.0,0.0,0.0,0.0,0.0,0.17453292519943245
1666089418410642775,0.0,0.0,0.0,0.0,0.0,0.17453292519943245
1666089418502045317,0.0,0.0,0.0,0.0,0.0,0.17453292519943245
1666089418590373121,0.0,0.0,0.0,0.0,0.0,0.23237262192875324
