%time,field.linear.x,field.linear.y,field.linear.z,field.angular.x,field.angular.y,field.angular.z
1666089376182804399,0.015,0.0,0.0,0.0,0.0,-0.03021619843094903
1666089376232717759,0.03,0.0,0.0,0.0,0.0,-0.06043239686189806
1666089376282881613,0.045,0.0,0.0,0.0,0.0,-0.10614640349510845
1666089376332376869,0.06,0.0,0.0,0.0,0.0,-0.15186041012831886
1666089376383159397,0.075,0.0,0.0,0.0,0.0,-0.19757441676152926
1666089376432586974,0.09,0.0,0.0,0.0,0.0,-0.23595100199584096
1666089376482323057,0.105,0.0,0.0,0.0,0.0,-0.27432758723015266
1666089376532419790,0.12,0.0,0.0,0.0,0.0,-0.3132699908333084
1666089376582602692,0.135,0.0,0.0,0.0,0.0,-0.3522123944364642
1666089376632789928,0.15000000000000002,0.0,0.0,0.0,0.0,-0.3911937891233535
1666089376682521218,0.16500000000000004,0.0,0.0,0.0,0.0,-0.43017518381024283
1666089376732415545,0.18000000000000005,0.0,0.0,0.0,0.0,-0.46915657849713216
1666089376782442045,0.19500000000000006,0.0,0.0,0.0,0.0,-0.5085134321611073
1666089376832440740,0.21000000000000008,0.0,0.0,0.0,0.0,-0.5482803987107131
1666089376883237324,0.2250000000000001,0.0,0.0,0.0,0.0,-0.5881365780620232
1666089376932564413,0.2400000000000001,0.0,0.0,0.0,0.0,-0.6279927574133334
1666089376982812915,0.2550000000000001,0.0,0.0,0.0,0.0,-0.6681161097583687
1666089377034073778,0.27000000000000013,0.0,0.0,0.0,0.0,-0.7082394621034039
1666089377082453183,0.280714115767791,0.0,0.0,0.0,0.0,-0.8082394621034039
1666089377132369025,0.29142823153558184,0.0,0.0,0.0,0.0,-0.9082394621034039
1666089377182796903,0.30642823153558185,0.0,0.0,0.0,0.0,-0.9386039932867745
1666089377232381104,0.32142823153558187,0.0,0.0,0.0,0.0,-0.9707573652126503
1666089377282947496,0.3364282315355819,0.0,0.0,0.0,0.0,-1.0028912292837142
1666089377332964964,0.3514282315355819,0.0,0.0,0.0,0.0,-1.0375551287328466
1666089377382560891,0.3664282315355819,0.0,0.0,0.0,0.0,-1.072219028181979
1666089377432668744,0.2957368493080139,0.0,0.0,0.0,0.0,-1.0471975511965983
1666089377482916636,0.2957368493080139,0.0,0.0,0.0,0.0,-1.0471975511965983
1666089377532407690,0.31073684930801393,0.0,0.0,0.0,0.0,-1.0471975511965983
1666089377587842995,0.32573684930801394,0.0,0.0,0.0,0.0,-1.0471975511965983
1666089377632417461,0.34073684930801396,0.0,0.0,0.0,0.0,-1.0471975511965983
1666089377682423727,0.35573684930801397,0.0,0.0,0.0,0.0,-1.0471975511965983
1666089377732438200,0.370736849308014,0.0,0.0,0.0,0.0,-1.0471975511965983
1666089377783137233,0.3815979063510895,0.0,0.0,0.0,0.0,-0.8726646259971653
1666089377832615992,0.23159790635108946,0.0,0.0,0.0,0.0,-0.8188336842624833
1666089377882537893,0.08159790635108943,0.0,0.0,0.0,0.0,-0.7409697772473604
1666089377932738576,0.0,0.0,0.0,0.0,0.0,-0.6986128986290274
1666089377983203199,0.0,0.0,0.0,0.0,0.0,-0.6567906206192412
1666089378034608552,0.0,0.0,0.0,0.0,0.0,-0.6108116748495813
1666089378082517478,0.0,0.0,0.0,0.0,0.0,-0.5661734492987234
1666089378132438983,0.0,0.0,0.0,0.0,0.0,-0.5661734492987234
1666089378182451352,0.0,0.0,0.0,0.0,0.0,-0.47489699545266195
1666089378232560295,0.0,0.0,0.0,0.0,0.0,-0.4706126255455509
1666089378282546833,0.0,0.0,0.0,0.0,0.0,-0.440840005170806
1666089378332750051,0.0,0.0,0.0,0.0,0.0,-0.3997865829658276
1666089378383449102,0.0,0.0,0.0,0.0,0.0,-0.3997865829658276
1666089378432422882,0.0,0.0,0.0,0.0,0.0,-0.37218278239961844
1666089378482980893,0.0,0.0,0.0,0.0,0.0,-0.37218278239961844
1666089378532304779,0.0,0.0,0.0,0.0,0.0,-0.338097472700077
1666089378582588212,0.0,0.0,0.0,0.0,0.0,-0.33035289263088563
1666089378634811202,0.0,0.0,0.0,0.0,0.0,-0.30887967050065407
1666089378682979230,0.0,0.0,0.0,0.0,0.0,-0.30887967050065407
1666089378732575382,0.0,0.0,0.0,0.0,0.0,-0.2912331554367872
1666089378782874830,0.0,0.0,0.0,0.0,0.0,-0.2912331554367872
1666089378832458779,0.0,0.0,0.0,0.0,0.0,-0.27468773637988453
1666089378882474778,0.0,0.0,0.0,0.0,0.0,-0.27468773637988453
1666089378932396976,0.0,0.0,0.0,0.0,0.0,-0.27468773637988453
1666089378983019855,0.0,0.0,0.0,0.0,0.0,-0.2669502007230793
1666089379032535165,0.0,0.0,0.0,0.0,0.0,-0.25978691769520984
1666089379082747304,0.0,0.0,0.0,0.0,0.0,-0.25978691769520984
1666089379133237688,0.0,0.0,0.0,0.0,0.0,-0.2647867019428734
1666089379183351721,0.0,0.0,0.0,0.0,0.0,-0.26498951536056975
1666089379232283937,0.0,0.0,0.0,0.0,0.0,-0.31139747628171194
1666089379282513549,0.0,0.0,0.0,0.0,0.0,-0.30418963522021863
1666089379333430734,0.0,0.0,0.0,0.0,0.0,-0.31339612890672486
1666089379382677385,0.0,0.0,0.0,0.0,0.0,-0.31339612890672486
1666089379432707913,0.0,0.0,0.0,0.0,0.0,-0.3490658503988664
1666089379482472373,0.0,0.0,0.0,0.0,0.0,-0.3490658503988664
1666089379532691057,0.0,0.0,0.0,0.0,0.0,-0.34944007189032095
1666089379582561409,0.0,0.0,0.0,0.0,0.0,-0.3490658503988664
1666089379632464446,0.0,0.0,0.0,0.0,0.0,-0.3490658503988664
1666089379682860938,0.0,0.0,0.0,0.0,0.0,-0.3560614623522725
1666089379732733818,0.0,0.0,0.0,0.0,0.0,-0.3560614623522725
1666089379782767628,0.0,0.0,0.0,0.0,0.0,-0.38069546147686345
1666089379832324340,0.0,0.0,0.0,0.0,0.0,-0.4001968397282015
1666089379882432611,0.0,0.0,0.0,0.0,0.0,-0.4191408952977484
1666089379932504349,0.0,0.0,0.0,0.0,0.0,-0.4191408952977484
1666089379982552879,0.0,0.0,0.0,0.0,0.0,-0.4191408952977484
1666089380032522476,0.0,0.0,0.0,0.0,0.0,-0.4303546042787029
1666089380082878690,0.0,0.0,0.0,0.0,0.0,-0.4347352302770466
1666089380132385750,0.0,0.0,0.0,0.0,0.0,-0.426192419355455
1666089380182628986,0.0,0.0,0.0,0.0,0.0,-0.426192419355455
1666089380232428810,0.0,0.0,0.0,0.0,0.0,-0.426192419355455
1666089380284059563,0.0,0.0,0.0,0.0,0.0,0.0
1666089380332637523,0.0,0.0,0.0,0.0,0.0,-0.1
1666089380383906183,0.0,0.0,0.0,0.0,0.0,-0.2
1666089380433708351,0.0,0.0,0.0,0.0,0.0,-0.30000000000000004
1666089380482485288,0.0,0.0,0.0,0.0,0.0,-0.4
1666089380532321404,0.0,0.0,0.0,0.0,0.0,-0.4080314236000565
1666089380583490683,0.0,0.0,0.0,0.0,0.0,-0.38404386314881445
1666089380632416862,0.0,0.0,0.0,0.0,0.0,-0.38404386314881445
1666089380682807051,0.0,0.0,0.0,0.0,0.0,-0.38404386314881445
1666089380732759576,0.0,0.0,0.0,0.0,0.0,-0.3633672607145738
1666089380782453332,0.0,0.0,0.0,0.0,0.0,-0.3633672607145738
1666089380832301520,0.0,0.0,0.0,0.0,0.0,-0.3753831397126385
1666089380882374045,0.0,0.0,0.0,0.0,0.0,-0.3753831397126385
1666089380932514124,0.0,0.0,0.0,0.0,0.0,-0.37138800071827327
1666089380982539006,0.0,0.0,0.0,0.0,0.0,-0.3810525851213024
1666089381032786143,0.0,0.0,0.0,0.0,0.0,-0.3777286840828883
1666089381082880033,0.0,0.0,0.0,0.0,0.0,-0.3777286840828883
1666089381132566971,0.0,0.0,0.0,0.0,0.0,-0.3938394146172528
1666089381182571816,0.0,0.0,0.0,0.0,0.0,-0.3938394146172528
1666089381232623684,0.015,0.0,0.0,0.0,0.0,-0.3851736314956336
1666089381282365958,0.03,0.0,0.0,0.0,0.0,-0.3765078483740144
1666089381332357252,0.045,0.0,0.0,0.0,0.0,-0.3678420652523952
1666089381382723936,0.06,0.0,0.0,0.0,0.0,-0.36005971173957174
1666089381432394759,0.075,0.0,0.0,0.0,0.0,-0.35227735822674827
1666089381482503155,0.09,0.0,0.0,0.0,0.0,-0.34487758536148166
1666089381532591258,0.105,0.0,0.0,0.0,0.0,-0.33747781249621506
1666089381582440458,0.12,0.0,0.0,0.0,0.0,-0.33007803963094845
1666089381632804890,0.135,0.0,0.0,0.0,0.0,-0.32346969346045057
1666089381682786690,0.15000000000000002,0.0,0.0,0.0,0.0,-0.3172324373663103
1666089381732436651,0.16500000000000004,0.0,0.0,0.0,0.0,-0.3109472391410697
1666089381782634772,0.18000000000000005,0.0,0.0,0.0,0.0,-0.3046620409158291
1666089381832704933,0.19500000000000006,0.0,0.0,0.0,0.0,-0.29860281756032164
1666089381882351597,0.21000000000000008,0.0,0.0,0.0,0.0,-0.2925435942048142
1666089381932444473,0.2250000000000001,0.0,0.0,0.0,0.0,-0.2864843708493067
1666089381982727513,0.2400000000000001,0.0,0.0,0.0,0.0,-0.28163261027297265
1666089382032677994,0.2550000000000001,0.0,0.0,0.0,0.0,-0.27678917397948233
1666089382082374727,0.27000000000000013,0.0,0.0,0.0,0.0,-0.271945737685992
1666089382132622720,0.28500000000000014,0.0,0.0,0.0,0.0,-0.2671023013925017
1666089382182805678,0.30000000000000016,0.0,0.0,0.0,0.0,-0.26278178322375484
1666089382232372686,0.31500000000000017,0.0,0.0,0.0,0.0,-0.258461265055008
1666089382283058043,0.3300000000000002,0.0,0.0,0.0,0.0,-0.2543537431192891
1666089382332553673,0.3450000000000002,0.0,0.0,0.0,0.0,-0.250364997445793
1666089382382444138,0.3600000000000002,0.0,0.0,0.0,0.0,-0.24637625177229686
1666089382432467248,0.3750000000000002,0.0,0.0,0.0,0.0,-0.24238750609880072
1666089382482720716,0.39000000000000024,0.0,0.0,0.0,0.0,-0.23826842642399554
1666089382532369902,0.40500000000000025,0.0,0.0,0.0,0.0,-0.23414934674919036
1666089382582533810,0.42000000000000026,0.0,0.0,0.0,0.0,-0.12264859945035236
1666089382632447386,0.4350000000000003,0.0,0.0,0.0,0.0,-0.13665020588738117
1666089382682372344,0.4500000000000003,0.0,0.0,0.0,0.0,-0.15065181232440997
1666089382732782760,0.4650000000000003,0.0,0.0,0.0,0.0,-0.16535462757753117
1666089382782530937,0.4800000000000003,0.0,0.0,0.0,0.0,-0.18005744283065236
1666089382832404914,0.49500000000000033,0.0,0.0,0.0,0.0,-0.1947602580837736
1666089382882508804,0.40515759587287903,0.0,0.0,0.0,0.0,-0.10091430693864822
1666089382932352858,0.42015759587287904,0.0,0.0,0.0,0.0,-0.11856142777609255
1666089382982547581,0.43515759587287905,0.0,0.0,0.0,0.0,-0.13620854861353687
1666089383033318990,0.39508581161499023,0.0,0.0,0.0,0.0,-0.09940213710069656
1666089383083036218,0.39508581161499023,0.0,0.0,0.0,0.0,-0.09940213710069656
1666089383132717627,0.3905401229858398,0.0,0.0,0.0,0.0,-0.09960832446813583
1666089383182596644,0.4055401229858398,0.0,0.0,0.0,0.0,-0.11687894268747119
1666089383232466615,0.4205401229858398,0.0,0.0,0.0,0.0,-0.13414956090680655
1666089383282358260,0.3832275569438934,0.0,0.0,0.0,0.0,-0.1050102561712265
1666089383332488607,0.3982275569438934,0.0,0.0,0.0,0.0,-0.12090697865531298
1666089383382455751,0.4132275569438934,0.0,0.0,0.0,0.0,-0.13680370113939946
1666089383432741509,0.4282275569438934,0.0,0.0,0.0,0.0,-0.1541241489396297
1666089383482460400,0.44322755694389343,0.0,0.0,0.0,0.0,-0.17515889778271163
1666089383532409045,0.45822755694389344,0.0,0.0,0.0,0.0,-0.19619364662579356
1666089383582523790,0.47196176648139954,0.0,0.0,0.0,0.0,-0.2154533565044403
1666089383632923645,0.4636410176753998,0.0,0.0,0.0,0.0,-0.21804945170879364
1666089383682500158,0.46094760298728943,0.0,0.0,0.0,0.0,-0.22421154379844666
1666089383732441154,0.46094760298728943,0.0,0.0,0.0,0.0,-0.22421154379844666
1666089383782402277,0.45636233310171903,0.0,0.0,0.0,0.0,-0.32421154379844663
1666089383832896452,0.4424572114497119,0.0,0.0,0.0,0.0,-0.4242115437984466
1666089383882417362,0.42863729596138,0.0,0.0,0.0,0.0,-0.5235987755982994
1666089383932466899,0.42863729596138,0.0,0.0,0.0,0.0,-0.5235987755982994
1666089383982415363,0.4267588231848972,0.0,0.0,0.0,0.0,-0.6235987755982993
1666089384032509168,0.42488035040841443,0.0,0.0,0.0,0.0,-0.7235987755982993
1666089384082526541,0.4185587637207437,0.0,0.0,0.0,0.0,-0.8235987755982993
1666089384133125312,0.40943058526587406,0.0,0.0,0.0,0.0,-0.9235987755982993
1666089384182620173,0.4003024068110044,0.0,0.0,0.0,0.0,-1.0235987755982994
1666089384232588989,0.3981482684612274,0.0,0.0,0.0,0.0,-1.0471975511965983
1666089384283280210,0.3953813246775094,0.0,0.0,0.0,0.0,-1.1471975511965984
1666089384332443298,0.386663407087326,0.0,0.0,0.0,0.0,-1.0471975511965983
1666089384382615792,0.386663407087326,0.0,0.0,0.0,0.0,-1.0471975511965983
1666089384433167019,0.38364267349243164,0.0,0.0,0.0,0.0,-1.0471975511965983
1666089384482398265,0.38364267349243164,0.0,0.0,0.0,0.0,-1.0471975511965983
1666089384532346280,0.3878780305385589,0.0,0.0,0.0,0.0,-1.0471975511965983
1666089384582380637,0.3878780305385589,0.0,0.0,0.0,0.0,-1.0471975511965983
1666089384632584459,0.3899673223495483,0.0,0.0,0.0,0.0,-1.0471975511965983
1666089384682974284,0.3899673223495483,0.0,0.0,0.0,0.0,-1.0471975511965983
1666089384732315699,0.25424173474311823,0.0,0.0,0.0,0.0,-1.0471975511965983
1666089384782379314,0.26924173474311824,0.0,0.0,0.0,0.0,-0.9624623214269922
1666089384833591130,0.28424173474311826,0.0,0.0,0.0,0.0,-0.9721380641969485
1666089384882487484,0.29924173474311827,0.0,0.0,0.0,0.0,-0.9818138069669048
1666089384932495646,0.3142417347431183,0.0,0.0,0.0,0.0,-0.9671301838528569
1666089384982467269,0.3292417347431183,0.0,0.0,0.0,0.0,-0.9529580393430445
1666089385033042284,0.3177701830863952,0.0,0.0,0.0,0.0,-0.6981317007977323
1666089385082350853,0.3177701830863952,0.0,0.0,0.0,0.0,-0.6981317007977323
1666089385132648948,0.3327701830863952,0.0,0.0,0.0,0.0,-0.6981317007977323
1666089385182401206,0.34777018308639523,0.0,0.0,0.0,0.0,-0.6981317007977323
1666089385233740891,0.36277018308639525,0.0,0.0,0.0,0.0,-0.6981317007977323
1666089385282523799,0.37777018308639526,0.0,0.0,0.0,0.0,-0.6535705477348766
1666089385332392800,0.3927701830863953,0.0,0.0,0.0,0.0,-0.6090093946720208
1666089385382469646,0.4077701830863953,0.0,0.0,0.0,0.0,-0.5867106663658631
1666089385435590844,0.4227701830863953,0.0,0.0,0.0,0.0,-0.5230903712446089
1666089385482316135,0.4377701830863953,0.0,0.0,0.0,0.0,-0.4594700761233547
1666089385532419180,0.45277018308639533,0.0,0.0,0.0,0.0,-0.41740477745694504
1666089385582376290,0.46777018308639534,0.0,0.0,0.0,0.0,-0.3753394787905353
1666089385632401772,0.48277018308639535,0.0,0.0,0.0,0.0,-0.2748244908227821
1666089385683320230,0.4822362959384918,0.0,0.0,0.0,0.0,-0.17453292519943345
1666089385732515559,0.4822362959384918,0.0,0.0,0.0,0.0,-0.17453292519943345
1666089385782525617,0.49569529294967646,0.0,0.0,0.0,0.0,-0.07736551016569138
1666089385832631377,0.49569529294967646,0.0,0.0,0.0,0.0,-0.07736551016569138
1666089385882391959,0.4895352721214294,0.0,0.0,0.0,0.0,-0.07090083509683609
1666089385932371143,0.4895352721214294,0.0,0.0,0.0,0.0,-0.07090083509683609
1666089385982418500,0.48053115606307983,0.0,0.0,0.0,0.0,-0.06528765708208084
1666089386032484116,0.48053115606307983,0.0,0.0,0.0,0.0,-0.06528765708208084
1666089386082691529,0.4689612090587616,0.0,0.0,0.0,0.0,-0.062245018780231476
1666089386132360311,0.45503383874893183,0.0,0.0,0.0,0.0,-4.996003610813204e-16
1666089386182377042,0.45503383874893183,0.0,0.0,0.0,0.0,-4.996003610813204e-16
1666089386232958208,0.4377340078353882,0.0,0.0,0.0,0.0,-4.996003610813204e-16
1666089386282384105,0.4377340078353882,0.0,0.0,0.0,0.0,-4.996003610813204e-16
1666089386332539642,0.4031106233596802,0.0,0.0,0.0,0.0,-4.996003610813204e-16
1666089386382506674,0.40332385897636414,0.0,0.0,0.0,0.0,-4.996003610813204e-16
1666089386432348153,0.40332385897636414,0.0,0.0,0.0,0.0,-4.996003610813204e-16
1666089386482406217,0.2533238589763641,0.0,0.0,0.0,0.0,-4.996003610813204e-16
1666089386532588288,0.10332385897636409,0.0,0.0,0.0,0.0,-4.996003610813204e-16
1666089386582470734,0.0,0.0,0.0,0.0,0.0,-4.996003610813204e-16
1666089386632433732,0.0,0.0,0.0,0.0,0.0,-4.996003610813204e-16
1666089386682423494,0.0,0.0,0.0,0.0,0.0,-4.996003610813204e-16
1666089386732461900,0.0,0.0,0.0,0.0,0.0,-4.996003610813204e-16
1666089386782695169,0.0,0.0,0.0,0.0,0.0,-4.996003610813204e-16
1666089386832471719,0.0,0.0,0.0,0.0,0.0,-4.996003610813204e-16
1666089386882816935,0.0,0.0,0.0,0.0,0.0,-4.996003610813204e-16
1666089386932889950,0.0,0.0,0.0,0.0,0.0,-4.996003610813204e-16
1666089386982444662,0.0,0.0,0.0,0.0,0.0,-4.996003610813204e-16
1666089387032647266,0.0,0.0,0.0,0.0,0.0,-4.996003610813204e-16
1666089387082527330,0.0,0.0,0.0,0.0,0.0,-4.996003610813204e-16
1666089387132695930,0.0,0.0,0.0,0.0,0.0,-4.996003610813204e-16
1666089387182439390,0.0,0.0,0.0,0.0,0.0,-4.996003610813204e-16
1666089387232940565,0.0,0.0,0.0,0.0,0.0,-4.996003610813204e-16
1666089387283017067,0.0,0.0,0.0,0.0,0.0,-4.996003610813204e-16
1666089387332411449,0.0,0.0,0.0,0.0,0.0,-4.996003610813204e-16
1666089387382544855,0.0,0.0,0.0,0.0,0.0,-4.996003610813204e-16
1666089387432568526,0.0,0.0,0.0,0.0,0.0,-4.996003610813204e-16
1666089387482409637,0.0,0.0,0.0,0.0,0.0,-4.996003610813204e-16
1666089387532717753,0.0,0.0,0.0,0.0,0.0,-4.996003610813204e-16
1666089387582372720,0.0,0.0,0.0,0.0,0.0,-4.996003610813204e-16
1666089387632483071,0.0,0.0,0.0,0.0,0.0,-4.996003610813204e-16
1666089387682651383,0.0,0.0,0.0,0.0,0.0,-4.996003610813204e-16
1666089387732394632,0.0,0.0,0.0,0.0,0.0,-4.996003610813204e-16
1666089387782420612,0.015,0.0,0.0,0.0,0.0,-0.0021206266606107384
1666089387832985499,0.03,0.0,0.0,0.0,0.0,-0.004241253321220977
1666089387882311520,0.045,0.0,0.0,0.0,0.0,-0.006164097017745274
1666089387932441923,0.06,0.0,0.0,0.0,0.0,-0.007869726573448393
1666089387982803699,0.075,0.0,0.0,0.0,0.0,-0.009575356129151513
1666089388032408051,0.09,0.0,0.0,0.0,0.0,-0.010964162118658843
1666089388082516303,0.105,0.0,0.0,0.0,0.0,-0.012352968108166173
1666089388132514061,0.12,0.0,0.0,0.0,0.0,-0.011925265142060298
1666089388182393593,0.135,0.0,0.0,0.0,0.0,-0.011517393138414385
1666089388232944145,0.15000000000000002,0.0,0.0,0.0,0.0,-0.011109521134768471
1666089388282583509,0.16500000000000004,0.0,0.0,0.0,0.0,-0.012362528522268892
1666089388332634264,0.18000000000000005,0.0,0.0,0.0,0.0,-0.013572256967088147
1666089388382420366,0.19500000000000006,0.0,0.0,0.0,0.0,-0.014739128349100182
1666089388432533719,0.21000000000000008,0.0,0.0,0.0,0.0,-0.01588321269641243
1666089388482518765,0.2250000000000001,0.0,0.0,0.0,0.0,-0.017027297043724677
1666089388532897261,0.2400000000000001,0.0,0.0,0.0,0.0,-0.018163918666847283
1666089388582458642,0.2550000000000001,0.0,0.0,0.0,0.0,-0.01930054028996989
1666089388632538908,0.27000000000000013,0.0,0.0,0.0,0.0,-0.020508440627199507
1666089388682380302,0.28500000000000014,0.0,0.0,0.0,0.0,-0.021716340964429127
1666089388732587012,0.30000000000000016,0.0,0.0,0.0,0.0,-0.0229952529810954
1666089388784293840,0.31500000000000017,0.0,0.0,0.0,0.0,-0.02433605534750053
1666089388832500683,0.3300000000000002,0.0,0.0,0.0,0.0,-0.023283735141938062
1666089388882323207,0.3450000000000002,0.0,0.0,0.0,0.0,-0.022231414936375593
1666089388932516197,0.3600000000000002,0.0,0.0,0.0,0.0,-0.02396699157220458
1666089388982642931,0.3750000000000002,0.0,0.0,0.0,0.0,-0.025702568208033565
1666089389032491184,0.39000000000000024,0.0,0.0,0.0,0.0,-0.02753816229125957
1666089389082905293,0.40500000000000025,0.0,0.0,0.0,0.0,-0.029449134180174613
1666089389132398960,0.42000000000000026,0.0,0.0,0.0,0.0,-0.031360106069089656
1666089389183158229,0.4350000000000003,0.0,0.0,0.0,0.0,-0.0333051114615899
1666089389232786557,0.4500000000000003,0.0,0.0,0.0,0.0,-0.03525011685409014
1666089389282320054,0.4650000000000003,0.0,0.0,0.0,0.0,-0.04427100886708806
1666089389332532841,0.4800000000000003,0.0,0.0,0.0,0.0,-0.053291900880085986
1666089389382414906,0.49500000000000033,0.0,0.0,0.0,0.0,-0.054266120125520706
1666089389433426924,0.5100000000000003,0.0,0.0,0.0,0.0,-0.055179902755597074
1666089389482427035,0.5250000000000004,0.0,0.0,0.0,0.0,-0.05609368538567344
1666089389533134648,0.5400000000000004,0.0,0.0,0.0,0.0,-0.05681357026664418
1666089389582376949,0.5550000000000004,0.0,0.0,0.0,0.0,-0.05753345514761492
1666089389632967180,0.5700000000000004,0.0,0.0,0.0,0.0,-0.0578276659108299
1666089389682332161,0.5850000000000004,0.0,0.0,0.0,0.0,-0.05812187667404488
1666089389732494521,0.6000000000000004,0.0,0.0,0.0,0.0,-0.056762932617026314
1666089389782356299,0.6150000000000004,0.0,0.0,0.0,0.0,-0.05540398856000774
1666089389833149966,0.5941144227981567,0.0,0.0,0.0,0.0,-4.996003610813204e-16
1666089389882483819,0.5941144227981567,0.0,0.0,0.0,0.0,-4.996003610813204e-16
1666089389932786066,0.5680637359619141,0.0,0.0,0.0,0.0,-0.045444000512361526
1666089389982339130,0.5680637359619141,0.0,0.0,0.0,0.0,-0.045444000512361526
1666089390032758364,0.5383281707763671,0.0,0.0,0.0,0.0,-0.040193259716033936
1666089390082607684,0.4989922642707824,0.0,0.0,0.0,0.0,-0.03580909222364426
1666089390132559034,0.4989922642707824,0.0,0.0,0.0,0.0,-0.03580909222364426
1666089390182569300,0.49106895923614496,0.0,0.0,0.0,0.0,-0.03015526756644249
1666089390232581032,0.49106895923614496,0.0,0.0,0.0,0.0,-0.03015526756644249
1666089390283597986,0.46269160509109497,0.0,0.0,0.0,0.0,-0.02629346400499344
1666089390332696804,0.43232089281082153,0.0,0.0,0.0,0.0,-0.024172015488147736
1666089390382371818,0.43232089281082153,0.0,0.0,0.0,0.0,-0.024172015488147736
1666089390433518229,0.40834718942642206,0.0,0.0,0.0,0.0,-0.020823579281568527
1666089390482405060,0.40834718942642206,0.0,0.0,0.0,0.0,-0.020823579281568527
1666089390532398031,0.3858732581138611,0.0,0.0,0.0,0.0,-0.018206512555480003
1666089390582476930,0.3989353638604238,0.0,0.0,0.0,0.0,0.08179348744452
1666089390632810948,0.402159720659256,0.0,0.0,0.0,0.0,0.10647830367088318
1666089390682546666,0.25215972065925596,0.0,0.0,0.0,0.0,0.15881451931613588
1666089390732649907,0.10215972065925594,0.0,0.0,0.0,0.0,0.21703449600446031
1666089390783348251,0.0,0.0,0.0,0.0,0.0,0.25668607303957774
1666089390832451812,0.0,0.0,0.0,0.0,0.0,0.2735119921135588
1666089390882464344,0.0,0.0,0.0,0.0,0.0,0.2735119921135588
1666089390932519615,0.0,0.0,0.0,0.0,0.0,0.2796277270408025
1666089390982583053,0.0,0.0,0.0,0.0,0.0,0.2796277270408025
1666089391032386974,0.0,0.0,0.0,0.0,0.0,0.28992523995250463
1666089391083883686,0.0,0.0,0.0,0.0,0.0,0.2825346859299305
1666089391134349463,0.0,0.0,0.0,0.0,0.0,0.2825346859299305
1666089391182668704,0.0,0.0,0.0,0.0,0.0,0.28015131660847836
1666089391232781745,0.0,0.0,0.0,0.0,0.0,0.2787562930455446
1666089391282961884,0.0,0.0,0.0,0.0,0.0,0.2787562930455446
1666089391333658027,0.0,0.0,0.0,0.0,0.0,0.28032277383699944
1666089391384033616,0.0,0.0,0.0,0.0,0.0,0.28032277383699944
1666089391432470485,0.0,0.0,0.0,0.0,0.0,0.27765096000307027
1666089391482492175,0.015,0.0,0.0,0.0,0.0,0.2663189363715893
1666089391533089561,0.03,0.0,0.0,0.0,0.0,0.2555798590745579
1666089391582361290,0.045,0.0,0.0,0.0,0.0,0.2448407817775264
1666089391632961433,0.06,0.0,0.0,0.0,0.0,0.2347620586462938
1666089391682549587,0.075,0.0,0.0,0.0,0.0,0.22468333551506114
1666089391732730423,0.09,0.0,0.0,0.0,0.0,0.21530543690331672
1666089391782734635,0.105,0.0,0.0,0.0,0.0,0.2059275382915723
1666089391832409103,0.12,0.0,0.0,0.0,0.0,0.19781698994816993
1666089391882922066,0.135,0.0,0.0,0.0,0.0,0.18970644160476757
1666089391932955542,0.15000000000000002,0.0,0.0,0.0,0.0,0.18215731049218578
1666089391982949989,0.16500000000000004,0.0,0.0,0.0,0.0,0.174608179379604
1666089392032812467,0.18000000000000005,0.0,0.0,0.0,0.0,0.16750213059548433
1666089392082369306,0.19500000000000006,0.0,0.0,0.0,0.0,0.1609102151717682
1666089392132628396,0.21000000000000008,0.0,0.0,0.0,0.0,0.15480642117893043
1666089392182827762,0.2250000000000001,0.0,0.0,0.0,0.0,0.14870262718609265
1666089392233068640,0.2400000000000001,0.0,0.0,0.0,0.0,0.14259883319325486
1666089392283049866,0.2550000000000001,0.0,0.0,0.0,0.0,0.13700435418722498
1666089392332654501,0.27000000000000013,0.0,0.0,0.0,0.0,0.1314098751811951
1666089392382768131,0.28500000000000014,0.0,0.0,0.0,0.0,0.12439452237332928
1666089392432454908,0.30000000000000016,0.0,0.0,0.0,0.0,0.11737916956546346
1666089392482597912,0.31500000000000017,0.0,0.0,0.0,0.0,0.11064707823355314
1666089392532586983,0.3300000000000002,0.0,0.0,0.0,0.0,0.10391498690164283
1666089392582971188,0.3450000000000002,0.0,0.0,0.0,0.0,0.09852580171693784
1666089392632472793,0.3600000000000002,0.0,0.0,0.0,0.0,0.09313661653223285
1666089392682403283,0.3750000000000002,0.0,0.0,0.0,0.0,0.08691975288810239
1666089392732556562,0.39000000000000024,0.0,0.0,0.0,0.0,0.08189468921168681
1666089392782630703,0.40500000000000025,0.0,0.0,0.0,0.0,0.07686962553527124
1666089392833352521,0.42000000000000026,0.0,0.0,0.0,0.0,0.07188178977835256
1666089392883204565,0.4350000000000003,0.0,0.0,0.0,0.0,0.06689395402143389
1666089392932922247,0.4500000000000003,0.0,0.0,0.0,0.0,0.06744497852977319
1666089392982625940,0.4650000000000003,0.0,0.0,0.0,0.0,0.06831731306114461
1666089393032818319,0.4800000000000003,0.0,0.0,0.0,0.0,0.06918964759251603
1666089393083299154,0.49500000000000033,0.0,0.0,0.0,0.0,0.07006198212388745
1666089393132530418,0.5100000000000003,0.0,0.0,0.0,0.0,0.07114069260036023
1666089393183183727,0.5250000000000004,0.0,0.0,0.0,0.0,0.07214971665199607
1666089393232725409,0.5380300283432007,0.0,0.0,0.0,0.0,0.07157859951257706
1666089393282509464,0.5380300283432007,0.0,0.0,0.0,0.0,0.07157859951257706
1666089393332599581,0.5284135937690735,0.0,0.0,0.0,0.0,0.06860140711069107
1666089393382489542,0.5284135937690735,0.0,0.0,0.0,0.0,0.06860140711069107
1666089393432901500,0.5284135937690735,0.0,0.0,0.0,0.0,0.06860140711069107
1666089393482550092,0.5356088199019812,0.0,0.0,0.0,0.0,0.16860140711069108
1666089393533757400,0.5428040460348889,0.0,0.0,0.0,0.0,0.2686014071106911
1666089393583176283,0.5220077422050363,0.0,0.0,0.0,0.0,0.3686014071106911
1666089393632784522,0.5291098275525787,0.0,0.0,0.0,0.0,0.4686014071106911
1666089393682387634,0.533015787601471,0.0,0.0,0.0,0.0,0.5235987755982984
1666089393732810782,0.46372973918914795,0.0,0.0,0.0,0.0,0.5235987755982984
1666089393782424717,0.46294787526130676,0.0,0.0,0.0,0.0,0.5235987755982984
1666089393832479243,0.4520283341407776,0.0,0.0,0.0,0.0,0.5235987755982984
1666089393882407785,0.4520283341407776,0.0,0.0,0.0,0.0,0.5235987755982984
1666089393932996785,0.4670283341407776,0.0,0.0,0.0,0.0,0.5235987755982984
1666089393982559211,0.4820283341407776,0.0,0.0,0.0,0.0,0.5235987755982984
1666089394033805487,0.4247249662876129,0.0,0.0,0.0,0.0,0.5235987755982984
1666089394082818795,0.4004574120044708,0.0,0.0,0.0,0.0,0.5235987755982984
1666089394133135553,0.3897513747215271,0.0,0.0,0.0,0.0,0.5235987755982984
1666089394182555898,0.3897513747215271,0.0,0.0,0.0,0.0,0.5235987755982984
1666089394232821921,0.3755806684494018,0.0,0.0,0.0,0.0,0.5235987755982984
1666089394282345560,0.3755806684494018,0.0,0.0,0.0,0.0,0.5235987755982984
1666089394334513245,0.3755806684494018,0.0,0.0,0.0,0.0,0.5235987755982984
1666089394382576161,0.3653031289577484,0.0,0.0,0.0,0.0,0.5235987755982984
1666089394432498871,0.35441720485687256,0.0,0.0,0.0,0.0,0.5235987755982984
1666089394483007798,0.36941720485687257,0.0,0.0,0.0,0.0,0.4748399051131858
1666089394532635356,0.3844172048568726,0.0,0.0,0.0,0.0,0.42608103462807323
1666089394582712416,0.3994172048568726,0.0,0.0,0.0,0.0,0.3773221641429606
1666089394633237070,0.24941720485687258,0.0,0.0,0.0,0.0,0.3530380591318975
1666089394682513776,0.09941720485687255,0.0,0.0,0.0,0.0,0.32875395412083436
1666089394733647777,0.0,0.0,0.0,0.0,0.0,0.3126589018364966
1666089394782447404,0.0,0.0,0.0,0.0,0.0,0.2299652302049977
1666089394834171553,0.0,0.0,0.0,0.0,0.0,0.2299652302049977
1666089394882517677,0.0,0.0,0.0,0.0,0.0,0.17453292519943245
1666089394933680915,0.0,0.0,0.0,0.0,0.0,0.17453292519943245
1666089394982711219,0.0,0.0,0.0,0.0,0.0,0.17453292519943245
1666089395032470633,0.015,0.0,0.0,0.0,0.0,0.17116730883379658
1666089395082574764,0.03,0.0,0.0,0.0,0.0,0.1678016924681607
1666089395132654492,0.045,0.0,0.0,0.0,0.0,0.16443607610252484
1666089395183073742,0.06,0.0,0.0,0.0,0.0,0.15764446092570464
1666089395232509200,0.075,0.0,0.0,0.0,0.0,0.15085284574888444
1666089395282731218,0.09,0.0,0.0,0.0,0.0,0.14406123057206424
1666089395332920721,0.105,0.0,0.0,0.0,0.0,0.1406584782379045
1666089395383290273,0.12,0.0,0.0,0.0,0.0,0.13168659391948456
1666089395432517355,0.135,0.0,0.0,0.0,0.0,0.1279539769914539
1666089395483624288,0.15000000000000002,0.0,0.0,0.0,0.0,0.1242213600634232
1666089395532664029,0.16500000000000004,0.0,0.0,0.0,0.0,0.1150091252859543
1666089395582616541,0.18000000000000005,0.0,0.0,0.0,0.0,0.10579689050848542
1666089395633364154,0.19500000000000006,0.0,0.0,0.0,0.0,0.1020605190831781
1666089395682753244,0.21000000000000008,0.0,0.0,0.0,0.0,0.09260865068680722
1666089395732948341,0.2250000000000001,0.0,0.0,0.0,0.0,0.08315678229043634
1666089395782722796,0.2400000000000001,0.0,0.0,0.0,0.0,0.07358103313003332
1666089395832932059,0.2550000000000001,0.0,0.0,0.0,0.0,0.0640052839696303
1666089395882953086,0.27000000000000013,0.0,0.0,0.0,0.0,0.05989336710769109
1666089395932668933,0.28500000000000014,0.0,0.0,0.0,0.0,0.055772085349077224
1666089395982677448,0.30000000000000016,0.0,0.0,0.0,0.0,0.04523645846994287
1666089396033758775,0.31500000000000017,0.0,0.0,0.0,0.0,0.03457900083971323
1666089396082529802,0.3300000000000002,0.0,0.0,0.0,0.0,0.023791816414408196
1666089396132739390,0.3450000000000002,0.0,0.0,0.0,0.0,0.01300463198910316
1666089396182700827,0.3600000000000002,0.0,0.0,0.0,0.0,0.0021903851347660295
1666089396232827667,0.3750000000000002,0.0,0.0,0.0,0.0,-0.009080583534213989
1666089396282848154,0.39000000000000024,0.0,0.0,0.0,0.0,-0.020351552203194012
1666089396333358339,0.40500000000000025,0.0,0.0,0.0,0.0,-0.032398188910143455
1666089396382446588,0.42000000000000026,0.0,0.0,0.0,0.0,-0.0444448256170929
1666089396440599120,0.4350000000000003,0.0,0.0,0.0,0.0,-0.05649146232404234
1666089396482628389,0.4500000000000003,0.0,0.0,0.0,0.0,-0.06974758883487046
1666089396533916558,0.4650000000000003,0.0,0.0,0.0,0.0,-0.08408379632654832
1666089396582930021,0.4800000000000003,0.0,0.0,0.0,0.0,-0.10062403433232674
1666089396632760892,0.49500000000000033,0.0,0.0,0.0,0.0,-0.11716427233810517
1666089396682776161,0.5100000000000003,0.0,0.0,0.0,0.0,-0.14065023179810127
1666089396733023989,0.5107783675193787,0.0,0.0,0.0,0.0,-0.1625078022480011
1666089396782578695,0.5107783675193787,0.0,0.0,0.0,0.0,-0.1625078022480011
1666089396832429799,0.49670636653900146,0.0,0.0,0.0,0.0,-0.1600983440876007
1666089396882535214,0.49670636653900146,0.0,0.0,0.0,0.0,-0.1600983440876007
1666089396932895488,0.48774674534797663,0.0,0.0,0.0,0.0,-0.1588040292263031
1666089396982391171,0.48774674534797663,0.0,0.0,0.0,0.0,-0.1588040292263031
1666089397032784911,0.40171724557876587,0.0,0.0,0.0,0.0,-0.04962052032351494
1666089397082483974,0.40171724557876587,0.0,0.0,0.0,0.0,-0.04962052032351494
1666089397132562636,0.4167172455787659,0.0,0.0,0.0,0.0,-0.07537826361867833
1666089397182371603,0.4317172455787659,0.0,0.0,0.0,0.0,-0.10081938822692851
1666089397232571140,0.4467172455787659,0.0,0.0,0.0,0.0,-0.1262605128351787
1666089397282966258,0.4604821801185608,0.0,0.0,0.0,0.0,-0.1653774231672287
1666089397332606669,0.4604821801185608,0.0,0.0,0.0,0.0,-0.1653774231672287
1666089397382544252,0.3754079937934875,0.0,0.0,0.0,0.0,-0.0599861666560173
1666089397432391780,0.37498149275779724,0.0,0.0,0.0,0.0,-0.060069937258958817
1666089397482717353,0.37498149275779724,0.0,0.0,0.0,0.0,-0.060069937258958817
1666089397533094627,0.38998149275779725,0.0,0.0,0.0,0.0,-0.0867827594322104
1666089397582764154,0.40498149275779727,0.0,0.0,0.0,0.0,-0.1230028126578986
1666089397632488699,0.4199814927577973,0.0,0.0,0.0,0.0,-0.15922286588358683
1666089397682365981,0.42512425780296326,0.0,0.0,0.0,0.0,-0.17164094746112823
1666089397732832789,0.40178641676902765,0.0,0.0,0.0,0.0,-0.17412477731704712
1666089397782390613,0.40178641676902765,0.0,0.0,0.0,0.0,-0.17412477731704712
1666089397832902441,0.28491199016571045,0.0,0.0,0.0,0.0,-0.06807196885347366
1666089397882322923,0.28491199016571045,0.0,0.0,0.0,0.0,-0.06807196885347366
1666089397932483842,0.23969215215344455,0.0,0.0,0.0,0.0,-0.16807196885347367
1666089397982415654,0.19447231414117866,0.0,0.0,0.0,0.0,-0.2680719688534737
1666089398032464186,0.15313163448265682,0.0,0.0,0.0,0.0,-0.3680719688534737
1666089398082462187,0.11179095482413497,0.0,0.0,0.0,0.0,-0.4680719688534737
1666089398132402366,0.07045027516561311,0.0,0.0,0.0,0.0,-0.5680719688534737
1666089398182510557,0.04118761831514589,0.0,0.0,0.0,0.0,-0.6680719688534736
1666089398232387763,0.006924346622332968,0.0,0.0,0.0,0.0,-0.7680719688534736
1666089398282692346,0.0,0.0,0.0,0.0,0.0,-0.7882812083108528
1666089398332394117,0.0,0.0,0.0,0.0,0.0,-0.8314246822251556
1666089398382311576,0.0,0.0,0.0,0.0,0.0,-0.8314246822251556
1666089398432425056,0.0,0.0,0.0,0.0,0.0,-0.8726646259971653
1666089398482988904,0.0,0.0,0.0,0.0,0.0,-0.8760329798769586
1666089398532811560,0.0,0.0,0.0,0.0,0.0,-0.8726646259971653
1666089398582474577,0.0,0.0,0.0,0.0,0.0,-0.8726646259971653
1666089398632325281,0.0,0.0,0.0,0.0,0.0,-0.8726646259971653
1666089398682676122,0.0,0.0,0.0,0.0,0.0,-0.8726646259971653
1666089398732561399,0.0,0.0,0.0,0.0,0.0,-0.8726646259971653
1666089398782624295,0.015,0.0,0.0,0.0,0.0,-0.8465680081798004
1666089398832747501,0.03,0.0,0.0,0.0,0.0,-0.8214017342466625
1666089398886011329,0.045,0.0,0.0,0.0,0.0,-0.7960958706181951
1666089398932351693,0.06,0.0,0.0,0.0,0.0,-0.7707900069897277
1666089398982707458,0.075,0.0,0.0,0.0,0.0,-0.7461135525182735
1666089399032365893,0.09,0.0,0.0,0.0,0.0,-0.7214370980468193
1666089399082541309,0.105,0.0,0.0,0.0,0.0,-0.6792809730245626
1666089399132563808,0.12,0.0,0.0,0.0,0.0,-0.6371248480023057
1666089399182510832,0.135,0.0,0.0,0.0,0.0,-0.5994200399306813
1666089399232453478,0.15000000000000002,0.0,0.0,0.0,0.0,-0.5617152318590568
1666089399283061507,0.16500000000000004,0.0,0.0,0.0,0.0,-0.5331268095258218
1666089399332430878,0.18000000000000005,0.0,0.0,0.0,0.0,-0.5045383871925868
1666089399382632714,0.19500000000000006,0.0,0.0,0.0,0.0,-0.4759499648593518
1666089399432427906,0.21000000000000008,0.0,0.0,0.0,0.0,-0.4473615425261168
1666089399482548610,0.2250000000000001,0.0,0.0,0.0,0.0,-0.4258417387063837
1666089399532613015,0.2400000000000001,0.0,0.0,0.0,0.0,-0.4042513913200503
1666089399582489643,0.2550000000000001,0.0,0.0,0.0,0.0,-0.3924443614303447
1666089399632521125,0.27000000000000013,0.0,0.0,0.0,0.0,-0.38063733154063917
1666089399682823043,0.28500000000000014,0.0,0.0,0.0,0.0,-0.3690458575032954
1666089399732653238,0.30000000000000016,0.0,0.0,0.0,0.0,-0.3574543834659516
1666089399783118184,0.31500000000000017,0.0,0.0,0.0,0.0,-0.3458629094286078
1666089399832951138,0.3300000000000002,0.0,0.0,0.0,0.0,-0.33455776763415895
1666089399882536365,0.3450000000000002,0.0,0.0,0.0,0.0,-0.3236607033790387
1666089399933185346,0.3600000000000002,0.0,0.0,0.0,0.0,-0.3127636391239184
1666089399983812390,0.3750000000000002,0.0,0.0,0.0,0.0,-0.3020631968945333
1666089400032482480,0.39000000000000024,0.0,0.0,0.0,0.0,-0.2913477421532562
1666089400082447941,0.40500000000000025,0.0,0.0,0.0,0.0,-0.2806322874119791
1666089400132407576,0.42000000000000026,0.0,0.0,0.0,0.0,-0.2697731852347261
1666089400182543944,0.4350000000000003,0.0,0.0,0.0,0.0,-0.25518114363423916
1666089400232514375,0.4500000000000003,0.0,0.0,0.0,0.0,-0.24056534304951377
1666089400282619668,0.4650000000000003,0.0,0.0,0.0,0.0,-0.22546031593147742
1666089400332511603,0.4800000000000003,0.0,0.0,0.0,0.0,-0.21035528881344107
1666089400382330819,0.49500000000000033,0.0,0.0,0.0,0.0,-0.19525026169540471
1666089400432646195,0.5100000000000003,0.0,0.0,0.0,0.0,-0.15142204422741254
1666089400483481736,0.5250000000000004,0.0,0.0,0.0,0.0,-0.1041091076982757
1666089400532673826,0.5400000000000004,0.0,0.0,0.0,0.0,-0.05679617116913885
1666089400583020604,0.5550000000000004,0.0,0.0,0.0,0.0,-0.058146778541506454
1666089400632433081,0.5700000000000004,0.0,0.0,0.0,0.0,-0.05949738591387406
1666089400682881888,0.5850000000000004,0.0,0.0,0.0,0.0,-0.060847993286241665
1666089400732442507,0.6000000000000004,0.0,0.0,0.0,0.0,-0.06363840988242614
1666089400782757808,0.612931489944458,0.0,0.0,0.0,0.0,-0.07487121969461441
1666089400832459632,0.612931489944458,0.0,0.0,0.0,0.0,-0.07487121969461441
1666089400882685260,0.6034110188484191,0.0,0.0,0.0,0.0,-0.078154057264328
1666089400932348670,0.6034110188484191,0.0,0.0,0.0,0.0,-0.078154057264328
1666089400982678154,0.45341101884841906,0.0,0.0,0.0,0.0,-0.0794877557312495
1666089401032472106,0.30341101884841903,0.0,0.0,0.0,0.0,-0.080821454198171
1666089401082547467,0.16486844505582537,0.0,0.0,0.0,0.0,-4.996003610813204e-16
1666089401132906530,0.16486844505582537,0.0,0.0,0.0,0.0,-4.996003610813204e-16
1666089401184977556,0.1798684450558254,0.0,0.0,0.0,0.0,-0.003361147309609586
1666089401232301222,0.1948684450558254,0.0,0.0,0.0,0.0,-0.006991050495557639
1666089401284932556,0.20986844505582541,0.0,0.0,0.0,0.0,-0.010934880682099267
1666089401332539173,0.22486844505582543,0.0,0.0,0.0,0.0,-0.014878710868640895
1666089401382618533,0.23986844505582544,0.0,0.0,0.0,0.0,-0.019049313631836075
1666089401432374837,0.25486844505582545,0.0,0.0,0.0,0.0,-0.023219916395031254
1666089401482377235,0.26986844505582547,0.0,0.0,0.0,0.0,-0.027731277870345218
1666089401532432218,0.2848684450558255,0.0,0.0,0.0,0.0,-0.032567712618670454
1666089401582806235,0.2998684450558255,0.0,0.0,0.0,0.0,-0.03740414736699568
1666089401632470493,0.3148684450558255,0.0,0.0,0.0,0.0,-0.04221548926775453
1666089401682434741,0.3298684450558255,0.0,0.0,0.0,0.0,-0.0466639150509064
1666089401732467439,0.34486844505582553,0.0,0.0,0.0,0.0,-0.051112340834058266
1666089401782714463,0.35986844505582555,0.0,0.0,0.0,0.0,-0.055797579728010326
1666089401832332367,0.37486844505582556,0.0,0.0,0.0,0.0,-0.06048281862196239
1666089401882450808,0.3898684450558256,0.0,0.0,0.0,0.0,-0.06516805751591445
1666089401932809853,0.4048684450558256,0.0,0.0,0.0,0.0,-0.06907119310182873
1666089401983053717,0.4198684450558256,0.0,0.0,0.0,0.0,-0.072974328687743
1666089402032493933,0.43217626214027405,0.0,0.0,0.0,0.0,-0.07617693394422531
1666089402082721547,0.4297956526279449,0.0,0.0,0.0,0.0,-0.07457620650529861
1666089402132714999,0.4297956526279449,0.0,0.0,0.0,0.0,-0.07457620650529861
1666089402185676752,0.41424483060836786,0.0,0.0,0.0,0.0,-0.07212527096271515
1666089402232371766,0.41424483060836786,0.0,0.0,0.0,0.0,-0.07212527096271515
1666089402282473521,0.41424483060836786,0.0,0.0,0.0,0.0,-0.07212527096271515
1666089402332684933,0.4056602418422699,0.0,0.0,0.0,0.0,-0.07128000259399414
1666089402382546518,0.4056602418422699,0.0,0.0,0.0,0.0,-0.07128000259399414
1666089402432850074,0.3894152343273163,0.0,0.0,0.0,0.0,-4.996003610813204e-16
1666089402482381717,0.23941523432731626,0.0,0.0,0.0,0.0,-4.996003610813204e-16
1666089402532616751,0.08941523432731624,0.0,0.0,0.0,0.0,-4.996003610813204e-16
1666089402582466778,0.0,0.0,0.0,0.0,0.0,-4.996003610813204e-16
1666089402632512154,0.0,0.0,0.0,0.0,0.0,-4.996003610813204e-16
1666089402682885616,0.0,0.0,0.0,0.0,0.0,-4.996003610813204e-16
1666089402733155135,0.0,0.0,0.0,0.0,0.0,-4.996003610813204e-16
1666089402782664545,0.0,0.0,0.0,0.0,0.0,-4.996003610813204e-16
1666089402832391937,0.0,0.0,0.0,0.0,0.0,-4.996003610813204e-16
1666089402882704549,0.0,0.0,0.0,0.0,0.0,-4.996003610813204e-16
1666089402932349369,0.0,0.0,0.0,0.0,0.0,-4.996003610813204e-16
1666089402982649651,0.0,0.0,0.0,0.0,0.0,-4.996003610813204e-16
1666089403032409223,0.0,0.0,0.0,0.0,0.0,-4.996003610813204e-16
1666089403083312758,0.0,0.0,0.0,0.0,0.0,-4.996003610813204e-16
1666089403132316534,0.0,0.0,0.0,0.0,0.0,-4.996003610813204e-16
1666089403182384216,0.0,0.0,0.0,0.0,0.0,-4.996003610813204e-16
1666089403232675775,0.015,0.0,0.0,0.0,0.0,-0.0028765589937948394
1666089403282895133,0.03,0.0,0.0,0.0,0.0,-0.00575311798758918
1666089403332333668,0.045,0.0,0.0,0.0,0.0,-0.008270016805929377
1666089403383087175,0.06,0.0,0.0,0.0,0.0,-0.010614830077822136
1666089403432387931,0.075,0.0,0.0,0.0,0.0,-0.0102447115156751
1666089403482552298,0.09,0.0,0.0,0.0,0.0,-0.009873831070371262
1666089403532763900,0.105,0.0,0.0,0.0,0.0,-0.012043328469942792
1666089403582452639,0.12,0.0,0.0,0.0,0.0,-0.014212825869514322
1666089403633519880,0.135,0.0,0.0,0.0,0.0,-0.013716036218389691
1666089403682479159,0.15000000000000002,0.0,0.0,0.0,0.0,-0.01321924656726506
1666089403732415209,0.16500000000000004,0.0,0.0,0.0,0.0,-0.015105917424309247
1666089403782537562,0.18000000000000005,0.0,0.0,0.0,0.0,-0.016992588281353433
1666089403832736223,0.19500000000000006,0.0,0.0,0.0,0.0,-0.01887925913839762
1666089403882986968,0.21000000000000008,0.0,0.0,0.0,0.0,-0.01822346225357164
1666089403932395395,0.2250000000000001,0.0,0.0,0.0,0.0,-0.01756766536874566
1666089403982530046,0.2400000000000001,0.0,0.0,0.0,0.0,-0.018736789858162385
1666089404032381762,0.2550000000000001,0.0,0.0,0.0,0.0,-0.01990591434757911
1666089404082767462,0.27000000000000013,0.0,0.0,0.0,0.0,-0.01921336946086589
1666089404132459008,0.28500000000000014,0.0,0.0,0.0,0.0,-0.018519877077285796
1666089404182470688,0.30000000000000016,0.0,0.0,0.0,0.0,-0.0178263846937057
1666089404232767307,0.31500000000000017,0.0,0.0,0.0,0.0,-0.017165527582586236
1666089404282731962,0.3300000000000002,0.0,0.0,0.0,0.0,-0.01650467047146677
1666089404332356747,0.3450000000000002,0.0,0.0,0.0,0.0,-0.01586947203996036
1666089404382655457,0.3600000000000002,0.0,0.0,0.0,0.0,-0.015234273608453948
1666089404432421731,0.3750000000000002,0.0,0.0,0.0,0.0,-0.014648719273900252
1666089404482434450,0.39000000000000024,0.0,0.0,0.0,0.0,-0.014063164939346557
1666089404532482954,0.40500000000000025,0.0,0.0,0.0,0.0,-0.013477610604792861
1666089404582859243,0.42000000000000026,0.0,0.0,0.0,0.0,-0.01289858942661414
1666089404632843603,0.4350000000000003,0.0,0.0,0.0,0.0,-0.012312164921535675
1666089404682471766,0.4500000000000003,0.0,0.0,0.0,0.0,-0.011725740416457209
1666089404732839682,0.4650000000000003,0.0,0.0,0.0,0.0,-0.011139315911378744
1666089404782635870,0.4800000000000003,0.0,0.0,0.0,0.0,-0.011083174361914534
1666089404832353213,0.49500000000000033,0.0,0.0,0.0,0.0,-0.011028133487324832
1666089404882604477,0.5100000000000003,0.0,0.0,0.0,0.0,-0.0054083456916737835
1666089404933552110,0.5250000000000004,0.0,0.0,0.0,0.0,-0.005766677826352614
1666089404982423253,0.5400000000000004,0.0,0.0,0.0,0.0,-0.006125009961031446
1666089405032511188,0.5550000000000004,0.0,0.0,0.0,0.0,0.000641172426783603
1666089405083107321,0.5700000000000004,0.0,0.0,0.0,0.0,0.007407354814598652
1666089405133029487,0.5850000000000004,0.0,0.0,0.0,0.0,0.014368227460061911
1666089405182508582,0.6000000000000004,0.0,0.0,0.0,0.0,0.02132910010552517
1666089405233647328,0.6150000000000004,0.0,0.0,0.0,0.0,0.018495727713957723
1666089405283308182,0.6300000000000004,0.0,0.0,0.0,0.0,0.015662355322390277
1666089405332535125,0.6450000000000005,0.0,0.0,0.0,0.0,0.01282898293082283
1666089405382435571,0.6600000000000005,0.0,0.0,0.0,0.0,0.00951411016926387
1666089405432364559,0.6750000000000005,0.0,0.0,0.0,0.0,0.006199237407704908
1666089405482837842,0.6900000000000005,0.0,0.0,0.0,0.0,-0.008734105329622628
1666089405532456579,0.6913879513740538,0.0,0.0,0.0,0.0,-0.01011588890105486
1666089405582586565,0.6913879513740538,0.0,0.0,0.0,0.0,-0.01011588890105486
1666089405632888043,0.6823540925979614,0.0,0.0,0.0,0.0,-0.00916068535298109
1666089405682635448,0.6685366034507751,0.0,0.0,0.0,0.0,-0.0072146225720644
1666089405732513664,0.6715194582939148,0.0,0.0,0.0,0.0,0.09143736213445663
1666089405782481380,0.6715194582939148,0.0,0.0,0.0,0.0,0.09143736213445663
1666089405832871911,0.6330693364143372,0.0,0.0,0.0,0.0,-0.00447496771812439
1666089405882466673,0.6330693364143372,0.0,0.0,0.0,0.0,-0.00447496771812439
1666089405932696947,0.6170328855514526,0.0,0.0,0.0,0.0,-0.002917251782491803
1666089405982505350,0.6170328855514526,0.0,0.0,0.0,0.0,-0.002917251782491803
1666089406032579583,0.6170328855514526,0.0,0.0,0.0,0.0,-0.002917251782491803
1666089406082442698,0.5707890391349792,0.0,0.0,0.0,0.0,-0.0005300166667439044
1666089406132357376,0.5469664931297302,0.0,0.0,0.0,0.0,0.0014763344079256058
1666089406182491618,0.5469664931297302,0.0,0.0,0.0,0.0,0.0014763344079256058
1666089406232667945,0.5469664931297302,0.0,0.0,0.0,0.0,0.0014763344079256058
1666089406282697945,0.49701356887817383,0.0,0.0,0.0,0.0,0.0028845383785665035
1666089406332663454,0.4698324501514434,0.0,0.0,0.0,0.0,0.003464345820248127
1666089406382385531,0.4698324501514434,0.0,0.0,0.0,0.0,0.003464345820248127
1666089406432784165,0.44179561734199524,0.0,0.0,0.0,0.0,0.004673649091273546
1666089406482789127,0.44179561734199524,0.0,0.0,0.0,0.0,0.004673649091273546
1666089406532759527,0.44179561734199524,0.0,0.0,0.0,0.0,0.004673649091273546
1666089406582466293,0.42348912358283997,0.0,0.0,0.0,0.0,0.007669275626540184
1666089406633491960,0.42348912358283997,0.0,0.0,0.0,0.0,0.007669275626540184
1666089406682511254,0.38833507895469666,0.0,0.0,0.0,0.0,0.010947245173156261
1666089406732479325,0.3679209351539612,0.0,0.0,0.0,0.0,0.011978419497609138
1666089406782800051,0.36856064200401306,0.0,0.0,0.0,0.0,0.011810868047177792
1666089406832372464,0.36856064200401306,0.0,0.0,0.0,0.0,0.011810868047177792
1666089406882736745,0.27077856652273125,0.0,0.0,0.0,0.0,0.1118108680471778
1666089406932646465,0.17299649104144943,0.0,0.0,0.0,0.0,0.2118108680471778
1666089406982866081,0.08083981178130306,0.0,0.0,0.0,0.0,0.31181086804717784
1666089407032537506,0.004553512843893673,0.0,0.0,0.0,0.0,0.4118108680471778
1666089407082682570,0.0,0.0,0.0,0.0,0.0,0.41777984662828543
1666089407132753316,0.0,0.0,0.0,0.0,0.0,0.41777984662828543
1666089407182708471,0.0,0.0,0.0,0.0,0.0,0.44896937148897714
1666089407232845299,0.0,0.0,0.0,0.0,0.0,0.4394920251170598
1666089407282391982,0.0,0.0,0.0,0.0,0.0,0.4394920251170598
1666089407332283123,0.0,0.0,0.0,0.0,0.0,0.4394920251170598
1666089407382663795,0.0,0.0,0.0,0.0,0.0,0.4421870815474602
1666089407432642511,0.0,0.0,0.0,0.0,0.0,0.4421870815474602
1666089407482409795,0.0,0.0,0.0,0.0,0.0,0.42986552838943703
1666089407533117654,0.0,0.0,0.0,0.0,0.0,0.42986552838943703
1666089407582586384,0.0,0.0,0.0,0.0,0.0,0.3978804419947272
1666089407632634910,0.015,0.0,0.0,0.0,0.0,0.3889415109091038
1666089407682356715,0.03,0.0,0.0,0.0,0.0,0.38000257982348035
1666089407732565289,0.045,0.0,0.0,0.0,0.0,0.3710636487378569
1666089407782632137,0.06,0.0,0.0,0.0,0.0,0.3626156682212779
1666089407832898326,0.075,0.0,0.0,0.0,0.0,0.34911622362615197
1666089407882618410,0.09,0.0,0.0,0.0,0.0,0.3367342280915246
1666089407932514312,0.105,0.0,0.0,0.0,0.0,0.3243522325568972
1666089407982513664,0.12,0.0,0.0,0.0,0.0,0.31375384046704285
1666089408032549619,0.135,0.0,0.0,0.0,0.0,0.3031554483771885
1666089408082691059,0.15000000000000002,0.0,0.0,0.0,0.0,0.29322774376368543
1666089408132502976,0.16500000000000004,0.0,0.0,0.0,0.0,0.28330003915018237
1666089408182481349,0.18000000000000005,0.0,0.0,0.0,0.0,0.27432956519898294
1666089408232852673,0.19500000000000006,0.0,0.0,0.0,0.0,0.2653590912477835
1666089408282849344,0.21000000000000008,0.0,0.0,0.0,0.0,0.2602200589168487
1666089408332576411,0.2250000000000001,0.0,0.0,0.0,0.0,0.25508102658591386
1666089408383195736,0.2400000000000001,0.0,0.0,0.0,0.0,0.24630524217173036
1666089408432461437,0.2550000000000001,0.0,0.0,0.0,0.0,0.23752945775754686
1666089408482518913,0.27000000000000013,0.0,0.0,0.0,0.0,0.22899979828188252
1666089408533297487,0.28500000000000014,0.0,0.0,0.0,0.0,0.22072992948947187
1666089408582530307,0.30000000000000016,0.0,0.0,0.0,0.0,0.21270160803950444
1666089408632433109,0.31500000000000017,0.0,0.0,0.0,0.0,0.204673286589537
1666089408682698462,0.3300000000000002,0.0,0.0,0.0,0.0,0.19664496513956958
1666089408732999140,0.3450000000000002,0.0,0.0,0.0,0.0,0.1883524347459532
1666089408784022990,0.3600000000000002,0.0,0.0,0.0,0.0,0.18071545066261333
1666089408832423410,0.3750000000000002,0.0,0.0,0.0,0.0,0.17307846657927345
1666089408886291027,0.39000000000000024,0.0,0.0,0.0,0.0,0.16898100165558022
1666089408932495991,0.40500000000000025,0.0,0.0,0.0,0.0,0.164883536731887
1666089408983712110,0.42000000000000026,0.0,0.0,0.0,0.0,0.16078607180819376
1666089409032771687,0.4350000000000003,0.0,0.0,0.0,0.0,0.1527182013577061
1666089409082702715,0.4500000000000003,0.0,0.0,0.0,0.0,0.14463180259526018
1666089409132642254,0.4650000000000003,0.0,0.0,0.0,0.0,0.13654540383281424
1666089409182335523,0.4800000000000003,0.0,0.0,0.0,0.0,0.1284590050703683
1666089409233204700,0.49500000000000033,0.0,0.0,0.0,0.0,0.12001006304501746
1666089409284867413,0.5100000000000003,0.0,0.0,0.0,0.0,0.11065815177469072
1666089409332368135,0.5250000000000004,0.0,0.0,0.0,0.0,0.10130624050436399
1666089409382601577,0.5400000000000004,0.0,0.0,0.0,0.0,0.09689048628497916
1666089409433439941,0.5550000000000004,0.0,0.0,0.0,0.0,0.08212084832003595
1666089409482537104,0.5700000000000004,0.0,0.0,0.0,0.0,0.05943449244622273
1666089409532617791,0.5850000000000004,0.0,0.0,0.0,0.0,0.036748136572409495
1666089409582552077,0.5750942230224609,0.0,0.0,0.0,0.0,-4.996003610813204e-16
1666089409632324036,0.5750942230224609,0.0,0.0,0.0,0.0,-4.996003610813204e-16
1666089409683370605,0.5750942230224609,0.0,0.0,0.0,0.0,-4.996003610813204e-16
1666089409732468330,0.5047595500946045,0.0,0.0,0.0,0.0,-4.996003610813204e-16
1666089409782778391,0.5047595500946045,0.0,0.0,0.0,0.0,-4.996003610813204e-16
1666089409832694247,0.5047595500946045,0.0,0.0,0.0,0.0,-4.996003610813204e-16
1666089409882870878,0.47451004385948176,0.0,0.0,0.0,0.0,-4.996003610813204e-16
1666089409932971603,0.47451004385948176,0.0,0.0,0.0,0.0,-4.996003610813204e-16
1666089409982373953,0.440451830625534,0.0,0.0,0.0,0.0,-4.996003610813204e-16
1666089410033094380,0.290451830625534,0.0,0.0,0.0,0.0,-4.996003610813204e-16
1666089410082564456,0.14045183062553396,0.0,0.0,0.0,0.0,-4.996003610813204e-16
1666089410132341262,0.0,0.0,0.0,0.0,0.0,-4.996003610813204e-16
1666089410182842712,0.0,0.0,0.0,0.0,0.0,-4.996003610813204e-16
1666089410232594089,0.0,0.0,0.0,0.0,0.0,-4.996003610813204e-16
1666089410282530378,0.0,0.0,0.0,0.0,0.0,-4.996003610813204e-16
1666089410332611422,0.0,0.0,0.0,0.0,0.0,-4.996003610813204e-16
1666089410382511390,0.0,0.0,0.0,0.0,0.0,-4.996003610813204e-16
1666089410432500954,0.0,0.0,0.0,0.0,0.0,-4.996003610813204e-16
1666089410482975330,0.0,0.0,0.0,0.0,0.0,-4.996003610813204e-16
1666089410532954145,0.0,0.0,0.0,0.0,0.0,-4.996003610813204e-16
1666089410582684543,0.0,0.0,0.0,0.0,0.0,-4.996003610813204e-16
1666089410632488974,0.0,0.0,0.0,0.0,0.0,-4.996003610813204e-16
1666089410682593008,0.0,0.0,0.0,0.0,0.0,-4.996003610813204e-16
1666089410733081651,0.0,0.0,0.0,0.0,0.0,-4.996003610813204e-16
1666089410782589942,0.0,0.0,0.0,0.0,0.0,-4.996003610813204e-16
1666089410832388715,0.0,0.0,0.0,0.0,0.0,-4.996003610813204e-16
1666089410882635517,0.0,0.0,0.0,0.0,0.0,-4.996003610813204e-16
1666089410932566885,0.0,0.0,0.0,0.0,0.0,-4.996003610813204e-16
1666089410982788904,0.0,0.0,0.0,0.0,0.0,-4.996003610813204e-16
1666089411032344163,0.0,0.0,0.0,0.0,0.0,-4.996003610813204e-16
1666089411082750828,0.0,0.0,0.0,0.0,0.0,-4.996003610813204e-16
1666089411133090393,0.0,0.0,0.0,0.0,0.0,-4.996003610813204e-16
1666089411182573478,0.0,0.0,0.0,0.0,0.0,-4.996003610813204e-16
1666089411232315484,0.0,0.0,0.0,0.0,0.0,-4.996003610813204e-16
1666089411282868862,0.0,0.0,0.0,0.0,0.0,-4.996003610813204e-16
1666089411332331562,0.0,0.0,0.0,0.0,0.0,-4.996003610813204e-16
1666089411382647217,0.0,0.0,0.0,0.0,0.0,-4.996003610813204e-16
1666089411433092763,0.0,0.0,0.0,0.0,0.0,-4.996003610813204e-16
1666089411483001977,0.0,0.0,0.0,0.0,0.0,-4.996003610813204e-16
1666089411532615511,0.0,0.0,0.0,0.0,0.0,-4.996003610813204e-16
1666089411583425199,0.0,0.0,0.0,0.0,0.0,-4.996003610813204e-16
1666089411633150911,0.0,0.0,0.0,0.0,0.0,-4.996003610813204e-16
1666089411682900262,0.0,0.0,0.0,0.0,0.0,-4.996003610813204e-16
1666089411732995054,0.0,0.0,0.0,0.0,0.0,-4.996003610813204e-16
1666089411782670194,0.0,0.0,0.0,0.0,0.0,-4.996003610813204e-16
1666089411833047701,0.0,0.0,0.0,0.0,0.0,-4.996003610813204e-16
1666089411882937674,0.0,0.0,0.0,0.0,0.0,-4.996003610813204e-16
1666089411932352668,0.0,0.0,0.0,0.0,0.0,-4.996003610813204e-16
1666089411982470792,0.0,0.0,0.0,0.0,0.0,-4.996003610813204e-16
1666089412032526290,0.0,0.0,0.0,0.0,0.0,-4.996003610813204e-16
1666089412082758442,0.0,0.0,0.0,0.0,0.0,-4.996003610813204e-16
1666089412132486212,0.0,0.0,0.0,0.0,0.0,-4.996003610813204e-16
1666089412185708708,0.0,0.0,0.0,0.0,0.0,-4.996003610813204e-16
1666089412232805960,0.0,0.0,0.0,0.0,0.0,-4.996003610813204e-16
1666089412283112441,0.0,0.0,0.0,0.0,0.0,-4.996003610813204e-16
1666089412332427017,0.0,0.0,0.0,0.0,0.0,-4.996003610813204e-16
1666089412382896521,0.0,0.0,0.0,0.0,0.0,-4.996003610813204e-16
1666089412432465400,0.0,0.0,0.0,0.0,0.0,-4.996003610813204e-16
1666089412482901763,0.0,0.0,0.0,0.0,0.0,-4.996003610813204e-16
1666089412532313826,0.0,0.0,0.0,0.0,0.0,-4.996003610813204e-16
1666089412584597220,0.0,0.0,0.0,0.0,0.0,-4.996003610813204e-16
1666089412632445323,0.0,0.0,0.0,0.0,0.0,-4.996003610813204e-16
1666089412682819755,0.0,0.0,0.0,0.0,0.0,-4.996003610813204e-16
1666089412734147997,0.0,0.0,0.0,0.0,0.0,-4.996003610813204e-16
1666089412783015128,0.0,0.0,0.0,0.0,0.0,-4.996003610813204e-16
1666089412832485649,0.0,0.0,0.0,0.0,0.0,-4.996003610813204e-16
1666089412882483108,0.0,0.0,0.0,0.0,0.0,-4.996003610813204e-16
1666089412932451263,0.0,0.0,0.0,0.0,0.0,-4.996003610813204e-16
1666089412982773756,0.0,0.0,0.0,0.0,0.0,-4.996003610813204e-16
1666089413032366679,0.0,0.0,0.0,0.0,0.0,-4.996003610813204e-16
1666089413083171346,0.0,0.0,0.0,0.0,0.0,-4.996003610813204e-16
1666089413132565769,0.0,0.0,0.0,0.0,0.0,-4.996003610813204e-16
1666089413182623655,0.0,0.0,0.0,0.0,0.0,-4.996003610813204e-16
1666089413232635099,0.0,0.0,0.0,0.0,0.0,-4.996003610813204e-16
1666089413283443476,0.0,0.0,0.0,0.0,0.0,-4.996003610813204e-16
1666089413332639049,0.0,0.0,0.0,0.0,0.0,-4.996003610813204e-16
1666089413382863953,0.0,0.0,0.0,0.0,0.0,-4.996003610813204e-16
1666089413432480165,0.0,0.0,0.0,0.0,0.0,-4.996003610813204e-16
1666089413483352049,0.0,0.0,0.0,0.0,0.0,-4.996003610813204e-16
1666089413532633175,0.0,0.0,0.0,0.0,0.0,-4.996003610813204e-16
1666089413582593262,0.0,0.0,0.0,0.0,0.0,-4.996003610813204e-16
1666089413632380943,0.0,0.0,0.0,0.0,0.0,-4.996003610813204e-16
1666089413682374084,0.0,0.0,0.0,0.0,0.0,-4.996003610813204e-16
1666089413732578107,0.0,0.0,0.0,0.0,0.0,-4.996003610813204e-16
1666089413786014529,0.0,0.0,0.0,0.0,0.0,-4.996003610813204e-16
1666089413832452264,0.0,0.0,0.0,0.0,0.0,-4.996003610813204e-16
1666089413882796015,0.0,0.0,0.0,0.0,0.0,-4.996003610813204e-16
1666089413932473581,0.0,0.0,0.0,0.0,0.0,-4.996003610813204e-16
1666089413982591389,0.0,0.0,0.0,0.0,0.0,-4.996003610813204e-16
1666089414032839234,0.0,0.0,0.0,0.0,0.0,-4.996003610813204e-16
1666089414082591027,0.0,0.0,0.0,0.0,0.0,-4.996003610813204e-16
1666089414132359410,0.0,0.0,0.0,0.0,0.0,-4.996003610813204e-16
1666089414183622775,0.0,0.0,0.0,0.0,0.0,-4.996003610813204e-16
1666089414232326175,0.0,0.0,0.0,0.0,0.0,-4.996003610813204e-16
1666089414282630321,0.0,0.0,0.0,0.0,0.0,-4.996003610813204e-16
1666089414332482457,0.0,0.0,0.0,0.0,0.0,-4.996003610813204e-16
1666089414382374586,0.0,0.0,0.0,0.0,0.0,-4.996003610813204e-16
1666089414432976703,0.0,0.0,0.0,0.0,0.0,-4.996003610813204e-16
1666089414482533666,0.0,0.0,0.0,0.0,0.0,-4.996003610813204e-16
1666089414532484207,0.0,0.0,0.0,0.0,0.0,-4.996003610813204e-16
1666089414582522785,0.0,0.0,0.0,0.0,0.0,-4.996003610813204e-16
1666089414632426991,0.0,0.0,0.0,0.0,0.0,-4.996003610813204e-16
1666089414682316539,0.0,0.0,0.0,0.0,0.0,-4.996003610813204e-16
1666089414732627705,0.0,0.0,0.0,0.0,0.0,-4.996003610813204e-16
1666089414783180994,0.0,0.0,0.0,0.0,0.0,-4.996003610813204e-16
1666089414832908749,0.0,0.0,0.0,0.0,0.0,-4.996003610813204e-16
1666089414882330335,0.0,0.0,0.0,0.0,0.0,-4.996003610813204e-16
1666089414932688186,0.0,0.0,0.0,0.0,0.0,-4.996003610813204e-16
1666089414982415209,0.0,0.0,0.0,0.0,0.0,-4.996003610813204e-16
1666089415032662572,0.0,0.0,0.0,0.0,0.0,-4.996003610813204e-16
1666089415082682283,0.0,0.0,0.0,0.0,0.0,-4.996003610813204e-16
1666089415132738751,0.015,0.0,0.0,0.0,0.0,-4.996003610813204e-16
1666089415182402025,0.03,0.0,0.0,0.0,0.0,-4.996003610813204e-16
1666089415232793285,0.045,0.0,0.0,0.0,0.0,-4.996003610813204e-16
1666089415282420526,0.06,0.0,0.0,0.0,0.0,-4.996003610813204e-16
1666089415332586818,0.075,0.0,0.0,0.0,0.0,0.006448077756282706
1666089415382419243,0.09,0.0,0.0,0.0,0.0,0.012896155512565913
1666089415433187383,0.105,0.0,0.0,0.0,0.0,0.019234350189348593
1666089415482394655,0.12,0.0,0.0,0.0,0.0,0.025572544866131273
1666089415532658158,0.135,0.0,0.0,0.0,0.0,0.03157193666496791
1666089415582558898,0.15000000000000002,0.0,0.0,0.0,0.0,0.03788988302340679
1666089415633128164,0.16500000000000004,0.0,0.0,0.0,0.0,0.04432460913466237
1666089415682368473,0.18000000000000005,0.0,0.0,0.0,0.0,0.050759335245917955
1666089415732554928,0.19500000000000006,0.0,0.0,0.0,0.0,0.05675406736677727
1666089415782435564,0.21000000000000008,0.0,0.0,0.0,0.0,0.07368531059780367
1666089415832825352,0.2250000000000001,0.0,0.0,0.0,0.0,0.09157045773166361
1666089415882438987,0.2400000000000001,0.0,0.0,0.0,0.0,0.1107147681388008
1666089415933006153,0.2550000000000001,0.0,0.0,0.0,0.0,0.12985907854593798
1666089415982744697,0.27000000000000013,0.0,0.0,0.0,0.0,0.14646522399620587
1666089416032513906,0.28500000000000014,0.0,0.0,0.0,0.0,0.17134484220234067
1666089416082418366,0.30000000000000016,0.0,0.0,0.0,0.0,0.19622446040847547
1666089416132593304,0.31500000000000017,0.0,0.0,0.0,0.0,0.22831063975713795
1666089416182542183,0.16500000000000015,0.0,0.0,0.0,0.0,0.2650948036018183
1666089416232457810,0.015000000000000124,0.0,0.0,0.0,0.0,0.30187896744649867
1666089416282669948,0.0,0.0,0.0,0.0,0.0,0.32593549448070114
1666089416332675055,0.0,0.0,0.0,0.0,0.0,0.32593549448070114
1666089416382680989,0.0,0.0,0.0,0.0,0.0,0.3490658503988654
1666089416432499311,0.0,0.0,0.0,0.0,0.0,0.3490658503988654
1666089416482917678,0.0,0.0,0.0,0.0,0.0,0.35748049335854964
1666089416532381986,0.0,0.0,0.0,0.0,0.0,0.35748049335854964
1666089416582401020,0.0,0.0,0.0,0.0,0.0,0.35171404981601756
1666089416632697060,0.0,0.0,0.0,0.0,0.0,0.335870088472328
1666089416682535712,0.0,0.0,0.0,0.0,0.0,0.335870088472328
1666089416732589842,0.0,0.0,0.0,0.0,0.0,0.335870088472328
1666089416782420958,0.0,0.0,0.0,0.0,0.0,0.3369312050723431
1666089416833006919,0.0,0.0,0.0,0.0,0.0,0.3369312050723431
1666089416882426376,0.0,0.0,0.0,0.0,0.0,0.2896668363075151
1666089416932705674,0.0,0.0,0.0,0.0,0.0,0.2896668363075151
1666089416982800600,0.0,0.0,0.0,0.0,0.0,0.2543066256837904
1666089417032374232,0.0,0.0,0.0,0.0,0.0,0.2330327002123382
1666089417082467687,0.0,0.0,0.0,0.0,0.0,0.23121510319648392
1666089417132462100,0.0,0.0,0.0,0.0,0.0,0.23121510319648392
1666089417182666500,0.0,0.0,0.0,0.0,0.0,0.17453292519943245
1666089417232413321,0.0,0.0,0.0,0.0,0.0,0.17453292519943245
1666089417282847812,0.0,0.0,0.0,0.0,0.0,0.17453292519943245
1666089417332541245,0.0,0.0,0.0,0.0,0.0,0.17453292519943245
1666089417382386008,0.0,0.0,0.0,0.0,0.0,0.17453292519943245
1666089417432481370,0.0,0.0,0.0,0.0,0.0,0.17453292519943245
1666089417482635842,0.0,0.0,0.0,0.0,0.0,0.17453292519943245
1666089417532532591,0.0,0.0,0.0,0.0,0.0,0.07453292519943244
1666089417582753160,0.0,0.0,0.0,0.0,0.0,-4.996003610813204e-16
1666089417633359409,0.0,0.0,0.0,0.0,0.0,-4.996003610813204e-16
1666089417682340451,0.0,0.0,0.0,0.0,0.0,-4.996003610813204e-16
1666089417732515565,0.0,0.0,0.0,0.0,0.0,-4.996003610813204e-16
1666089417782593023,0.0,0.0,0.0,0.0,0.0,-4.996003610813204e-16
1666089417832525186,0.0,0.0,0.0,0.0,0.0,-4.996003610813204e-16
1666089417882863384,0.0,0.0,0.0,0.0,0.0,-4.996003610813204e-16
1666089417932483252,0.0,0.0,0.0,0.0,0.0,-4.996003610813204e-16
1666089417982473786,0.0,0.0,0.0,0.0,0.0,-4.996003610813204e-16
1666089418032675646,0.0,0.0,0.0,0.0,0.0,-4.996003610813204e-16
1666089418082432972,0.0,0.0,0.0,0.0,0.0,-4.996003610813204e-16
1666089418132553450,0.0,0.0,0.0,0.0,0.0,-4.996003610813204e-16
1666089418182350902,0.0,0.0,0.0,0.0,0.0,-4.996003610813204e-16
1666089418232599209,0.0,0.0,0.0,0.0,0.0,0.0999999999999995
1666089418283392620,0.0,0.0,0.0,0.0,0.0,0.17453292519943245
1666089418333442688,0.0,0.0,0.0,0.0,0.0,0.17453292519943245
1666089418382403723,0.0,0.0,0.0,0.0,0.0,0.17453292519943245
1666089418432536391,0.0,0.0,0.0,0.0,0.0,0.17453292519943245
1666089418482519764,0.0,0.0,0.0,0.0,0.0,0.17453292519943245
1666089418532659797,0.0,0.0,0.0,0.0,0.0,0.17453292519943245
1666089418582414967,0.0,0.0,0.0,0.0,0.0,0.17453292519943245
