%time,field.linear.x,field.linear.y,field.linear.z,field.angular.x,field.angular.y,field.angular.z
1666090080786235242,0.0,0.0,0.0,0.0,0.0,0.0
1666090080806092433,0.0,0.0,0.0,0.0,0.0,0.0
1666090080826086832,0.0,0.0,0.0,0.0,0.0,0.0
1666090080846129131,0.0,0.0,0.0,0.0,0.0,0.0
1666090080867107669,0.0,0.0,0.0,0.0,0.0,0.0
1666090080886039420,0.0,0.0,0.0,0.0,0.0,0.0
1666090080906042751,0.0,0.0,0.0,0.0,0.0,0.0
1666090080926172355,0.0,0.0,0.0,0.0,0.0,0.0
1666090080946097426,0.0,0.0,0.0,0.0,0.0,0.0
1666090080988040813,0.0,0.0,0.0,0.0,0.0,0.0
1666090080988058677,0.0,0.0,0.0,0.0,0.0,0.0
1666090081032034453,0.0,0.0,0.0,0.0,0.0,0.0
1666090081032042430,0.0,0.0,0.0,0.0,0.0,0.0
1666090081076028191,0.0,0.0,0.0,0.0,0.0,0.0
1666090081076035887,0.0,0.0,0.0,0.0,0.0,0.0
1666090081120027029,0.0,0.0,0.0,0.0,0.0,0.0
1666090081120034635,0.0,0.0,0.0,0.0,0.0,0.0
1666090081164059306,0.0,0.0,0.0,0.0,0.0,0.0
1666090081164066152,0.0,0.0,0.0,0.0,0.0,0.0
1666090081208033527,0.0,0.0,0.0,0.0,0.0,0.0
1666090081208043106,0.0,0.0,0.0,0.0,0.0,0.0
1666090081208051226,0.0,0.0,0.0,0.0,0.0,0.0
1666090081252029974,0.0,0.0,0.0,0.0,0.0,0.0
1666090081252043157,0.0,0.0,0.0,0.0,0.0,0.0
1666090081265875083,0.0,0.0,0.0,0.0,0.0,0.0
1666090081285889621,0.0,0.0,0.0,0.0,0.0,0.0
1666090081332029893,0.0,0.0,0.0,0.0,0.0,0.0
1666090081332040494,0.0,0.0,0.0,0.0,0.0,0.0
1666090081376085459,0.0,0.0,0.0,0.0,0.0,0.0
1666090081376094029,0.0,0.0,0.0,0.0,0.0,0.0
1666090081420036563,0.0,0.0,0.0,0.0,0.0,0.0
1666090081420048416,0.002132302208337933,0.0,0.0,0.0,0.0,0.0
1666090081464032372,0.004264604416675866,0.0,0.0,0.0,0.0,0.0024434609527920616
1666090081464049411,0.002132302208337933,0.0,0.0,0.0,0.0,0.004014257279586958
1666090081508025558,0.0,0.0,0.0,0.0,0.0,0.0
1666090081508038486,0.0,0.0,0.0,0.0,0.0,0.0
1666090081508066239,0.0,0.0,0.0,0.0,0.0,0.0
1666090081552081893,0.0,0.0,0.0,0.0,0.0,0.0
1666090081552092477,0.0,0.0,0.0,0.0,0.0,0.0
1666090081566773047,0.0,0.0,0.0,0.0,0.0,0.0
1666090081586832436,0.0,0.0,0.0,0.0,0.0,0.0
1666090081628020022,0.0,0.0,0.0,0.0,0.0,0.0
1666090081628026171,0.0,0.0,0.0,0.0,0.0,0.0
1666090081672032614,0.0,0.0,0.0,0.0,0.0,0.0
1666090081672042601,0.0,0.0,0.0,0.0,0.0,0.0
1666090081716028035,0.0,0.0,0.0,0.0,0.0,0.0
1666090081716036182,0.0,0.0,0.0,0.0,0.0,0.0
1666090081760060752,0.0,0.0,0.0,0.0,0.0,0.0
1666090081760068897,0.0,0.0,0.0,0.0,0.0,0.0
1666090081804062830,0.0,0.0,0.0,0.0,0.0,0.0
1666090081804068863,0.0,0.0,0.0,0.0,0.0,-0.009948376736367677
1666090081848024850,0.0,0.0,0.0,0.0,0.0,-0.01937315469713706
1666090081848032717,0.0,0.0,0.0,0.0,0.0,-0.01832595714594046
1666090081848041494,0.0,0.0,0.0,0.0,0.0,-0.015533430342749534
1666090081892068625,0.0,0.0,0.0,0.0,0.0,-0.012566370614359173
1666090081892073789,0.0,0.0,0.0,0.0,0.0,-0.008552113334772213
1666090081906618766,0.0,0.0,0.0,0.0,0.0,0.0
1666090081926550279,-0.002132302208337933,0.0,0.0,0.0,0.0,0.0
1666090081968024826,0.0,0.0,0.0,0.0,0.0,0.0
1666090081968034212,-0.004264604416675866,0.0,0.0,0.0,0.0,0.00017453292519943296
1666090082012064469,-0.002132302208337933,0.0,0.0,0.0,0.0,0.0005235987755982988
1666090082012075625,0.0,0.0,0.0,0.0,0.0,0.0
1666090082056060626,0.0,0.0,0.0,0.0,0.0,-0.006981317007977318
1666090082056068175,0.0,0.0,0.0,0.0,0.0,0.0
1666090082100090531,0.0,0.0,0.0,0.0,0.0,0.0
1666090082100100699,0.0,0.0,0.0,0.0,0.0,0.0
1666090082144067410,0.0,0.0,0.0,0.0,0.0,0.0
1666090082144080887,0.0,0.0,0.0,0.0,0.0,-0.009599310885968814
1666090082188055627,0.0,0.0,0.0,0.0,0.0,-0.006283185307179587
1666090082188066827,0.0,0.0,0.0,0.0,0.0,0.0
1666090082188071249,0.0,0.0,0.0,0.0,0.0,0.008377580409572781
1666090082232043879,0.0,0.0,0.0,0.0,0.0,0.0
1666090082232055174,0.0,0.0,0.0,0.0,0.0,0.0
1666090082247478453,0.0,0.0,0.0,0.0,0.0,0.0
1666090082266434786,0.0,0.0,0.0,0.0,0.0,0.0
1666090082308027700,0.0,0.0,0.0,0.0,0.0,0.0
1666090082308037542,0.0,0.0,0.0,0.0,0.0,0.0
1666090082352089825,0.0,0.0,0.0,0.0,0.0,0.0
1666090082352098857,0.0,0.0,0.0,0.0,0.0,0.0
1666090082396078227,0.0,0.0,0.0,0.0,0.0,0.0
1666090082396088701,0.0,0.0,0.0,0.0,0.0,0.0
1666090082444084333,0.0,0.0,0.0,0.0,0.0,0.0
1666090082444098603,0.0,0.0,0.0,0.0,0.0,0.0
1666090082488063542,0.0,0.0,0.0,0.0,0.0,0.0
1666090082488075803,0.0,0.0,0.0,0.0,0.0,0.0
1666090082488088829,0.0,0.0,0.0,0.0,0.0,0.0
1666090082536047499,0.0,0.0,0.0,0.0,0.0,0.0
1666090082536058707,0.0,0.0,0.0,0.0,0.0,0.0
1666090082547417805,0.0,0.0,0.0,0.0,0.0,0.0
1666090082567371127,0.0,0.0,0.0,0.0,0.0,0.0
1666090082608048261,0.0,0.0,0.0,0.0,0.0,0.0
1666090082608061352,0.0,0.0,0.0,0.0,0.0,0.0
1666090082652112871,0.0,0.0,0.0,0.0,0.0,0.0
1666090082652124878,0.0,0.0,0.0,0.0,0.0,0.0
1666090082696047379,0.0,0.0,0.0,0.0,0.0,0.0
1666090082696057108,0.0,0.0,0.0,0.0,0.0,0.0
1666090082740035337,0.0,0.0,0.0,0.0,0.0,0.0
1666090082740046532,0.0,0.0,0.0,0.0,0.0,0.0
1666090082784044627,0.0,0.0,0.0,0.0,0.0,-0.023561944901923447
1666090082784057078,0.0,0.0,0.0,0.0,0.0,0.0
1666090082828431370,0.0,0.0,0.0,0.0,0.0,0.0
1666090082828530964,0.0,0.0,0.0,0.0,0.0,0.0
1666090082876046966,0.0,0.0,0.0,0.0,0.0,0.007853981633974483
1666090082876060377,0.0,0.0,0.0,0.0,0.0,0.0
1666090082876067085,-0.002132302208337933,0.0,0.0,0.0,0.0,-0.0013962634015954637
1666090082924053694,-0.002132302208337933,0.0,0.0,0.0,0.0,0.0
1666090082924061064,0.0,0.0,0.0,0.0,0.0,-0.012566370614359173
1666090082927212942,0.0,0.0,0.0,0.0,0.0,-0.01117010721276371
1666090082947261479,0.0,0.0,0.0,0.0,0.0,-0.010122909661567111
1666090082988043237,-0.002132302208337933,0.0,0.0,0.0,0.0,-0.009075712110370514
1666090082988052804,0.0,0.0,0.0,0.0,0.0,-0.009250245035569947
1666090083032176606,0.0,0.0,0.0,0.0,0.0,0.0
1666090083032202061,0.0,0.0,0.0,0.0,0.0,0.0
1666090083076267648,0.0,0.0,0.0,0.0,0.0,0.0
1666090083076302049,0.0,0.0,0.0,0.0,0.0,0.0
1666090083127315227,0.0,0.0,0.0,0.0,0.0,0.0
1666090083147190939,0.0,0.0,0.0,0.0,0.0,0.0
1666090083188136664,0.0,0.0,0.0,0.0,0.0,0.0
1666090083188155486,0.002132302208337933,0.0,0.0,0.0,0.0,0.0
1666090083232077907,0.0,0.0,0.0,0.0,0.0,0.0
1666090083232091824,0.0,0.0,0.0,0.0,0.0,0.0
1666090083276226121,0.0,0.0,0.0,0.0,0.0,0.0
1666090083276262100,0.0,0.0,0.0,0.0,0.0,0.0
1666090083320508687,-0.002132302208337933,0.0,0.0,0.0,0.0,0.005759586531581288
1666090083320582754,0.0,0.0,0.0,0.0,0.0,0.0
1666090083364171680,0.0,0.0,0.0,0.0,0.0,0.0
1666090083364199453,-0.002132302208337933,0.0,0.0,0.0,0.0,0.0
1666090083408420350,0.0,0.0,0.0,0.0,0.0,0.0
1666090083408460269,0.0,0.0,0.0,0.0,0.0,0.0
1666090083408809186,0.0,0.0,0.0,0.0,0.0,0.0
1666090083452076023,0.0,0.0,0.0,0.0,0.0,0.0
1666090083452090679,0.0,0.0,0.0,0.0,0.0,0.0
1666090083468054821,0.0,0.0,0.0,0.0,0.0,0.0
1666090083487115795,0.0,0.0,0.0,0.0,0.0,0.0
1666090083528150289,0.0,0.0,0.0,0.0,0.0,0.0
1666090083576061923,0.0,0.0,0.0,0.0,0.0,0.0
1666090083576077474,0.0,0.0,0.0,0.0,0.0,0.0
1666090083576085890,0.0,0.0,0.0,0.0,0.0,0.0
1666090083620048373,0.0,0.0,0.0,0.0,0.0,0.0
1666090083620058579,0.0,0.0,0.0,0.0,0.0,0.0
1666090083628187766,0.0,0.0,0.0,0.0,0.0,0.0
1666090083648054585,0.0,0.0,0.0,0.0,0.0,0.0
1666090083696044766,0.0,0.0,0.0,0.0,0.0,0.0
1666090083696057557,0.0,0.0,0.0,0.0,0.0,0.0
1666090083744069586,0.0,0.0,0.0,0.0,0.0,0.0
1666090083744079020,0.0,0.0,0.0,0.0,0.0,0.0
1666090083788091030,0.0,0.0,0.0,0.0,0.0,0.0
1666090083788102797,0.0,0.0,0.0,0.0,0.0,0.0
1666090083788115682,0.0,0.0,0.0,0.0,0.0,0.0
1666090083832042455,0.0,0.0,0.0,0.0,0.0,0.0
1666090083832052711,0.0,0.0,0.0,0.0,0.0,0.0
1666090083847951638,0.0,0.0,0.0,0.0,0.0,0.0
1666090083867949371,0.0,0.0,0.0,0.0,0.0,0.0
1666090083908073402,0.0,0.0,0.0,0.0,0.0,0.0
1666090083956146632,0.0,0.0,0.0,0.0,0.0,0.0
1666090083956156694,0.0,0.0,0.0,0.0,0.0,0.0
1666090083956164376,0.0,0.0,0.0,0.0,0.0,0.0
1666090084004051203,0.0,0.0,0.0,0.0,0.0,0.0
1666090084004062985,0.0,0.0,0.0,0.0,0.0,0.0
1666090084007854555,0.0,0.0,0.0,0.0,0.0,0.0
1666090084028100956,0.0,0.0,0.0,0.0,0.0,0.0
1666090084068093386,0.0,0.0,0.0,0.0,0.0,0.0
1666090084068112854,0.0,0.0,0.0,0.0,0.0,0.0
1666090084112129438,0.0,0.0,0.0,0.0,0.0,0.0
1666090084112145596,0.0,0.0,0.0,0.0,0.0,0.0
1666090084156127356,0.0,0.0,0.0,0.0,0.0,0.0
1666090084156145552,0.0,0.0,0.0,0.0,0.0,0.0
1666090084200094068,0.0,0.0,0.0,0.0,0.0,0.0
1666090084200110686,0.0,0.0,0.0,0.0,0.0,0.0
1666090084244106063,0.0,0.0,0.0,0.0,0.0,0.0
1666090084244117544,0.0,0.0,0.0,0.0,0.0,0.0
1666090084288089352,0.0,0.0,0.0,0.0,0.0,0.0
1666090084288108924,0.0,0.0,0.0,0.0,0.0,0.0
1666090084332087320,0.0,0.0,0.0,0.0,0.0,0.0
1666090084332103466,0.0,0.0,0.0,0.0,0.0,0.0
1666090084332115213,0.0,0.0,0.0,0.0,0.0,0.0
1666090084376102368,0.0,0.0,0.0,0.0,0.0,0.0
1666090084376118161,0.0,0.0,0.0,0.0,0.0,0.0
1666090084390985849,0.0,0.0,0.0,0.0,0.0,0.0
1666090084409118244,0.0,0.0,0.0,0.0,0.0,0.0
1666090084452112371,0.0,0.0,0.0,0.0,0.0,0.0
1666090084452131510,0.0,0.0,0.0,0.0,0.0,0.0
1666090084496214808,0.0,0.0,0.0,0.0,0.0,0.0
1666090084496247727,0.0,0.0,0.0,0.0,0.0,0.0
1666090084540066426,0.0,0.0,0.0,0.0,0.0,0.0
1666090084540082123,0.0,0.0,0.0,0.0,0.0,0.0
1666090084584090710,0.0,0.0,0.0,0.0,0.0,0.0
1666090084584104621,0.0,0.0,0.0,0.0,0.0,0.0
1666090084628072626,0.0,0.0,0.0,0.0,0.0,0.0
1666090084628089381,0.0,0.0,0.0,0.0,0.0,0.0
1666090084628103272,0.0,0.0,0.0,0.0,0.0,0.0
1666090084672126375,0.0,0.0,0.0,0.0,0.0,0.0
1666090084672149426,0.0,0.0,0.0,0.0,0.0,0.0
1666090084688949515,0.0,0.0,0.0,0.0,0.0,0.0
1666090084708662936,0.0,0.0,0.0,0.0,0.0,0.0
1666090084752046425,0.0,0.0,0.0,0.0,0.0,0.0
1666090084752058465,0.0,0.0,0.0,0.0,0.0,0.0
1666090084796082299,0.0,0.0,0.0,0.0,0.0,0.0
1666090084796099717,0.0,0.0,0.0,0.0,0.0,0.0
1666090084844078260,0.0,0.0,0.0,0.0,0.0,0.0
1666090084844089621,0.0,0.0,0.0,0.0,0.0,0.0
1666090084888108171,0.0,0.0,0.0,0.0,0.0,0.0
1666090084888119704,0.0,0.0,0.0,0.0,0.0,0.0
1666090084932075334,0.0,0.0,0.0,0.0,0.0,0.0
1666090084932089765,0.0,0.0,0.0,0.0,0.0,0.0
1666090084932106561,0.0,0.0,0.0,0.0,0.0,0.0
1666090084976075024,0.0,0.0,0.0,0.0,0.0,0.0
1666090084976090734,0.0,0.0,0.0,0.0,0.0,0.0
1666090084989298514,0.0,0.0,0.0,0.0,0.0,0.0
1666090085009696853,0.0,0.0,0.0,0.0,0.0,0.0
1666090085056053596,0.0,0.0,0.0,0.0,0.0,0.0
1666090085056066503,0.0,0.0,0.0,0.0,0.0,0.0
1666090085104136950,0.0,0.0,0.0,0.0,0.0,0.0
1666090085104152560,0.0,0.0,0.0,0.0,0.0,0.0
1666090085148117780,0.0,0.0,0.0,0.0,0.0,0.0
1666090085148134633,0.0,0.0,0.0,0.0,0.0,0.0
1666090085192158665,0.0,0.0,0.0,0.0,0.0,0.0
1666090085192192902,0.0,0.0,0.0,0.0,0.0,0.0
1666090085192221685,0.0,0.0,0.0,0.0,0.0,0.0
1666090085236211530,0.0,0.0,0.0,0.0,0.0,0.0
1666090085236224477,0.0,0.0,0.0,0.0,0.0,0.0
1666090085248457316,0.0,0.0,0.0,0.0,0.0,0.0
1666090085268636284,0.0,0.0,0.0,0.0,0.0,0.0
1666090085312080585,0.0,0.0,0.0,0.0,0.0,0.0
1666090085312096101,0.0,0.0,0.0,0.0,0.0,0.0
1666090085356078463,0.0,0.0,0.0,0.0,0.0,0.0
1666090085356085942,0.0,0.0,0.0,0.0,0.0,0.0
1666090085400098707,0.0,0.0,0.0,0.0,0.0,0.0
1666090085400115569,0.0,0.0,0.0,0.0,0.0,0.0
1666090085444060960,0.0,0.0,0.0,0.0,0.0,0.0
1666090085444072524,0.0,0.0,0.0,0.0,0.0,0.0
1666090085488103228,0.0,0.0,0.0,0.0,0.0,0.0
1666090085488117334,0.0,0.0,0.0,0.0,0.0,0.0
1666090085532075202,0.0,0.0,0.0,0.0,0.0,0.0
1666090085532091319,0.0,0.0,0.0,0.0,0.0,0.0
1666090085532101705,0.0,0.0,0.0,0.0,0.0,0.0
1666090085576176820,0.0,0.0,0.0,0.0,0.0,0.0
1666090085576194996,0.0,0.0,0.0,0.0,0.0,0.0
1666090085588381111,0.0,0.0,0.0,0.0,0.0,0.0
1666090085609246491,0.0,0.0,0.0,0.0,0.0,0.0
1666090085652112398,0.0,0.0,0.0,0.0,0.0,0.0
1666090085652131155,0.0,0.0,0.0,0.0,0.0,0.0
1666090085700113610,0.0,0.0,0.0,0.0,0.0,0.0
1666090085700125130,0.0,0.0,0.0,0.0,0.0,0.0
1666090085744082461,0.0,0.0,0.0,0.0,0.0,0.0
1666090085744098255,0.0,0.0,0.0,0.0,0.0,0.0
1666090085788062497,0.0,0.0,0.0,0.0,0.0,0.0
1666090085788073324,0.0,0.0,0.0,0.0,0.0,0.0
1666090085832082633,0.0,0.0,0.0,0.0,0.0,0.0
1666090085832095080,0.0,0.0,0.0,0.0,0.0,0.0
1666090085832103708,0.0,0.0,0.0,0.0,0.0,0.0
1666090085876166941,0.0,0.0,0.0,0.0,0.0,0.0
1666090085876182060,0.0,0.0,0.0,0.0,0.0,0.0
1666090085888880525,0.0,0.0,0.0,0.0,0.0,0.0
1666090085908203446,0.0,0.0,0.0,0.0,0.0,0.0
1666090085952086301,0.0,0.0,0.0,0.0,0.0,0.0
1666090085952109607,0.0,0.0,0.0,0.0,0.0,0.0
1666090085996067649,0.0,0.0,0.0,0.0,0.0,0.0
1666090085996124515,0.0,0.0,0.0,0.0,0.0,0.0
1666090086040396236,0.0,0.0,0.0,0.0,0.0,0.0
1666090086040454880,0.0,0.0,0.0,0.0,0.0,0.0
1666090086084215510,0.0,0.0,0.0,0.0,0.0,0.0
1666090086084241431,0.0,0.0,0.0,0.0,0.0,0.0
1666090086128090639,0.0,0.0,0.0,0.0,0.0,0.0
1666090086128104986,0.0,0.0,0.0,0.0,0.0,0.0
1666090086172124834,0.0,0.0,0.0,0.0,0.0,0.0
1666090086172146446,0.0,0.0,0.0,0.0,0.0,0.0
1666090086172162051,0.0,0.0,0.0,0.0,0.0,0.0
1666090086216111104,0.0,0.0,0.0,0.0,0.0,0.0
1666090086216123841,0.0,0.0,0.0,0.0,0.0,0.0
1666090086230089889,0.0,0.0,0.0,0.0,0.0,0.0
1666090086249312677,0.0,0.0,0.0,0.0,0.0,0.0
1666090086292124505,0.0,0.0,0.0,0.0,0.0,0.0
1666090086292150214,0.0,0.0,0.0,0.0,0.0,0.0
1666090086340058326,0.0,0.0,0.0,0.0,0.0,0.0
1666090086340070460,0.0,0.0,0.0,0.0,0.0,0.0
1666090086384079322,0.0,0.0,0.0,0.0,0.0,0.0
1666090086384092925,0.0,0.0,0.0,0.0,0.0,0.0
1666090086428132697,0.0,0.0,0.0,0.0,0.0,0.0
1666090086428153916,0.0,0.0,0.0,0.0,0.0,0.0
1666090086472117319,0.0,0.0,0.0,0.0,0.0,0.0
1666090086472130898,0.0,0.0,0.0,0.0,0.0,0.0
1666090086472139506,0.0,0.0,0.0,0.0,0.0,0.0
1666090086516081421,0.0,0.0,0.0,0.0,0.0,0.0
1666090086516094380,0.0,0.0,0.0,0.0,0.0,0.0
1666090086530203058,0.0,0.0,0.0,0.0,0.0,0.0
1666090086548926407,0.0,0.0,0.0,0.0,0.0,0.0
1666090086596146291,0.0,0.0,0.0,0.0,0.0,0.0
1666090086596167961,0.0,0.0,0.0,0.0,0.0,0.0
1666090086640550972,0.0,0.0,0.0,0.0,0.0,0.0
1666090086640569390,0.0,0.0,0.0,0.0,0.0,0.0
1666090086688088137,0.0,0.0,0.0,0.0,0.0,0.0
1666090086688098494,0.0,0.0,0.0,0.0,0.0,0.0
1666090086732086101,0.0,0.0,0.0,0.0,0.0,0.0
1666090086732102585,0.0,0.0,0.0,0.0,0.0,0.0
1666090086732111480,0.0,0.0,0.0,0.0,0.0,0.0
1666090086776220601,0.0,0.0,0.0,0.0,0.0,0.0
1666090086776244573,0.0,0.0,0.0,0.0,0.0,0.0
1666090086789088044,0.0,0.0,0.0,0.0,0.0,0.0
1666090086809088486,0.0,0.0,0.0,0.0,0.0,0.0
1666090086852153721,0.0,0.0,0.0,0.0,0.0,0.0
1666090086853249635,0.0,0.0,0.0,0.0,0.0,0.0
1666090086896207994,0.0,0.0,0.0,0.0,0.0,0.0
1666090086896260508,0.0,0.0,0.0,0.0,0.0,0.0
1666090086940129047,0.0,0.0,0.0,0.0,0.0,0.0
1666090086940149317,0.0,0.0,0.0,0.0,0.0,0.0
1666090086984139198,0.0,0.0,0.0,0.0,0.0,0.0
1666090086984159437,0.0,0.0,0.0,0.0,0.0,0.0
1666090087028260655,0.0,0.0,0.0,0.0,0.0,0.0
1666090087028306627,0.0,0.0,0.0,0.0,0.0,0.0
1666090087072251550,0.0,0.0,0.0,0.0,0.0,0.0
1666090087072289874,0.0,0.0,0.0,0.0,0.0,0.0
1666090087072315960,0.0,0.0,0.0,0.0,0.0,0.0
1666090087116104148,0.0,0.0,0.0,0.0,0.0,0.0
1666090087116115666,0.0,0.0,0.0,0.0,0.0,0.0
1666090087130093166,0.0,0.0,0.0,0.0,0.0,0.0
1666090087149801704,0.0,0.0,0.0,0.0,0.0,0.0
1666090087192203561,0.0,0.0,0.0,0.0,0.0,0.0
1666090087192239547,0.0,0.0,0.0,0.0,0.0,0.0
1666090087236136454,0.0,0.0,0.0,0.0,0.0,0.0
1666090087236154707,0.0,0.0,0.0,0.0,0.0,0.0
1666090087280105126,0.0,0.0,0.0,0.0,0.0,0.0
1666090087280126421,0.0,0.0,0.0,0.0,0.0,0.0
1666090087328261427,0.0,0.0,0.0,0.0,0.0,0.0
1666090087328295011,0.0,0.0,0.0,0.0,0.0,0.0
1666090087372147324,0.0,0.0,0.0,0.0,0.0,0.0
1666090087372170494,0.0,0.0,0.0,0.0,0.0,0.0
1666090087372188082,0.0,0.0,0.0,0.0,0.0,0.0
1666090087416085242,0.0,0.0,0.0,0.0,0.0,0.0
1666090087416097814,0.0,0.0,0.0,0.0,0.0,0.0
1666090087430122500,0.0,0.0,0.0,0.0,0.0,0.0
1666090087450766292,0.0,0.0,0.0,0.0,0.0,0.0
1666090087492218933,0.0,0.0,0.0,0.0,0.0,0.0
1666090087492261792,0.0,0.0,0.0,0.0,0.0,0.0
1666090087540093260,0.0,0.0,0.0,0.0,0.0,0.0
1666090087540106497,0.0,0.0,0.0,0.0,0.0,0.0
1666090087584131666,0.0,0.0,0.0,0.0,0.0,0.0
1666090087584148007,0.0,0.0,0.0,0.0,0.0,0.0
1666090087628168089,0.0,0.0,0.0,0.0,0.0,0.0
1666090087628199351,0.0,0.0,0.0,0.0,0.0,0.0
1666090087672455774,0.0,0.0,0.0,0.0,0.0,0.0
1666090087672508908,0.0,0.0,0.0,0.0,0.0,0.0
1666090087673746541,0.0,0.0,0.0,0.0,0.0,0.0
1666090087716240360,0.0,0.0,0.0,0.0,0.0,0.0
1666090087716261054,0.0,0.0,0.0,0.0,0.0,0.0
1666090087730230137,0.0,0.0,0.0,0.0,0.0,0.0
1666090087749704773,0.0,0.0,0.0,0.0,0.0,0.0
1666090087792228778,0.0,0.0,0.0,0.0,0.0,0.0
1666090087792260333,0.0,0.0,0.0,0.0,0.0,0.0
1666090087836168392,0.0,0.0,0.0,0.0,0.0,0.0
1666090087836196470,0.0,0.0,0.0,0.0,0.0,0.0
1666090087880173567,0.0,0.0,0.0,0.0,0.0,0.0
1666090087880193473,0.0,0.0,0.0,0.0,0.0,0.0
1666090087928190810,0.0,0.0,0.0,0.0,0.0,0.0
1666090087928224260,0.0,0.0,0.0,0.0,0.0,0.0
1666090087976160812,0.0,0.0,0.0,0.0,0.0,0.0
1666090087976180448,0.0,0.0,0.0,0.0,0.0,0.0
1666090087976193692,0.0,0.0,0.0,0.0,0.0,0.0
1666090088024112179,0.0,0.0,0.0,0.0,0.0,0.0
1666090088024134219,0.0,0.0,0.0,0.0,0.0,0.0
1666090088030712844,0.0,0.0,0.0,0.0,0.0,0.0
1666090088049413599,0.0,0.0,0.0,0.0,0.0,0.0
1666090088092273929,0.0,0.0,0.0,0.0,0.0,0.0
1666090088092302927,0.0,0.0,0.0,0.0,0.0,0.0
1666090088140171745,0.0,0.0,0.0,0.0,0.0,0.0
1666090088140190183,0.0,0.0,0.0,0.0,0.0,0.0
1666090088184203994,0.0,0.0,0.0,0.0,0.0,0.0
1666090088184222184,0.0,0.0,0.0,0.0,0.0,0.0
1666090088228140979,0.0,0.0,0.0,0.0,0.0,0.0
1666090088228160605,0.0,0.0,0.0,0.0,0.0,0.0
1666090088272123509,0.0,0.0,0.0,0.0,0.0,0.0
1666090088272147239,0.0,0.0,0.0,0.0,0.0,0.0
1666090088272161391,0.0,0.0,0.0,0.0,0.0,0.0
1666090088316105013,0.0,0.0,0.0,0.0,0.0,0.0
1666090088316123278,0.0,0.0,0.0,0.0,0.0,0.0
1666090088331310512,0.0,0.0,0.0,0.0,0.0,0.0
1666090088350739946,0.0,0.0,0.0,0.0,0.0,0.0
1666090088392170345,0.0,0.0,0.0,0.0,0.0,0.0
1666090088392202633,0.0,0.0,0.0,0.0,0.0,0.0
1666090088436123106,0.0,0.0,0.0,0.0,0.0,0.0
1666090088436142789,0.0,0.0,0.0,0.0,0.0,0.0
1666090088480101860,0.0,0.0,0.0,0.0,0.0,0.0
1666090088480118392,0.0,0.0,0.0,0.0,0.0,0.0
1666090088524197624,0.0,0.0,0.0,0.0,0.0,0.0
1666090088524223662,0.0,0.0,0.0,0.0,0.0,0.0
1666090088568113559,0.0,0.0,0.0,0.0,0.0,0.0
1666090088568133269,0.0,0.0,0.0,0.0,0.0,0.0
1666090088612186670,0.0,0.0,0.0,0.0,0.0,0.0
1666090088612205226,0.0,0.0,0.0,0.0,0.0,0.0
1666090088612217725,0.0,0.0,0.0,0.0,0.0,0.0
1666090088656269523,0.0,0.0,0.0,0.0,0.0,0.0
1666090088656300384,0.0,0.0,0.0,0.0,0.0,0.0
1666090088671288891,0.0,0.0,0.0,0.0,0.0,0.0
1666090088690916367,0.0,0.0,0.0,0.0,0.0,0.0
1666090088732292115,0.0,0.0,0.0,0.0,0.0,0.0
1666090088732345816,0.0,0.0,0.0,0.0,0.0,0.0
1666090088780467964,0.0,0.0,0.0,0.0,0.0,0.0
1666090088780509791,0.0,0.0,0.0,0.0,0.0,0.0
1666090088824963894,0.0,0.0,0.0,0.0,0.0,0.0
1666090088825062859,0.0,0.0,0.0,0.0,0.0,0.0
1666090088870289986,0.0,0.0,0.0,0.0,0.0,0.0
1666090088873867395,0.0,0.0,0.0,0.0,0.0,0.0
1666090088916250442,0.0,0.0,0.0,0.0,0.0,0.0
1666090088916284086,0.0,0.0,0.0,0.0,0.0,0.0
1666090088916295270,0.0,0.0,0.0,0.0,0.0,0.0
1666090088964373716,0.0,0.0,0.0,0.0,0.0,0.0
1666090088964402132,0.0,0.0,0.0,0.0,0.0,0.0
1666090088971364073,0.0,0.0,0.0,0.0,0.0,0.0
1666090088992292405,0.0,0.0,0.0,0.0,0.0,0.0
1666090089036231187,0.0,0.0,0.0,0.0,0.0,0.0
1666090089036266112,0.0,0.0,0.0,0.0,0.0,0.0
1666090089084180140,0.0,0.0,0.0,0.0,0.0,0.0
1666090089084210060,0.0,0.0,0.0,0.0,0.0,0.0
1666090089128120592,0.0,0.0,0.0,0.0,0.0,0.0
1666090089128135136,0.0,0.0,0.0,0.0,0.0,0.0
1666090089172140715,0.0,0.0,0.0,0.0,0.0,0.0
1666090089172160944,0.0,0.0,0.0,0.0,0.0,0.0
1666090089172170592,0.0,0.0,0.0,0.0,0.0,0.0
1666090089216076959,0.0,0.0,0.0,0.0,0.0,0.0
1666090089216095566,0.0,0.0,0.0,0.0,0.0,0.0
1666090089231436321,0.0,0.0,0.0,0.0,0.0,0.0
1666090089250210446,0.0,0.0,0.0,0.0,0.0,0.0
1666090089292371138,0.0,0.0,0.0,0.0,0.0,0.0
1666090089292423455,0.0,0.0,0.0,0.0,0.0,0.0
1666090089336314245,0.0,0.0,0.0,0.0,0.0,0.0
1666090089336345216,0.0,0.0,0.0,0.0,0.0,0.0
1666090089380051472,0.0,0.0,0.0,0.0,0.0,0.0
1666090089380064964,0.0,0.0,0.0,0.0,0.0,0.0
1666090089424136200,0.0,0.0,0.0,0.0,0.0,0.0
1666090089424154156,0.0,0.0,0.0,0.0,0.0,0.0
1666090089468225330,0.0,0.0,0.0,0.0,0.0,0.0
1666090089468256135,0.0,0.0,0.0,0.0,0.0,0.0
1666090089512087575,0.0,0.0,0.0,0.0,0.0,0.0
1666090089512102385,0.0,0.0,0.0,0.0,0.0,0.0
1666090089512113708,0.0,0.0,0.0,0.0,0.0,0.0
1666090089556105783,0.0,0.0,0.0,0.0,0.0,0.0
1666090089556120722,0.0,0.0,0.0,0.0,0.0,0.0
1666090089571208305,0.0,0.0,0.0,0.0,0.0,0.0
1666090089591163278,0.0,0.0,0.0,0.0,0.0,0.0
1666090089632400872,0.0,0.0,0.0,0.0,0.0,0.0
1666090089632440067,0.0,0.0,0.0,0.0,0.0,0.0
1666090089680090331,0.0,0.0,0.0,0.0,0.0,0.0
1666090089680108111,0.0,0.0,0.0,0.0,0.0,0.0
1666090089724090879,0.0,0.0,0.0,0.0,0.0,0.0
1666090089724106839,0.0,0.0,0.0,0.0,0.0,0.0
1666090089768114861,0.0,0.0,0.0,0.0,0.0,0.0
1666090089768131601,0.0,0.0,0.0,0.0,0.0,0.0
1666090089812132512,0.0,0.0,0.0,0.0,0.0,0.0
1666090089812147388,0.0,0.0,0.0,0.0,0.0,0.0
1666090089812155619,0.0,0.0,0.0,0.0,0.0,0.0
1666090089856078751,0.0,0.0,0.0,0.0,0.0,0.0
1666090089856094573,0.0,0.0,0.0,0.0,0.0,0.0
1666090089871354080,0.0,0.0,0.0,0.0,0.0,0.0
1666090089891092672,0.0,0.0,0.0,0.0,0.0,0.0
1666090089932255951,0.0,0.0,0.0,0.0,0.0,0.0
1666090089932298861,0.0,0.0,0.0,0.0,0.0,0.0
1666090089976090890,0.0,0.0,0.0,0.0,0.0,0.0
1666090089976113777,0.0,0.0,0.0,0.0,0.0,0.0
1666090090020121551,0.0,0.0,0.0,0.0,0.0,0.0
1666090090020148143,0.0,0.0,0.0,0.0,0.0,0.0
1666090090064321193,0.0,0.0,0.0,0.0,0.0,0.0
1666090090064361275,0.0,0.0,0.0,0.0,0.0,0.0
1666090090108157945,0.0,0.0,0.0,0.0,0.0,0.0
1666090090108177734,0.0,0.0,0.0,0.0,0.0,0.0
1666090090152138659,0.0,0.0,0.0,0.0,0.0,0.0
1666090090152151621,0.0,0.0,0.0,0.0,0.0,0.0
1666090090152157612,0.0,0.0,0.0,0.0,0.0,0.0
1666090090200212657,0.0,0.0,0.0,0.0,0.0,0.0
1666090090200238645,0.0,0.0,0.0,0.0,0.0,0.0
1666090090211876621,0.0,0.0,0.0,0.0,0.0,0.0
1666090090231081080,0.0,0.0,0.0,0.0,0.0,0.0
1666090090272409638,0.0,0.0,0.0,0.0,0.0,0.0
1666090090272449244,0.0,0.0,0.0,0.0,0.0,0.0
1666090090316117209,0.0,0.0,0.0,0.0,0.0,0.0
1666090090316129493,0.0,0.0,0.0,0.0,0.0,0.0
1666090090360162716,0.0,0.0,0.0,0.0,0.0,0.0
1666090090360185735,0.0,0.0,0.0,0.0,0.0,0.0
1666090090408095371,0.0,0.0,0.0,0.0,0.0,0.0
1666090090408106996,0.0,0.0,0.0,0.0,0.0,0.0
1666090090456120336,0.0,0.0,0.0,0.0,0.0,0.0
1666090090456136748,0.0,0.0,0.0,0.0,0.0,0.0
1666090090460012939,0.0,0.0,0.0,0.0,0.0,0.0
1666090090504166528,0.0,0.0,0.0,0.0,0.0,0.0
1666090090504178548,0.0,0.0,0.0,0.0,0.0,0.0
1666090090511843621,0.0,0.0,0.0,0.0,0.0,0.0
1666090090532345533,0.0,0.0,0.0,0.0,0.0,0.0
1666090090576067722,0.0,0.0,0.0,0.0,0.0,0.0
1666090090576078862,0.0,0.0,0.0,0.0,0.0,0.0
1666090090620085332,0.0,0.0,0.0,0.0,0.0,0.0
1666090090620100834,0.0,0.0,0.0,0.0,0.0,0.0
1666090090664222712,0.0,0.0,0.0,0.0,0.0,0.0
1666090090664250414,0.0,0.0,0.0,0.0,0.0,0.0
1666090090712050535,0.0,0.0,0.0,0.0,0.0,0.0
1666090090712062118,0.0,0.0,0.0,0.0,0.0,0.0
1666090090712068365,0.0,0.0,0.0,0.0,0.0,0.0
1666090090756155506,0.0,0.0,0.0,0.0,0.0,0.0
1666090090756171221,0.0,0.0,0.0,0.0,0.0,0.0
1666090090771509787,0.0,0.0,0.0,0.0,0.0,0.0
1666090090791762195,0.0,0.0,0.0,0.0,0.0,0.0
1666090090836092954,0.0,0.0,0.0,0.0,0.0,0.0
1666090090836107119,0.0,0.0,0.0,0.0,0.0,0.0
1666090090880090535,0.0,0.0,0.0,0.0,0.0,0.0
1666090090880113472,0.0,0.0,0.0,0.0,0.0,0.0
1666090090924645925,0.0,0.0,0.0,0.0,0.0,0.0
1666090090924661034,0.0,0.0,0.0,0.0,0.0,0.0
1666090090968537849,0.0,0.0,0.0,0.0,0.0,0.0
1666090090968577143,0.0,0.0,0.0,0.0,0.0,0.0
1666090091012158438,0.0,0.0,0.0,0.0,0.0,0.0
1666090091012180678,0.0,0.0,0.0,0.0,0.0,0.0
1666090091012193462,0.0,0.0,0.0,0.0,0.0,0.0
1666090091056288015,0.0,0.0,0.0,0.0,0.0,0.0
1666090091056312189,0.0,0.0,0.0,0.0,0.0,0.0
1666090091072004592,0.0,0.0,0.0,0.0,0.0,0.0
1666090091091874017,0.0,0.0,0.0,0.0,0.0,0.0
1666090091132205139,0.0,0.0,0.0,0.0,0.0,0.0
1666090091176218233,0.0,0.0,0.0,0.0,0.0,0.0
1666090091176251227,0.0,0.0,0.0,0.0,0.0,0.0
1666090091176260295,0.0,0.0,0.0,0.0,0.0,0.0
1666090091220224890,0.0,0.0,0.0,0.0,0.0,0.0
1666090091220241644,0.0,0.0,0.0,0.0,0.0,0.0
1666090091232172822,0.0,0.0,0.0,0.0,0.0,0.0
1666090091251322140,0.0,0.0,0.0,0.0,0.0,0.0
1666090091292167490,0.0,0.0,0.0,0.0,0.0,0.0
1666090091336324767,0.0,0.0,0.0,0.0,0.0,0.0
1666090091336364346,0.0,0.0,0.0,0.0,0.0,0.0
1666090091336383310,0.0,0.0,0.0,0.0,0.0,0.0
1666090091380123569,0.0,0.0,0.0,0.0,0.0,0.0
1666090091380140978,0.0,0.0,0.0,0.0,0.0,0.0
1666090091391480248,0.0,0.0,0.0,0.0,0.0,0.0
1666090091411141601,0.0,0.0,0.0,0.0,0.0,0.0
1666090091456692093,0.0,0.0,0.0,0.0,0.0,0.0
1666090091456711828,0.0,0.0,0.0,0.0,0.0,0.0
1666090091500168351,0.0,0.0,0.0,0.0,0.0,0.0
1666090091500191173,0.0,0.0,0.0,0.0,0.0,0.0
1666090091544223722,0.0,0.0,0.0,0.0,0.0,0.0
1666090091544244674,0.0,0.0,0.0,0.0,0.0,0.0
1666090091588177067,0.0,0.0,0.0,0.0,0.0,0.0
1666090091588202741,0.0,0.0,0.0,0.0,0.0,0.0
1666090091632288869,0.0,0.0,0.0,0.0,0.0,0.0
1666090091632326578,0.0,0.0,0.0,0.0,0.0,0.0
1666090091676220706,0.0,0.0,0.0,0.0,0.0,0.0
1666090091676243520,0.0,0.0,0.0,0.0,0.0,0.0
1666090091676256690,0.0,0.0,0.0,0.0,0.0,0.0
1666090091720042847,0.0,0.0,0.0,0.0,0.0,0.0
1666090091720056670,0.0,0.0,0.0,0.0,0.0,0.0
1666090091732763383,0.0,0.0,0.0,0.0,0.0,0.0
1666090091752638885,0.0,0.0,0.0,0.0,0.0,0.0
1666090091796185619,0.0,0.0,0.0,0.0,0.0,0.0
1666090091796215046,0.0,0.0,0.0,0.0,0.0,0.0
1666090091840248060,0.0,0.0,0.0,0.0,0.0,0.0
1666090091840286467,0.0,0.0,0.0,0.0,0.0,0.0
1666090091884329916,0.0,0.0,0.0,0.0,0.0,0.0
1666090091884427967,0.0,0.0,0.0,0.0,0.0,0.0
1666090091928061288,0.0,0.0,0.0,0.0,0.0,0.0
1666090091928076413,0.0,0.0,0.0,0.0,0.0,0.0
1666090091972246890,0.0,0.0,0.0,0.0,0.0,0.0
1666090091972282263,0.0,0.0,0.0,0.0,0.0,0.0
1666090092016149312,0.0,0.0,0.0,0.0,0.0,0.0
1666090092016176862,0.0,0.0,0.0,0.0,0.0,0.0
1666090092016191176,0.0,0.0,0.0,0.0,0.0,0.0
1666090092060080680,0.0,0.0,0.0,0.0,0.0,0.0
1666090092060091482,0.0,0.0,0.0,0.0,0.0,0.0
1666090092072784548,0.0,0.0,0.0,0.0,0.0,0.0
1666090092092482528,0.0,0.0,0.0,0.0,0.0,0.0
1666090092140234306,0.0,0.0,0.0,0.0,0.0,0.0
1666090092140252714,0.0,0.0,0.0,0.0,0.0,0.0
1666090092188935121,0.0,0.0,0.0,0.0,0.0,0.0
1666090092188966702,0.0,0.0,0.0,0.0,0.0,0.0
1666090092236203396,0.0,0.0,0.0,0.0,0.0,0.0
1666090092236248528,0.0,0.0,0.0,0.0,0.0,0.0
1666090092236272990,0.0,0.0,0.0,0.0,0.0,0.0
1666090092284096140,0.0,0.0,0.0,0.0,0.0,0.0
1666090092284114493,0.0,0.0,0.0,0.0,0.0,0.0
1666090092292340236,0.0,0.0,0.0,0.0,0.0,0.0
1666090092312205999,0.0,0.0,0.0,0.0,0.0,0.0
1666090092356158808,0.0,0.0,0.0,0.0,0.0,0.0
1666090092356185254,0.0,0.0,0.0,0.0,0.0,0.0
1666090092404127478,0.0,0.0,0.0,0.0,0.0,0.0
1666090092404159779,0.0,0.0,0.0,0.0,0.0,0.0
1666090092448151505,0.0,0.0,0.0,0.0,0.0,0.0
1666090092448173673,0.0,0.0,0.0,0.0,0.0,0.0
1666090092492180686,0.0,0.0,0.0,0.0,0.0,0.0
1666090092492208572,0.0,0.0,0.0,0.0,0.0,0.0
1666090092536192205,0.0,0.0,0.0,0.0,0.0,0.0
1666090092536228131,0.0,0.0,0.0,0.0,0.0,0.0
1666090092536274181,0.0,0.0,0.0,0.0,0.0,0.0
1666090092580126123,0.0,0.0,0.0,0.0,0.0,0.0
1666090092580139758,0.0,0.0,0.0,0.0,0.0,0.0
1666090092592229473,0.0,0.0,0.0,0.0,0.0,0.0
1666090092612014688,0.0,0.0,0.0,0.0,0.0,0.0
1666090092656292645,0.0,0.0,0.0,0.0,0.0,0.0
1666090092656316164,0.0,0.0,0.0,0.0,0.0,0.0
1666090092704442622,0.0,0.0,0.0,0.0,0.0,0.0
1666090092704479551,0.0,0.0,0.0,0.0,0.0,0.0
1666090092749733693,0.0,0.0,0.0,0.0,0.0,0.0
1666090092749804306,0.0,0.0,0.0,0.0,0.0,0.0
1666090092792095633,0.0,0.0,0.0,0.0,0.0,0.0
1666090092792107127,0.0,0.0,0.0,0.0,0.0,0.0
1666090092836264631,0.0,0.0,0.0,0.0,0.0,0.0
1666090092836286411,0.0,0.0,0.0,0.0,0.0,0.0
1666090092836324781,0.0,0.0,0.0,0.0,0.0,0.0
1666090092880386633,0.0,0.0,0.0,0.0,0.0,0.0
1666090092880432501,0.0,0.0,0.0,0.0,0.0,0.0
1666090092893030194,0.0,0.0,0.0,0.0,0.0,0.0
1666090092913175896,0.0,0.0,0.0,0.0,0.0,0.0
1666090092956180697,0.0,0.0,0.0,0.0,0.0,0.0
1666090092956195616,0.0,0.0,0.0,0.0,0.0,0.0
1666090093000727950,0.0,0.0,0.0,0.0,0.0,0.0
1666090093000776575,0.0,0.0,0.0,0.0,0.0,0.0
1666090093044185132,0.0,0.0,0.0,0.0,0.0,0.0
1666090093044217180,0.0,0.0,0.0,0.0,0.0,0.0
1666090093092389606,0.0,0.0,0.0,0.0,0.0,0.0
1666090093092443921,0.0,0.0,0.0,0.0,0.0,0.0
1666090093140142394,0.0,0.0,0.0,0.0,0.0,0.0
1666090093140171405,0.0,0.0,0.0,0.0,0.0,0.0
1666090093140188171,0.0,0.0,0.0,0.0,0.0,0.0
1666090093188235845,0.0,0.0,0.0,0.0,0.0,0.0
1666090093188284914,0.0,0.0,0.0,0.0,0.0,0.0
1666090093192682312,0.0,0.0,0.0,0.0,0.0,-0.0019198621771937623
1666090093212912015,0.0,0.0,0.0,0.0,0.0,-0.0031415926535897933
1666090093256070473,0.0,0.0,0.0,0.0,0.0,0.0
1666090093256080818,0.0,0.0,0.0,0.0,0.0,0.0017453292519943296
1666090093304832009,0.0,0.0,0.0,0.0,0.0,0.0
1666090093304882909,0.0,0.0,0.0,0.0,0.0,-0.0010471975511965976
1666090093352085269,0.02345532429171726,0.0,0.0,0.0,0.0,0.0027925268031909274
1666090093352107186,0.021323022083379328,0.0,0.0,0.0,0.0,0.0012217304763960308
1666090093400148178,0.008529208833351731,0.0,0.0,0.0,0.0,-0.00034906585039886593
1666090093400168915,0.014926115458365532,0.0,0.0,0.0,0.0,-0.00017453292519943296
1666090093400177115,0.017058417666703463,0.0,0.0,0.0,0.0,-0.0022689280275926286
1666090093448103634,0.042646044166758657,0.0,0.0,0.0,0.0,-0.0022689280275926286
1666090093448124823,0.029852230916731063,0.0,0.0,0.0,0.0,0.0
1666090093452739086,0.03198453312506899,0.0,0.0,0.0,0.0,-0.0054105206811824215
1666090093477206259,0.04051374195842073,0.0,0.0,0.0,0.0,-0.02600540585471551
1666090093516045009,0.04691064858343452,0.0,0.0,0.0,0.0,-0.02548180707911721
1666090093516055156,0.059704461833462126,0.0,0.0,0.0,0.0,-0.012566370614359173
1666090093565374494,0.059704461833462126,0.0,0.0,0.0,0.0,-0.0143116998663535
1666090093565418456,0.05543985741678625,0.0,0.0,0.0,0.0,-0.029845130209103034
1666090093612188519,0.07676287950016558,0.0,0.0,0.0,0.0,-0.047123889803846894
1666090093612225317,0.08102748391684146,0.0,0.0,0.0,0.0,-0.038571776469074684
1666090093660159487,0.09382129716686904,0.0,0.0,0.0,0.0,-0.032812189937493394
1666090093660182748,0.09168899495853111,0.0,0.0,0.0,0.0,-0.05009094953223726
1666090093660194176,0.08742439054185526,0.0,0.0,0.0,0.0,-0.06527531402458793
1666090093708201827,0.10448280820855872,0.0,0.0,0.0,0.0,-0.07766715171374766
1666090093708232897,0.12154122587526218,0.0,0.0,0.0,0.0,-0.09442231253289324
1666090093713697040,0.12580583029193804,0.0,0.0,0.0,0.0,-0.10559241974565695
1666090093733705217,0.11727662145858632,0.0,0.0,0.0,0.0,-0.11728612573401893
1666090093776117155,0.11940892366692425,0.0,0.0,0.0,0.0,-0.14416419621473162
1666090093776130787,0.1364673413336277,0.0,0.0,0.0,0.0,-0.16336281798666924
1666090093820258233,0.1300704347086139,0.0,0.0,0.0,0.0,-0.143116998663535
1666090093820294445,0.15139345679199323,0.0,0.0,0.0,0.0,-0.14241886696273728
1666090093864109051,0.1364673413336277,0.0,0.0,0.0,0.0,-0.19320794819577228
1666090093864120963,0.1407319457503036,0.0,0.0,0.0,0.0,-0.22043508452688382
1666090093908105974,0.16205496783368292,0.0,0.0,0.0,0.0,-0.23352505391684128
1666090093908121278,0.1492611545836553,0.0,0.0,0.0,0.0,-0.23300145514124296
1666090093952558094,0.1684518744586967,0.0,0.0,0.0,0.0,-0.24155356847601522
1666090093952615400,0.15139345679199323,0.0,0.0,0.0,0.0,-0.2991494337918281
1666090093996156287,0.1684518744586967,0.0,0.0,0.0,0.0,-0.3125884690321844
1666090093996179760,0.18124568770872432,0.0,0.0,0.0,0.0,-0.3300417615521277
1666090093996191243,0.18337798991706222,0.0,0.0,0.0,0.0,-0.3633775502652194
1666090094040107833,0.17911338550038639,0.0,0.0,0.0,0.0,-0.3726277953007894
1666090094040131612,0.18977489654207602,0.0,0.0,0.0,0.0,-0.43580871422298406
1666090094053762034,0.19190719875041395,0.0,0.0,0.0,0.0,-0.44558255803415237
1666090094074469389,0.20896561641711744,0.0,0.0,0.0,0.0,-0.4572762640225143
1666090094116097638,0.20256870979210362,0.0,0.0,0.0,0.0,-0.47752208334564855
1666090094116145937,0.20896561641711744,0.0,0.0,0.0,0.0,-0.5113814708343386
1666090094160142836,0.221759429667145,0.0,0.0,0.0,0.0,-0.543844594921433
1666090094160163761,0.21749482525046915,0.0,0.0,0.0,0.0,-0.5471607205002224
1666090094204624340,0.22815633629215884,0.0,0.0,0.0,0.0,-0.5497787143782138
1666090094204669652,0.23242094070883468,0.0,0.0,0.0,0.0,-0.5314527572322733
1666090094248233335,0.2409501495421864,0.0,0.0,0.0,0.0,-0.5302310267558773
1666090094248261831,0.23668554512551054,0.0,0.0,0.0,0.0,-0.5511749777798092
1666090094292771116,0.2409501495421864,0.0,0.0,0.0,0.0,-0.5693264020005502
1666090094292882669,0.24521475395886227,0.0,0.0,0.0,0.0,-0.5801474433629151
1666090094336168526,0.25800856720888987,0.0,0.0,0.0,0.0,-0.5768313177841259
1666090094336186571,0.26653777604224166,0.0,0.0,0.0,0.0,-0.6110397711232147
1666090094336201720,0.2601408694172278,0.0,0.0,0.0,0.0,-0.6403613025567195
1666090094380241796,0.2622731716255658,0.0,0.0,0.0,0.0,-0.6445500927615059
1666090094380288884,0.2814638915006072,0.0,0.0,0.0,0.0,-0.6670648401122328
1666090094393525919,0.28359619370894507,0.0,0.0,0.0,0.0,-0.6682865705886287
1666090094414493639,0.28786079812562093,0.0,0.0,0.0,0.0,-0.6738716241950107
1666090094460134198,0.28999310033395886,0.0,0.0,0.0,0.0,-0.7182029871956666
1666090094460155677,0.2814638915006072,0.0,0.0,0.0,0.0,-0.7567747636647413
1666090094504104982,0.2921254025422968,0.0,0.0,0.0,0.0,-0.7592182246175333
1666090094504126816,0.30918382020900026,0.0,0.0,0.0,0.0,-0.7881906902006393
1666090094548152302,0.2963900069589727,0.0,0.0,0.0,0.0,-0.8124507668033603
1666090094548172032,0.29425770475063473,0.0,0.0,0.0,0.0,-0.8292059276225059
1666090094592126911,0.2985223091673106,0.0,0.0,0.0,0.0,-0.8243190057169217
1666090094592143761,0.20470101200044158,0.0,0.0,0.0,0.0,-0.8119271680277622
1666090094636373786,0.1407319457503036,0.0,0.0,0.0,0.0,-0.80948370707497
1666090094636423139,0.20256870979210362,0.0,0.0,0.0,0.0,-0.8079129107481751
1666090094636436963,0.2388178473338485,0.0,0.0,0.0,0.0,-0.8059930485709813
1666090094680259108,0.22815633629215884,0.0,0.0,0.0,0.0,-0.8133234314293576
1666090094680291327,0.1876425943337381,0.0,0.0,0.0,0.0,-0.7974409352362091
1666090094694174889,0.17271647887537256,0.0,0.0,0.0,0.0,-0.774402589109884
1666090094714348829,0.05330755520844832,0.0,0.0,0.0,0.0,-0.767072206251508
1666090094756105469,0.07889518170850353,0.0,0.0,0.0,0.0,-0.7194247176720626
1666090094756123130,0.10235050600022079,0.0,0.0,0.0,0.0,-0.6656685767106373
1666090094800270019,0.051175253000110395,0.0,0.0,0.0,0.0,-0.5982988675836562
1666090094800295235,0.008529208833351731,0.0,0.0,0.0,0.0,-0.5616469532917753
1666090094844169040,0.010661511041689664,0.0,0.0,0.0,0.0,-0.5965535383316618
1666090094844190759,0.019190719875041395,0.0,0.0,0.0,0.0,-0.5796238445873169
1666090094888134136,0.029852230916731063,0.0,0.0,0.0,0.0,-0.48520153205442357
1666090094888151514,0.010661511041689664,0.0,0.0,0.0,0.0,-0.41905355340383854
1666090094936669766,-0.008529208833351731,0.0,0.0,0.0,0.0,-0.404741853537485
1666090094936727302,-0.006396906625013799,0.0,0.0,0.0,0.0,-0.3972369377539094
1666090094936850315,0.014926115458365532,0.0,0.0,0.0,0.0,-0.35482543693044716
1666090094980130312,0.0,0.0,0.0,0.0,0.0,-0.26267205242514663
1666090094980148607,-0.006396906625013799,0.0,0.0,0.0,0.0,-0.24452062820440557
1666090094993832967,-0.006396906625013799,0.0,0.0,0.0,0.0,-0.25621433419276757
1666090095014459281,-0.002132302208337933,0.0,0.0,0.0,0.0,-0.25028021473598683
1666090095056100789,-0.010661511041689664,0.0,0.0,0.0,0.0,-0.2193878869756872
1666090095056116910,-0.008529208833351731,0.0,0.0,0.0,0.0,-0.1876228945893904
1666090095104427346,0.002132302208337933,0.0,0.0,0.0,0.0,-0.17819811662862106
1666090095104530068,0.017058417666703463,0.0,0.0,0.0,0.0,-0.18430676901060122
1666090095152100264,0.012793813250027599,0.0,0.0,0.0,0.0,-0.18029251173101427
1666090095152124363,0.006396906625013799,0.0,0.0,0.0,0.0,-0.16615534478986016
1666090095196109440,0.017058417666703463,0.0,0.0,0.0,0.0,-0.15707963267948966
1666090095196154961,0.019190719875041395,0.0,0.0,0.0,0.0,-0.16231562043547265
1666090095196166759,0.008529208833351731,0.0,0.0,0.0,0.0,-0.1499237827463129
1666090095244762057,-0.006396906625013799,0.0,0.0,0.0,0.0,-0.13177235852557187
1666090095244819906,0.006396906625013799,0.0,0.0,0.0,0.0,-0.12985249634837814
1666090095256045887,0.021323022083379328,0.0,0.0,0.0,0.0,-0.12356931104119852
1666090095275696496,0.014926115458365532,0.0,0.0,0.0,0.0,-0.13002702927357757
1666090095316135853,0.010661511041689664,0.0,0.0,0.0,0.0,-0.13718287920675432
1666090095316156466,0.019190719875041395,0.0,0.0,0.0,0.0,-0.14556045961632708
1666090095360113889,0.021323022083379328,0.0,0.0,0.0,0.0,-0.1467821900927231
1666090095360137869,0.02345532429171726,0.0,0.0,0.0,0.0,-0.1361356816555577
1666090095404366463,0.025587626500055197,0.0,0.0,0.0,0.0,-0.14102260356114182
1666090095404393884,0.025587626500055197,0.0,0.0,0.0,0.0,-0.15603243512829304
1666090095448268142,0.03838143975008279,0.0,0.0,0.0,0.0,-0.1726130630222392
1666090095448336549,0.04051374195842073,0.0,0.0,0.0,0.0,-0.17174039839624203
1666090095492117832,0.04051374195842073,0.0,0.0,0.0,0.0,-0.18046704465621366
1666090095492146494,0.051175253000110395,0.0,0.0,0.0,0.0,-0.20350539078253885
1666090095536598913,0.059704461833462126,0.0,0.0,0.0,0.0,-0.21694442602289515
1666090095536660363,0.06823367066681385,0.0,0.0,0.0,0.0,-0.21519909677090085
1666090095580223674,0.06396906625013798,0.0,0.0,0.0,0.0,-0.21450096507010308
1666090095580244452,0.06183676404180006,0.0,0.0,0.0,0.0,-0.2214822820780804
1666090095580258918,0.07676287950016558,0.0,0.0,0.0,0.0,-0.22375121010567306
1666090095624073985,0.08315978612517938,0.0,0.0,0.0,0.0,-0.21519909677090085
1666090095624090002,0.08102748391684146,0.0,0.0,0.0,0.0,-0.204378055408536
1666090095634026866,0.07463057729182765,0.0,0.0,0.0,0.0,-0.1881464933649887
1666090095654486471,0.08955669275019319,0.0,0.0,0.0,0.0,-0.17174039839624203
1666090095696134396,0.1108797148335725,0.0,0.0,0.0,0.0,-0.17348572764823633
1666090095696152513,0.10021820379188286,0.0,0.0,0.0,0.0,-0.1609193570338772
1666090095746770082,0.10874741262523457,0.0,0.0,0.0,0.0,-0.12967796342317867
1666090095746802420,0.10874741262523457,0.0,0.0,0.0,0.0,-0.13281955607676849
1666090095784479223,0.11940892366692425,0.0,0.0,0.0,0.0,-0.15865042900628457
1666090095784515501,0.12580583029193804,0.0,0.0,0.0,0.0,-0.16406094968746698
1666090095828651179,0.12367352808360012,0.0,0.0,0.0,0.0,-0.14695672301792254
1666090095828814610,0.1407319457503036,0.0,0.0,0.0,0.0,-0.154810704651897
1666090095872243616,0.1407319457503036,0.0,0.0,0.0,0.0,-0.1520181778487061
1666090095872293996,0.14286424795864153,0.0,0.0,0.0,0.0,-0.1473057888683214
1666090095916079407,0.1556580612086691,0.0,0.0,0.0,0.0,-0.1446877949903299
1666090095916092784,0.15352575900033116,0.0,0.0,0.0,0.0,-0.12950343049797924
1666090095916103365,0.17271647887537256,0.0,0.0,0.0,0.0,-0.12130038301360589
1666090095960473889,0.17058417666703463,0.0,0.0,0.0,0.0,-0.11711159280881951
1666090095960539146,0.16631957225035876,0.0,0.0,0.0,0.0,-0.10175269539126942
1666090095975733468,0.17698108329204845,0.0,0.0,0.0,0.0,-0.08726646259971647
1666090095995013874,0.18124568770872432,0.0,0.0,0.0,0.0,-0.09616764178488756
1666090096040273719,0.2004364075837657,0.0,0.0,0.0,0.0,-0.07120943348136864
1666090096040313932,0.1876425943337381,0.0,0.0,0.0,0.0,-0.07330382858376185
1666090096084222051,0.20256870979210362,0.0,0.0,0.0,0.0,-0.08360127117052839
1666090096084253456,0.20683331420877948,0.0,0.0,0.0,0.0,-0.08133234314293576
1666090096132213697,0.20470101200044158,0.0,0.0,0.0,0.0,-0.08325220532012952
1666090096132241207,0.21536252304213124,0.0,0.0,0.0,0.0,-0.0671951762017817
1666090096176242799,0.21749482525046915,0.0,0.0,0.0,0.0,-0.053407075111026485
1666090096176312881,0.21323022083379328,0.0,0.0,0.0,0.0,-0.04939281783143952
1666090096176322780,0.23028863850049677,0.0,0.0,0.0,0.0,-0.06370451769779302
1666090096224127698,0.23242094070883468,0.0,0.0,0.0,0.0,-0.03979350694547071
1666090096224157242,0.2409501495421864,0.0,0.0,0.0,0.0,-0.03316125578789226
1666090096235852234,0.24308245175052437,0.0,0.0,0.0,0.0,-0.03892084231947355
1666090096254941927,0.24521475395886227,0.0,0.0,0.0,0.0,-0.042411500823462206
1666090096300491693,0.25800856720888987,0.0,0.0,0.0,0.0,-0.04799655442984406
1666090096300541185,0.2622731716255658,0.0,0.0,0.0,0.0,-0.03892084231947355
1666090096348240206,0.2729346826672554,0.0,0.0,0.0,0.0,-0.032463124087094536
1666090096348272365,0.2729346826672554,0.0,0.0,0.0,0.0,-0.04014257279586957
1666090096392109929,0.26653777604224166,0.0,0.0,0.0,0.0,-0.045029494701453704
1666090096392131409,0.2771992870839313,0.0,0.0,0.0,0.0,-0.053930673886624786
1666090096436584221,0.28786079812562093,0.0,0.0,0.0,0.0,-0.06370451769779302
1666090096436663758,0.2985223091673106,0.0,0.0,0.0,0.0,-0.060039326268604934
1666090096436699050,0.2963900069589727,0.0,0.0,0.0,0.0,-0.05515240436302082
1666090096481747136,0.29425770475063473,0.0,0.0,0.0,0.0,-0.061959188445798695
1666090096481761712,0.3006546113756486,0.0,0.0,0.0,0.0,-0.08377580409572781
1666090096495500325,0.3134484246256761,0.0,0.0,0.0,0.0,-0.06911503837897545
1666090096515761985,0.3347714467090555,0.0,0.0,0.0,0.0,-0.06370451769779302
1666090096556260988,0.3262422378757037,0.0,0.0,0.0,0.0,-0.06283185307179587
1666090096556297307,0.32410993566736584,0.0,0.0,0.0,0.0,-0.07400196028455958
1666090096600423939,0.32837454008404166,0.0,0.0,0.0,0.0,-0.08115781021773633
1666090096600490683,0.3369037489173934,0.0,0.0,0.0,0.0,-0.07644542123735164
1666090096644179196,0.2921254025422968,0.0,0.0,0.0,0.0,-0.07801621756414652
1666090096644214505,0.2814638915006072,0.0,0.0,0.0,0.0,-0.0671951762017817
1666090096688326307,0.30278691358398646,0.0,0.0,0.0,0.0,-0.04939281783143952
1666090096688355171,0.3347714467090555,0.0,0.0,0.0,0.0,-0.01832595714594046
1666090096732351134,0.3134484246256761,0.0,0.0,0.0,0.0,-0.010995574287564275
1666090096732382006,0.3070515180006623,0.0,0.0,0.0,0.0,-0.023212879051524585
1666090096776586340,0.32197763345902786,0.0,0.0,0.0,0.0,-0.01902408884673819
1666090096776637857,0.3369037489173934,0.0,0.0,0.0,0.0,-0.012217304763960306
1666090096776666480,0.3390360511257314,0.0,0.0,0.0,0.0,-0.009250245035569947
1666090096820157081,0.3347714467090555,0.0,0.0,0.0,0.0,-0.019896753472735354
1666090096820169143,0.3454329577507451,0.0,0.0,0.0,0.0,-0.030019663134302467
1666090096835497722,0.34756525995908305,0.0,0.0,0.0,0.0,-0.02949606435870417
1666090096855723903,0.3454329577507451,0.0,0.0,0.0,0.0,-0.026878070480712675
1666090096896136538,0.34756525995908305,0.0,0.0,0.0,0.0,-0.044505895925855396
1666090096896155876,0.3560944687924348,0.0,0.0,0.0,0.0,-0.05567600313861911
1666090096940204053,0.3646236776257865,0.0,0.0,0.0,0.0,-0.041189770347066175
1666090096940241608,0.3752851886674762,0.0,0.0,0.0,0.0,-0.030368728984701335
1666090096984662788,0.3646236776257865,0.0,0.0,0.0,0.0,-0.03682644721708035
1666090096984758352,0.37741749087581417,0.0,0.0,0.0,0.0,-0.04799655442984406
1666090097028144280,0.38594669970916584,0.0,0.0,0.0,0.0,-0.040491638646268445
1666090097028162872,0.39874051295919344,0.0,0.0,0.0,0.0,-0.029670597283903602
1666090097072159829,0.3966082107508555,0.0,0.0,0.0,0.0,-0.020594885173533087
1666090097072183094,0.40513741958420724,0.0,0.0,0.0,0.0,-0.0317649923862968
1666090097116115473,0.41366662841755897,0.0,0.0,0.0,0.0,-0.043807764225057666
1666090097116136731,0.4072697217925452,0.0,0.0,0.0,0.0,-0.028623399732707
1666090097116228898,0.42219583725091075,0.0,0.0,0.0,0.0,-0.041015237421866746
1666090097164278175,0.42219583725091075,0.0,0.0,0.0,0.0,-0.060388392119003806
1666090097164320506,0.4179312328342349,0.0,0.0,0.0,0.0,-0.05969026041820607
1666090097176135563,0.41579893062589696,0.0,0.0,0.0,0.0,-0.061959188445798695
1666090097195412531,0.4243281394592487,0.0,0.0,0.0,0.0,-0.07487462491055674
1666090097238797889,0.4307250460842625,0.0,0.0,0.0,0.0,-0.06824237375297829
1666090097280156980,0.445651161542628,0.0,0.0,0.0,0.0,-0.046076692252650306
1666090097280174594,0.43712195270927623,0.0,0.0,0.0,0.0,-0.0497418836818384
1666090097280180800,0.4349896505009383,0.0,0.0,0.0,0.0,-0.05061454830783556
1666090097324283819,0.43712195270927623,0.0,0.0,0.0,0.0,-0.05637413483941684
1666090097324314284,0.4392542549176142,0.0,0.0,0.0,0.0,-0.04590215932745086
1666090097336052842,0.4499157659593038,0.0,0.0,0.0,0.0,-0.029845130209103034
1666090097354994003,0.445651161542628,0.0,0.0,0.0,0.0,-0.03735004599267865
1666090097400288479,0.44138655712595215,0.0,0.0,0.0,0.0,-0.04782202150464464
1666090097400334190,0.45204806816764176,0.0,0.0,0.0,0.0,-0.03647738136668148
1666090097448398869,0.44351885933429,0.0,0.0,0.0,0.0,-0.022863813201125717
1666090097448439360,0.445651161542628,0.0,0.0,0.0,0.0,-0.01884955592153876
1666090097492219116,0.445651161542628,0.0,0.0,0.0,0.0,-0.021642082724729686
1666090097492254519,0.43712195270927623,0.0,0.0,0.0,0.0,-0.02076941809873252
1666090097536136018,0.4392542549176142,0.0,0.0,0.0,0.0,-0.01832595714594046
1666090097536150925,0.3390360511257314,0.0,0.0,0.0,0.0,-0.014137166941154071
1666090097536163550,0.3539621665840969,0.0,0.0,0.0,0.0,-0.024085543677521744
1666090097580156312,0.38168209529249003,0.0,0.0,0.0,0.0,-0.05009094953223726
1666090097580187448,0.3838143975008279,0.0,0.0,0.0,0.0,-0.08779006137531478
1666090097596258004,0.3646236776257865,0.0,0.0,0.0,0.0,-0.07819075048934597
1666090097616468839,0.34969756216742104,0.0,0.0,0.0,0.0,-0.031939525311496235
1666090097660145228,0.3560944687924348,0.0,0.0,0.0,0.0,-0.020245819323134222
1666090097660171513,0.3710205842508003,0.0,0.0,0.0,0.0,-0.06178465552059926
1666090097704239619,0.3646236776257865,0.0,0.0,0.0,0.0,-0.07173303225696695
1666090097704267160,0.3560944687924348,0.0,0.0,0.0,0.0,-0.017278759594743863
1666090097748262253,0.35822677100077277,0.0,0.0,0.0,0.0,-0.00890117918517108
1666090097748301236,0.3646236776257865,0.0,0.0,0.0,0.0,-0.029321531433504733
1666090097792117668,0.37954979308415204,0.0,0.0,0.0,0.0,-0.03979350694547071
1666090097792137306,0.3710205842508003,0.0,0.0,0.0,0.0,-0.03874630939427412
1666090097840185656,0.3646236776257865,0.0,0.0,0.0,0.0,-0.032114058236695664
1666090097840263955,0.38168209529249003,0.0,0.0,0.0,0.0,-0.04258603374866164
1666090097840311452,0.3902113041258417,0.0,0.0,0.0,0.0,-0.06265732014659643
1666090097884196639,0.41366662841755897,0.0,0.0,0.0,0.0,-0.06824237375297829
1666090097884212595,0.41153432620922104,0.0,0.0,0.0,0.0,-0.07452555906015787
1666090097896518907,0.4008728151675314,0.0,0.0,0.0,0.0,-0.07836528341454539
1666090097916048508,0.40940202400088316,0.0,0.0,0.0,0.0,-0.07382742735936014
1666090097960080455,0.41153432620922104,0.0,0.0,0.0,0.0,-0.08272860654453122
1666090097960097494,0.42006353504257277,0.0,0.0,0.0,0.0,-0.07120943348136864
1666090098008188027,0.41579893062589696,0.0,0.0,0.0,0.0,-0.06702064327658225
1666090098008229803,0.41366662841755897,0.0,0.0,0.0,0.0,-0.07679448708775051
1666090098056539433,0.41579893062589696,0.0,0.0,0.0,0.0,-0.09040805525330627
1666090098056623559,0.4179312328342349,0.0,0.0,0.0,0.0,-0.09075712110370514
1666090098104226932,0.42006353504257277,0.0,0.0,0.0,0.0,-0.11065387457644049
1666090098104260922,0.4179312328342349,0.0,0.0,0.0,0.0,-0.13281955607676849
1666090098104273798,0.41366662841755897,0.0,0.0,0.0,0.0,-0.14049900478554353
1666090098148137798,0.34330065554240724,0.0,0.0,0.0,0.0,-0.1514945790731078
1666090098148152025,0.3390360511257314,0.0,0.0,0.0,0.0,-0.15341444125030154
1666090098157106461,0.37954979308415204,0.0,0.0,0.0,0.0,-0.1907644872429802
1666090098177321412,0.32197763345902786,0.0,0.0,0.0,0.0,-0.2349213173184368
1666090098220233817,0.30278691358398646,0.0,0.0,0.0,0.0,-0.272096830385916
1666090098220255901,0.32410993566736584,0.0,0.0,0.0,0.0,-0.2789036144686939
1666090098268098301,0.3347714467090555,0.0,0.0,0.0,0.0,-0.2769837522915001
1666090098268122450,0.34330065554240724,0.0,0.0,0.0,0.0,-0.3270747018237373
1666090098316340497,0.32837454008404166,0.0,0.0,0.0,0.0,-0.3691371367968007
1666090098316352133,0.3262422378757037,0.0,0.0,0.0,0.0,-0.3619812868636239
1666090098360153599,0.3518298643757589,0.0,0.0,0.0,0.0,-0.36163222101322506
1666090098360174375,0.34969756216742104,0.0,0.0,0.0,0.0,-0.374896723328382
1666090098360181585,0.3390360511257314,0.0,0.0,0.0,0.0,-0.40840704496667307
1666090098404194609,0.3390360511257314,0.0,0.0,0.0,0.0,-0.4417428336797648
1666090098404246598,0.34116835333406925,0.0,0.0,0.0,0.0,-0.4572762640225143
1666090098415556707,0.3560944687924348,0.0,0.0,0.0,0.0,-0.4825835381764321
1666090098436849969,0.35822677100077277,0.0,0.0,0.0,0.0,-0.5040510879759623
1666090098480126270,0.3710205842508003,0.0,0.0,0.0,0.0,-0.5122541354603357
1666090098480138438,0.37741749087581417,0.0,0.0,0.0,0.0,-0.5352924815866609
1666090098524133038,0.3838143975008279,0.0,0.0,0.0,0.0,-0.5504768460790115
1666090098524151401,0.3923436063341797,0.0,0.0,0.0,0.0,-0.5550147021341968
1666090098568101416,0.39447590854251763,0.0,0.0,0.0,0.0,-0.5450663253978292
1666090098568119397,0.3966082107508555,0.0,0.0,0.0,0.0,-0.5206317158699084
1666090098612331645,0.3966082107508555,0.0,0.0,0.0,0.0,-0.536165146212658
1666090098612359068,0.40513741958420724,0.0,0.0,0.0,0.0,-0.5445427266222308
1666090098656063900,0.41153432620922104,0.0,0.0,0.0,0.0,-0.5567600313861911
1666090098656074546,0.40940202400088316,0.0,0.0,0.0,0.0,-0.572817060504539
1666090098700128424,0.41153432620922104,0.0,0.0,0.0,0.0,-0.5822418384653083
1666090098700159055,0.42006353504257277,0.0,0.0,0.0,0.0,-0.6117379028240124
1666090098700166128,0.41579893062589696,0.0,0.0,0.0,0.0,-0.6333799855487422
1666090098744288328,0.3646236776257865,0.0,0.0,0.0,0.0,-0.6450736915371041
1666090098744318174,0.3518298643757589,0.0,0.0,0.0,0.0,-0.6539748707222752
1666090098757361867,0.38168209529249003,0.0,0.0,0.0,0.0,-0.6497860805174888
1666090098777490244,0.39874051295919344,0.0,0.0,0.0,0.0,-0.7180284542704672
1666090098820429763,0.37954979308415204,0.0,0.0,0.0,0.0,-0.7592182246175333
1666090098820457923,0.36888828204246243,0.0,0.0,0.0,0.0,-0.7421139979479889
1666090098864057556,0.39447590854251763,0.0,0.0,0.0,0.0,-0.7286749627076327
1666090098864073865,0.4072697217925452,0.0,0.0,0.0,0.0,-0.7969173364606108
1666090098908545024,0.4072697217925452,0.0,0.0,0.0,0.0,-0.8754571528003555
1666090098908612358,0.38807900191750383,0.0,0.0,0.0,0.0,-0.9208357133522083
1666090098952182446,0.40513741958420724,0.0,0.0,0.0,0.0,-0.917519587773419
1666090098952215988,0.41366662841755897,0.0,0.0,0.0,0.0,-0.9135053304938321
1666090098996087355,0.39447590854251763,0.0,0.0,0.0,0.0,-0.9641198788016676
1666090098996101843,0.3902113041258417,0.0,0.0,0.0,0.0,-0.9953612724123662
1666090099040556426,0.38168209529249003,0.0,0.0,0.0,0.0,-0.9761626506404285
1666090099040604528,0.3902113041258417,0.0,0.0,0.0,0.0,-0.9279915632853851
1666090099040620815,0.4008728151675314,0.0,0.0,0.0,0.0,-0.8258898020437168
1666090099084300397,0.39447590854251763,0.0,0.0,0.0,0.0,-0.7960446718346137
1666090099084385157,0.4072697217925452,0.0,0.0,0.0,0.0,-0.7649778111491147
1666090099096790917,0.4072697217925452,0.0,0.0,0.0,0.0,-0.7120943348136863
1666090099116665374,0.42219583725091075,0.0,0.0,0.0,0.0,-0.6335545184739415
1666090099160383915,0.4243281394592487,0.0,0.0,0.0,0.0,-0.5942846103040691
1666090099160430896,0.42006353504257277,0.0,0.0,0.0,0.0,-0.5920156822764766
1666090099204117639,0.42646044166758657,0.0,0.0,0.0,0.0,-0.5886995566976873
1666090099204138943,0.4285927438759245,0.0,0.0,0.0,0.0,-0.5719443958785418
1666090099252161143,0.43712195270927623,0.0,0.0,0.0,0.0,-0.5653121447209634
1666090099252181109,0.4349896505009383,0.0,0.0,0.0,0.0,-0.5878268920716901
1666090099296266263,0.44351885933429,0.0,0.0,0.0,0.0,-0.5989969992844539
1666090099296297044,0.44351885933429,0.0,0.0,0.0,0.0,-0.6003932626860493
1666090099344238817,0.44138655712595215,0.0,0.0,0.0,0.0,-0.5689773361501514
1666090099344276123,0.4349896505009383,0.0,0.0,0.0,0.0,-0.5555383009097951
1666090099344296121,0.44138655712595215,0.0,0.0,0.0,0.0,-0.553094839957003
1666090099392146100,0.4563126725843177,0.0,0.0,0.0,0.0,-0.5237733085234983
1666090099392162464,0.4627095792093315,0.0,0.0,0.0,0.0,-0.4869468613064179
1666090099396430228,0.45204806816764176,0.0,0.0,0.0,0.0,-0.4653047785816882
1666090099416427524,0.45844497479265556,0.0,0.0,0.0,0.0,-0.46006879082570523
1666090099460077911,0.4669741836260073,0.0,0.0,0.0,0.0,-0.46827183831007857
1666090099460089849,0.4691064858343453,0.0,0.0,0.0,0.0,-0.48240900525123265
1666090099504185654,0.4733710902510211,0.0,0.0,0.0,0.0,-0.5131268000863328
1666090099504214608,0.4755033924593591,0.0,0.0,0.0,0.0,-0.5225515780471023
1666090099548142611,0.4840326012927108,0.0,0.0,0.0,0.0,-0.5450663253978292
1666090099548164417,0.49682641454273835,0.0,0.0,0.0,0.0,-0.5930628798276731
1666090099592141008,0.49895871675107634,0.0,0.0,0.0,0.0,-0.6251769380643688
1666090099592165066,0.5032233211677521,0.0,0.0,0.0,0.0,-0.6459463561631013
1666090099636174230,0.5010910189594143,0.0,0.0,0.0,0.0,-0.6250024051391695
1666090099636188788,0.5053556233760901,0.0,0.0,0.0,0.0,-0.627271333166762
1666090099680322263,0.5138848322094418,0.0,0.0,0.0,0.0,-0.6421066318087139
1666090099680382018,0.5288109476678073,0.0,0.0,0.0,0.0,-0.6209881478595823
1666090099680661116,0.5266786454594694,0.0,0.0,0.0,0.0,-0.6112143040484143
1666090099724280535,0.5266786454594694,0.0,0.0,0.0,0.0,-0.5777039824101231
1666090099724309885,0.5288109476678073,0.0,0.0,0.0,0.0,-0.5935864786032714
1666090099737268217,0.5394724587094971,0.0,0.0,0.0,0.0,-0.5569345643113905
1666090099758158628,0.5458693653345108,0.0,0.0,0.0,0.0,-0.5218534463463045
1666090099804196932,0.5394724587094971,0.0,0.0,0.0,0.0,-0.5012585611727715
1666090099804228460,0.5352078542928211,0.0,0.0,0.0,0.0,-0.48031461014883947
1666090099852165706,0.5522662719595246,0.0,0.0,0.0,0.0,-0.4468042885105484
1666090099852190926,0.5671923874178901,0.0,0.0,0.0,0.0,-0.4331907203449926
1666090099896119116,0.5735892940429039,0.0,0.0,0.0,0.0,-0.3984586682303054
1666090099896139998,0.5629277830012144,0.0,0.0,0.0,0.0,-0.3420845333908886
1666090099944325090,0.5607954807928763,0.0,0.0,0.0,0.0,-0.31049407392979117
1666090099944368422,0.5714569918345661,0.0,0.0,0.0,0.0,-0.26371924997634316
1666090099944384449,0.5949123161262834,0.0,0.0,0.0,0.0,-0.2314306588144481
1666090099988243039,0.607706129376311,0.0,0.0,0.0,0.0,-0.21170843826691216
1666090099988262099,0.6013092227512972,0.0,0.0,0.0,0.0,-0.1387536755335492
1666090099997503031,0.5906477117096074,0.0,0.0,0.0,0.0,-0.08168140899333462
1666090100021277662,0.6013092227512972,0.0,0.0,0.0,0.0,-0.058468529941810045
1666090100064185624,0.6247645470430144,0.0,0.0,0.0,0.0,-0.05986479334340551
1666090100064209074,0.635426058084704,0.0,0.0,0.0,0.0,-0.03735004599267865
1666090100112081688,0.6141030360013247,0.0,0.0,0.0,0.0,-0.00715584993317675
1666090100112097173,0.6183676404180005,0.0,0.0,0.0,0.0,-0.008028514559173916
1666090100160037313,0.6226322448346764,0.0,0.0,0.0,0.0,0.0158824961931484
1666090100160049089,0.6268968492513523,0.0,0.0,0.0,0.0,0.013439035240356337
1666090100160056283,0.6375583602930419,0.0,0.0,0.0,0.0,0.04293509959906051
1666090100204114210,0.635426058084704,0.0,0.0,0.0,0.0,0.00715584993317675
1666090100204134784,0.6332937558763662,0.0,0.0,0.0,0.0,-0.012740903539558606
1666090100216943152,0.6375583602930419,0.0,0.0,0.0,0.0,-0.011693705988362009
1666090100237546245,0.6290291514596902,0.0,0.0,0.0,0.0,-0.028797932657906436
1666090100280079163,0.5949123161262834,0.0,0.0,0.0,0.0,-0.012042771838760872
1666090100280093834,0.5799862006679177,0.0,0.0,0.0,0.0,-0.019547687622336492
1666090100324440075,0.6098384315846489,0.0,0.0,0.0,0.0,-0.006806784082777885
1666090100324485410,0.6247645470430144,0.0,0.0,0.0,0.0,0.0008726646259971648
1666090100368058436,0.6162353382096627,0.0,0.0,0.0,0.0,-0.007504915783575617
1666090100368071882,0.5821185028762557,0.0,0.0,0.0,0.0,-0.011519173063162576
1666090100412368579,0.5671923874178901,0.0,0.0,0.0,0.0,-0.007679448708775049
1666090100412405871,0.5885154095012695,0.0,0.0,0.0,0.0,-0.0020943951023931952
1666090100456168188,0.5991769205429591,0.0,0.0,0.0,0.0,-0.0027925268031909274
1666090100456192366,0.5842508050845936,0.0,0.0,0.0,0.0,0.003490658503988659
1666090100500039094,0.5650600852095522,0.0,0.0,0.0,0.0,0.0024434609527920616
1666090100500053163,0.5543985741678626,0.0,0.0,0.0,0.0,0.0
1666090100500063355,0.5629277830012144,0.0,0.0,0.0,0.0,0.01658062789394613
1666090100544257992,0.5629277830012144,0.0,0.0,0.0,0.0,0.03438298626428829
1666090100544281073,0.5480016675428488,0.0,0.0,0.0,0.0,0.007679448708775049
1666090100557013447,0.5288109476678073,0.0,0.0,0.0,0.0,-0.006108652381980153
1666090100577877875,0.507487925584428,0.0,0.0,0.0,0.0,0.00034906585039886593
1666090100624175002,0.5202817388344556,0.0,0.0,0.0,0.0,0.008377580409572781
1666090100624197743,0.5416047609178349,0.0,0.0,0.0,0.0,0.0010471975511965976
1666090100668055831,0.5458693653345108,0.0,0.0,0.0,0.0,-0.00034906585039886593
1666090100668062145,0.5224140410427935,0.0,0.0,0.0,0.0,0.01291543646475804
1666090100716236316,0.5032233211677521,0.0,0.0,0.0,0.0,-0.007504915783575617
1666090100716283200,0.507487925584428,0.0,0.0,0.0,0.0,-0.0054105206811824215
1666090100760147295,0.49682641454273835,0.0,0.0,0.0,0.0,0.01308996938995747
1666090100760168918,0.47976799687603494,0.0,0.0,0.0,0.0,-0.0019198621771937623
1666090100760174156,0.4627095792093315,0.0,0.0,0.0,0.0,0.002967059728390361
1666090100804124811,0.4499157659593038,0.0,0.0,0.0,0.0,0.008028514559173916
1666090100804139324,0.4627095792093315,0.0,0.0,0.0,0.0,0.015533430342749534
1666090100819358716,0.4627095792093315,0.0,0.0,0.0,0.0,0.0143116998663535
1666090100836776897,0.45204806816764176,0.0,0.0,0.0,0.0,0.0143116998663535
1666090100880281657,0.43712195270927623,0.0,0.0,0.0,0.0,0.012042771838760872
1666090100880321141,0.43712195270927623,0.0,0.0,0.0,0.0,0.019547687622336492
1666090100928071189,0.445651161542628,0.0,0.0,0.0,0.0,0.029845130209103034
1666090100928090280,0.445651161542628,0.0,0.0,0.0,0.0,0.027052603405912107
1666090100972192019,0.4285927438759245,0.0,0.0,0.0,0.0,0.03089232776029963
1666090100972209267,0.40940202400088316,0.0,0.0,0.0,0.0,0.029845130209103034
1666090101016287024,0.41153432620922104,0.0,0.0,0.0,0.0,0.02199114857512855
1666090101016321572,0.40940202400088316,0.0,0.0,0.0,0.0,0.023387411976724018
1666090101064167248,0.40940202400088316,0.0,0.0,0.0,0.0,0.021467549799530253
1666090101064183729,0.39874051295919344,0.0,0.0,0.0,0.0,0.024085543677521744
1666090101064202069,0.3966082107508555,0.0,0.0,0.0,0.0,0.02548180707911721
1666090101108332715,0.40940202400088316,0.0,0.0,0.0,0.0,0.039095375244672985
1666090101108383743,0.4008728151675314,0.0,0.0,0.0,0.0,0.05026548245743669
1666090101118600589,0.39447590854251763,0.0,0.0,0.0,0.0,0.06667157742618339
1666090101137726988,0.3902113041258417,0.0,0.0,0.0,0.0,0.09023352232810683
1666090101180287997,0.3838143975008279,0.0,0.0,0.0,0.0,0.09232791743050003
1666090101180312443,0.3902113041258417,0.0,0.0,0.0,0.0,0.09878563566287904
1666090101228130475,0.3838143975008279,0.0,0.0,0.0,0.0,0.12967796342317867
1666090101228169232,0.3710205842508003,0.0,0.0,0.0,0.0,0.1324704902263696
1666090101272418868,0.3646236776257865,0.0,0.0,0.0,0.0,0.1324704902263696
1666090101272482581,0.34969756216742104,0.0,0.0,0.0,0.0,0.12880529879718153
1666090101316081708,0.34969756216742104,0.0,0.0,0.0,0.0,0.11484266478122689
1666090101316121117,0.34756525995908305,0.0,0.0,0.0,0.0,0.10786134777324957
1666090101364313141,0.34969756216742104,0.0,0.0,0.0,0.0,0.09896016858807849
1666090101364368643,0.34969756216742104,0.0,0.0,0.0,0.0,0.10122909661567112
1666090101364417656,0.34330065554240724,0.0,0.0,0.0,0.0,0.09128071987930345
1666090101408224805,0.3539621665840969,0.0,0.0,0.0,0.0,0.07208209810736581
1666090101408269583,0.3454329577507451,0.0,0.0,0.0,0.0,0.08918632477691024
1666090101417603256,0.32837454008404166,0.0,0.0,0.0,0.0,0.08674286382411817
1666090101437618693,0.32197763345902786,0.0,0.0,0.0,0.0,0.06684611035138281
1666090101480392852,0.31984533125069,0.0,0.0,0.0,0.0,0.06387905062299247
1666090101480459761,0.317713029042352,0.0,0.0,0.0,0.0,0.07592182246175333
1666090101524147322,0.3134484246256761,0.0,0.0,0.0,0.0,0.0932005820564972
1666090101524169051,0.3155807268340141,0.0,0.0,0.0,0.0,0.12252211349000193
1666090101568185986,0.317713029042352,0.0,0.0,0.0,0.0,0.12950343049797924
1666090101568209176,0.32837454008404166,0.0,0.0,0.0,0.0,0.1340412865531645
1666090101612110904,0.3326391445007175,0.0,0.0,0.0,0.0,0.15323990832510212
1666090101612128233,0.3262422378757037,0.0,0.0,0.0,0.0,0.17627825445142728
1666090101660042397,0.25587626500055194,0.0,0.0,0.0,0.0,0.18605209826259553
