%time,field.linear.x,field.linear.y,field.linear.z,field.angular.x,field.angular.y,field.angular.z
1666090093167429381,0.015,0.0,0.0,0.0,0.0,-0.05336902651020145
1666090093215214092,0.03,0.0,0.0,0.0,0.0,-0.1067380530204029
1666090093265402226,0.045,0.0,0.0,0.0,0.0,-0.1615673332842164
1666090093315254198,0.06,0.0,0.0,0.0,0.0,-0.21639661354802991
1666090093365300937,0.075,0.0,0.0,0.0,0.0,-0.2712258938118434
1666090093415486273,0.09,0.0,0.0,0.0,0.0,-0.32605517407565693
1666090093465998291,0.105,0.0,0.0,0.0,0.0,-0.37764089769688575
1666090093515170175,0.12,0.0,0.0,0.0,0.0,-0.4306798433977403
1666090093565531044,0.135,0.0,0.0,0.0,0.0,-0.4838988678683754
1666090093615268279,0.15000000000000002,0.0,0.0,0.0,0.0,-0.5371178923390104
1666090093665204668,0.16500000000000004,0.0,0.0,0.0,0.0,-0.590090858387226
1666090093715240023,0.18000000000000005,0.0,0.0,0.0,0.0,-0.6421986977583172
1666090093765317841,0.19500000000000006,0.0,0.0,0.0,0.0,-0.6943065371294084
1666090093815412583,0.21000000000000008,0.0,0.0,0.0,0.0,-0.7464143765004996
1666090093865228601,0.2190700529755663,0.0,0.0,0.0,0.0,-0.8464143765004996
1666090093915798705,0.23407005297556632,0.0,0.0,0.0,0.0,-0.8932333515223605
1666090093965193181,0.24907005297556634,0.0,0.0,0.0,0.0,-0.9400523265442214
1666090094015868105,0.26407005297556635,0.0,0.0,0.0,0.0,-0.9870920946259428
1666090094065460034,0.27907005297556636,0.0,0.0,0.0,0.0,-1.034131862707664
1666090094115258282,0.2940700529755664,0.0,0.0,0.0,0.0,-1.0588150220485182
1666090094165207640,0.3090700529755664,0.0,0.0,0.0,0.0,-1.0834981813893723
1666090094216064183,0.3240700529755664,0.0,0.0,0.0,0.0,-1.1121760583522162
1666090094265249132,0.3390700529755664,0.0,0.0,0.0,0.0,-1.1421369643374815
1666090094315273622,0.35407005297556643,0.0,0.0,0.0,0.0,-1.1722051361843504
1666090094366004667,0.36907005297556644,0.0,0.0,0.0,0.0,-1.2022733080312193
1666090094415486969,0.37388327717781067,0.0,0.0,0.0,0.0,-1.2217304763960313
1666090094465402857,0.37388327717781067,0.0,0.0,0.0,0.0,-1.2217304763960313
1666090094515442716,0.22631868720054626,0.0,0.0,0.0,0.0,-1.0471975511965983
1666090094565473104,0.22631868720054626,0.0,0.0,0.0,0.0,-1.0471975511965983
1666090094615584407,0.22826610505580902,0.0,0.0,0.0,0.0,-0.6981317007977323
1666090094666149742,0.078266105055809,0.0,0.0,0.0,0.0,-0.769055817960665
1666090094715268010,0.0,0.0,0.0,0.0,0.0,-0.7504055780489063
1666090094765210706,0.0,0.0,0.0,0.0,0.0,-0.7504055780489063
1666090094816069166,0.0,0.0,0.0,0.0,0.0,-0.6981317007977323
1666090094866138484,0.0,0.0,0.0,0.0,0.0,-0.6981317007977323
1666090094915832875,0.0,0.0,0.0,0.0,0.0,-0.6159864900367222
1666090094966249678,0.0,0.0,0.0,0.0,0.0,-0.5469823031021758
1666090095015395558,0.0,0.0,0.0,0.0,0.0,-0.49286843451862733
1666090095065231685,0.0,0.0,0.0,0.0,0.0,-0.49286843451862733
1666090095115447976,0.0,0.0,0.0,0.0,0.0,-0.45642519238856083
1666090095166103574,0.0,0.0,0.0,0.0,0.0,-0.45642519238856083
1666090095216126851,0.015,0.0,0.0,0.0,0.0,-0.445701619899504
1666090095265750006,0.03,0.0,0.0,0.0,0.0,-0.43507066937632144
1666090095315458958,0.045,0.0,0.0,0.0,0.0,-0.4244397188531388
1666090095365301924,0.06,0.0,0.0,0.0,0.0,-0.41380876832995617
1666090095416020274,0.075,0.0,0.0,0.0,0.0,-0.39599337336792945
1666090095465252552,0.09,0.0,0.0,0.0,0.0,-0.3781779784059027
1666090095515179663,0.105,0.0,0.0,0.0,0.0,-0.36156684100506836
1666090095565464397,0.12,0.0,0.0,0.0,0.0,-0.34494789102200357
1666090095615324108,0.135,0.0,0.0,0.0,0.0,-0.3283289410389388
1666090095670363061,0.15000000000000002,0.0,0.0,0.0,0.0,-0.32046885097933214
1666090095715233488,0.16500000000000004,0.0,0.0,0.0,0.0,-0.3126087609197255
1666090095765299629,0.18000000000000005,0.0,0.0,0.0,0.0,-0.304953150436192
1666090095815678309,0.19500000000000006,0.0,0.0,0.0,0.0,-0.29729753995265845
1666090095865610053,0.21000000000000008,0.0,0.0,0.0,0.0,-0.2898189637627797
1666090095915355542,0.2250000000000001,0.0,0.0,0.0,0.0,-0.282340387572901
1666090095965676699,0.2400000000000001,0.0,0.0,0.0,0.0,-0.26186688082470727
1666090096015861286,0.2550000000000001,0.0,0.0,0.0,0.0,-0.2421552694005025
1666090096065278813,0.27000000000000013,0.0,0.0,0.0,0.0,-0.22244365797629773
1666090096115328741,0.28500000000000014,0.0,0.0,0.0,0.0,-0.2187801374739273
1666090096165437859,0.30000000000000016,0.0,0.0,0.0,0.0,-0.21511661697155687
1666090096215362477,0.31500000000000017,0.0,0.0,0.0,0.0,-0.21246286578055162
1666090096265275717,0.3300000000000002,0.0,0.0,0.0,0.0,-0.21037969007449928
1666090096315782680,0.3450000000000002,0.0,0.0,0.0,0.0,-0.20933616244141068
1666090096365240344,0.3600000000000002,0.0,0.0,0.0,0.0,-0.20829263480832208
1666090096415710361,0.3750000000000002,0.0,0.0,0.0,0.0,-0.20724910717523348
1666090096466088207,0.39000000000000024,0.0,0.0,0.0,0.0,-0.20714972926672104
1666090096515319242,0.40500000000000025,0.0,0.0,0.0,0.0,-0.20806571212660302
1666090096565422342,0.35077109932899475,0.0,0.0,0.0,0.0,-0.12190323323011398
1666090096615481156,0.36577109932899476,0.0,0.0,0.0,0.0,-0.13552845601490407
1666090096665282637,0.3807710993289948,0.0,0.0,0.0,0.0,-0.14915367879969416
1666090096715326431,0.3957710993289948,0.0,0.0,0.0,0.0,-0.16277890158448427
1666090096765178513,0.4107710993289948,0.0,0.0,0.0,0.0,-0.17646616738112844
1666090096815451124,0.4257710993289948,0.0,0.0,0.0,0.0,-0.19015343317777264
1666090096865934443,0.44077109932899483,0.0,0.0,0.0,0.0,-0.20440662974069387
1666090096915574990,0.45577109932899484,0.0,0.0,0.0,0.0,-0.2191528284766235
1666090096965364494,0.47077109932899486,0.0,0.0,0.0,0.0,-0.23413076349809375
1666090097015640075,0.48577109932899487,0.0,0.0,0.0,0.0,-0.249108698519564
1666090097065215502,0.49858182668685913,0.0,0.0,0.0,0.0,-0.26209408044815063
1666090097115349338,0.49858182668685913,0.0,0.0,0.0,0.0,-0.26209408044815063
1666090097165655011,0.5106776356697083,0.0,0.0,0.0,0.0,-0.2748626470565796
1666090097215360005,0.5106776356697083,0.0,0.0,0.0,0.0,-0.2748626470565796
1666090097265393346,0.5172669291496277,0.0,0.0,0.0,0.0,-0.2914806008338928
1666090097315784088,0.5168405175209045,0.0,0.0,0.0,0.0,-0.2916516363620758
1666090097365695745,0.5153923630714417,0.0,0.0,0.0,0.0,-0.2988138198852539
1666090097415258816,0.5153923630714417,0.0,0.0,0.0,0.0,-0.2988138198852539
1666090097465853880,0.39600762724876404,0.0,0.0,0.0,0.0,-0.23441344499588013
1666090097515474645,0.39600762724876404,0.0,0.0,0.0,0.0,-0.23441344499588013
1666090097565894129,0.39600762724876404,0.0,0.0,0.0,0.0,-0.23441344499588013
1666090097615492404,0.41100762724876405,0.0,0.0,0.0,0.0,-0.24675107488791595
1666090097665373460,0.42600762724876406,0.0,0.0,0.0,0.0,-0.2590887047799518
1666090097715809393,0.4410076272487641,0.0,0.0,0.0,0.0,-0.27390342290925135
1666090097765305707,0.4560076272487641,0.0,0.0,0.0,0.0,-0.2887181410385509
1666090097815164136,0.4710076272487641,0.0,0.0,0.0,0.0,-0.3035328591678505
1666090097865289017,0.47447637209437743,0.0,0.0,0.0,0.0,-0.40353285916785053
1666090097915326363,0.4779451169399907,0.0,0.0,0.0,0.0,-0.5035328591678505
1666090097965427708,0.47506922483444214,0.0,0.0,0.0,0.0,-0.5235987755982994
1666090098015264888,0.47506922483444214,0.0,0.0,0.0,0.0,-0.5235987755982994
1666090098065401193,0.4004952557968566,0.0,0.0,0.0,0.0,-0.6235987755982993
1666090098115666088,0.3449130952358246,0.0,0.0,0.0,0.0,-0.6981317007977323
1666090098165186067,0.3599130952358246,0.0,0.0,0.0,0.0,-0.7380610094362118
1666090098215396827,0.3749130952358246,0.0,0.0,0.0,0.0,-0.7779903180746912
1666090098265723678,0.3899130952358246,0.0,0.0,0.0,0.0,-0.8627623281664518
1666090098315911175,0.40491309523582464,0.0,0.0,0.0,0.0,-0.9475343382582124
1666090098365337919,0.41991309523582465,0.0,0.0,0.0,0.0,-1.0246409436263768
1666090098415147019,0.43491309523582466,0.0,0.0,0.0,0.0,-1.1017475489945412
1666090098465839346,0.4499130952358247,0.0,0.0,0.0,0.0,-1.1653933671276377
1666090098515228497,0.4649130952358247,0.0,0.0,0.0,0.0,-1.2290391852607343
1666090098565378328,0.4799130952358247,0.0,0.0,0.0,0.0,-1.2692999108311196
1666090098617136025,0.4949130952358247,0.0,0.0,0.0,0.0,-1.3051199423235675
1666090098665359708,0.42346009612083435,0.0,0.0,0.0,0.0,-1.3962634015954642
1666090098715404478,0.42331793904304504,0.0,0.0,0.0,0.0,-1.3962634015954642
1666090098765391236,0.43831793904304506,0.0,0.0,0.0,0.0,-1.3962634015954642
1666090098815406021,0.45331793904304507,0.0,0.0,0.0,0.0,-1.3962634015954642
1666090098865205211,0.4683179390430451,0.0,0.0,0.0,0.0,-1.3962634015954642
1666090098915259425,0.45860955119132996,0.0,0.0,0.0,0.0,-1.2217304763960313
1666090098965335863,0.45860955119132996,0.0,0.0,0.0,0.0,-1.2217304763960313
1666090099015616992,0.45860955119132996,0.0,0.0,0.0,0.0,-1.2217304763960313
1666090099065944939,0.47360955119132997,0.0,0.0,0.0,0.0,-1.2217304763960313
1666090099115402220,0.48860955119133,0.0,0.0,0.0,0.0,-1.2217304763960313
1666090099165805519,0.50360955119133,0.0,0.0,0.0,0.0,-1.2217304763960313
1666090099215344574,0.51860955119133,0.0,0.0,0.0,0.0,-1.2217304763960313
1666090099265301050,0.53360955119133,0.0,0.0,0.0,0.0,-1.1819257297616712
1666090099315279806,0.54860955119133,0.0,0.0,0.0,0.0,-1.1421209831273111
1666090099366123992,0.56360955119133,0.0,0.0,0.0,0.0,-1.1126742874766515
1666090099415209836,0.5786095511913301,0.0,0.0,0.0,0.0,-1.083227591825992
1666090099465208210,0.5936095511913301,0.0,0.0,0.0,0.0,-1.0684307928979537
1666090099515190991,0.6086095511913301,0.0,0.0,0.0,0.0,-1.0415182762889488
1666090099565265534,0.6236095511913301,0.0,0.0,0.0,0.0,-1.0146057596799438
1666090099615291062,0.6386095511913301,0.0,0.0,0.0,0.0,-0.9876932430709389
1666090099665229298,0.6536095511913301,0.0,0.0,0.0,0.0,-0.9607807264619339
1666090099715378888,0.6686095511913301,0.0,0.0,0.0,0.0,-0.9159845712733848
1666090099765254421,0.6836095511913302,0.0,0.0,0.0,0.0,-0.8711884160848358
1666090099815554451,0.6986095511913302,0.0,0.0,0.0,0.0,-0.8263922608962867
1666090099865269073,0.7136095511913302,0.0,0.0,0.0,0.0,-0.7299542812804325
1666090099915264847,0.7286095511913302,0.0,0.0,0.0,0.0,-0.561250346478686
1666090099965271460,0.7436095511913302,0.0,0.0,0.0,0.0,-0.3924681944564309
1666090100015394364,0.739183485507965,0.0,0.0,0.0,0.0,-0.04504523426294327
1666090100065371946,0.7184866070747375,0.0,0.0,0.0,0.0,-4.996003610813204e-16
1666090100115216208,0.7184866070747375,0.0,0.0,0.0,0.0,-4.996003610813204e-16
1666090100165197793,0.7184866070747375,0.0,0.0,0.0,0.0,-4.996003610813204e-16
1666090100215337152,0.6647549867630005,0.0,0.0,0.0,0.0,0.008456208743155003
1666090100265207365,0.6647549867630005,0.0,0.0,0.0,0.0,0.008456208743155003
1666090100315545249,0.6393723020219998,0.0,0.0,0.0,0.0,0.10845620874315501
1666090100365184693,0.6238379569939405,0.0,0.0,0.0,0.0,0.208456208743155
1666090100415394080,0.6083036119658811,0.0,0.0,0.0,0.0,0.30845620874315505
1666090100465245880,0.6019951701164246,0.0,0.0,0.0,0.0,0.3490658503988654
1666090100515391494,0.5638247132301331,0.0,0.0,0.0,0.0,0.3490658503988654
1666090100565304112,0.5638247132301331,0.0,0.0,0.0,0.0,0.3490658503988654
1666090100621043310,0.5579097270965575,0.0,0.0,0.0,0.0,0.3490658503988654
1666090100665247059,0.5126637707323063,0.0,0.0,0.0,0.0,0.4490658503988654
1666090100716167507,0.47894063591957087,0.0,0.0,0.0,0.0,0.5235987755982984
1666090100765816971,0.47894063591957087,0.0,0.0,0.0,0.0,0.5235987755982984
1666090100815583999,0.4615391492843628,0.0,0.0,0.0,0.0,0.5235987755982984
1666090100865453566,0.4615391492843628,0.0,0.0,0.0,0.0,0.5235987755982984
1666090100915591350,0.4396348893642425,0.0,0.0,0.0,0.0,0.5235987755982984
1666090100965306927,0.4271326720508302,0.0,0.0,0.0,0.0,0.6235987755982983
1666090101015765923,0.41781440377235407,0.0,0.0,0.0,0.0,0.6981317007977313
1666090101065620535,0.40737998485565186,0.0,0.0,0.0,0.0,0.6981317007977313
1666090101115625909,0.40737998485565186,0.0,0.0,0.0,0.0,0.6981317007977313
1666090101165714574,0.38458770513534546,0.0,0.0,0.0,0.0,0.6981317007977313
1666090101216017505,0.3592044413089752,0.0,0.0,0.0,0.0,0.6981317007977313
1666090101265964579,0.35262081027030945,0.0,0.0,0.0,0.0,0.6981317007977313
1666090101315244806,0.35262081027030945,0.0,0.0,0.0,0.0,0.6981317007977313
1666090101365892709,0.33726871360118227,0.0,0.0,0.0,0.0,0.7981317007977313
1666090101415401970,0.32582634687423706,0.0,0.0,0.0,0.0,0.8726646259971643
1666090101465203011,0.32582634687423706,0.0,0.0,0.0,0.0,0.8726646259971643
1666090101515587031,0.3408263468742371,0.0,0.0,0.0,0.0,0.8726646259971643
1666090101565653563,0.2729770541191101,0.0,0.0,0.0,0.0,0.8726646259971643
1666090101615267340,0.2729770541191101,0.0,0.0,0.0,0.0,0.8726646259971643
1666090101665203482,0.2729770541191101,0.0,0.0,0.0,0.0,0.8726646259971643
1666090101724212815,0.12297705411911009,0.0,0.0,0.0,0.0,0.7997329279447203
1666090101765282027,0.0,0.0,0.0,0.0,0.0,0.7399400920887602
1666090101815522738,0.0,0.0,0.0,0.0,0.0,0.7448547328621337
1666090101865683057,0.0,0.0,0.0,0.0,0.0,0.7460187213671572
1666090101915628593,0.0,0.0,0.0,0.0,0.0,0.7460187213671572
1666090101965662991,0.0,0.0,0.0,0.0,0.0,0.7460187213671572
1666090102016240049,0.0,0.0,0.0,0.0,0.0,0.7659725132998713
1666090102065601899,0.0,0.0,0.0,0.0,0.0,0.727491028602926
1666090102115226721,0.0,0.0,0.0,0.0,0.0,0.727491028602926
1666090102165298631,0.0,0.0,0.0,0.0,0.0,0.6981317007977313
1666090102215430720,0.0,0.0,0.0,0.0,0.0,0.6981317007977313
1666090102265348180,0.015,0.0,0.0,0.0,0.0,0.6981317007977313
1666090102315268622,0.03,0.0,0.0,0.0,0.0,0.6981317007977313
1666090102365180890,0.045,0.0,0.0,0.0,0.0,0.6981317007977313
1666090102415790177,0.06,0.0,0.0,0.0,0.0,0.6981317007977313
1666090102465344443,0.075,0.0,0.0,0.0,0.0,0.6981317007977313
1666090102515767762,0.09,0.0,0.0,0.0,0.0,0.6981317007977313
1666090102565677843,0.105,0.0,0.0,0.0,0.0,0.6981317007977313
1666090102615785817,0.12,0.0,0.0,0.0,0.0,0.6981317007977313
1666090102665965750,0.135,0.0,0.0,0.0,0.0,0.6981317007977313
1666090102715285241,0.15000000000000002,0.0,0.0,0.0,0.0,0.6981317007977313
1666090102765758592,0.16500000000000004,0.0,0.0,0.0,0.0,0.6981317007977313
1666090102815218516,0.18000000000000005,0.0,0.0,0.0,0.0,0.6981317007977313
1666090102866099085,0.19500000000000006,0.0,0.0,0.0,0.0,0.6903124457541654
1666090102915272450,0.21000000000000008,0.0,0.0,0.0,0.0,0.6824931907105994
1666090102965250799,0.2250000000000001,0.0,0.0,0.0,0.0,0.6753745653095008
1666090103015386185,0.2400000000000001,0.0,0.0,0.0,0.0,0.6682559399084022
1666090103065260511,0.2550000000000001,0.0,0.0,0.0,0.0,0.648054020368672
1666090103115560038,0.27000000000000013,0.0,0.0,0.0,0.0,0.6278521008289417
1666090103165509714,0.28500000000000014,0.0,0.0,0.0,0.0,0.6042891599960643
1666090103215564010,0.30000000000000016,0.0,0.0,0.0,0.0,0.5817785612990363
1666090103265268006,0.31500000000000017,0.0,0.0,0.0,0.0,0.5592679626020083
1666090103316540788,0.3300000000000002,0.0,0.0,0.0,0.0,0.5367573639049803
1666090103365336341,0.3450000000000002,0.0,0.0,0.0,0.0,0.514531654191665
1666090103415212143,0.3600000000000002,0.0,0.0,0.0,0.0,0.4927924663089303
1666090103465467473,0.3750000000000002,0.0,0.0,0.0,0.0,0.4710343113680852
1666090103516390257,0.39000000000000024,0.0,0.0,0.0,0.0,0.4492753857503614
1666090103565694343,0.40500000000000025,0.0,0.0,0.0,0.0,0.42751646013263767
1666090103615630232,0.42000000000000026,0.0,0.0,0.0,0.0,0.40611072469034054
1666090103665317381,0.4350000000000003,0.0,0.0,0.0,0.0,0.38511200507372567
1666090103715382745,0.4500000000000003,0.0,0.0,0.0,0.0,0.3602902152932942
1666090103766054720,0.4650000000000003,0.0,0.0,0.0,0.0,0.3354684255128627
1666090103815261653,0.4800000000000003,0.0,0.0,0.0,0.0,0.31263254413768526
1666090103865499398,0.49500000000000033,0.0,0.0,0.0,0.0,0.2897966627625078
1666090103915558674,0.5100000000000003,0.0,0.0,0.0,0.0,0.26696078138733037
1666090103965341026,0.5250000000000004,0.0,0.0,0.0,0.0,0.2350973349156305
1666090104015526598,0.5400000000000004,0.0,0.0,0.0,0.0,0.20323388844393064
1666090104065450894,0.5550000000000004,0.0,0.0,0.0,0.0,0.17137044197223078
1666090104115852893,0.5700000000000004,0.0,0.0,0.0,0.0,0.1395069955005309
1666090104165676979,0.5850000000000004,0.0,0.0,0.0,0.0,0.107643549028831
1666090104215401251,0.6000000000000004,0.0,0.0,0.0,0.0,0.06360338684554273
1666090104265385173,0.6150000000000004,0.0,0.0,0.0,0.0,0.019563224662254464
1666090104315672745,0.6300000000000004,0.0,0.0,0.0,0.0,-0.024476937521033797
1666090104365327396,0.6450000000000005,0.0,0.0,0.0,0.0,-0.06851709970432207
1666090104415426145,0.6600000000000005,0.0,0.0,0.0,0.0,-0.11255726188761034
1666090104465256837,0.6750000000000005,0.0,0.0,0.0,0.0,-0.1565974240708986
1666090104515668706,0.6900000000000005,0.0,0.0,0.0,0.0,-0.20063758625418687
1666090104565213363,0.7050000000000005,0.0,0.0,0.0,0.0,-0.24467774843747517
1666090104615414803,0.7200000000000005,0.0,0.0,0.0,0.0,-0.31627574091541094
1666090104665332757,0.7350000000000005,0.0,0.0,0.0,0.0,-0.38787373339334674
1666090104715386915,0.5850000000000005,0.0,0.0,0.0,0.0,-0.3787065169379577
1666090104765776849,0.4350000000000005,0.0,0.0,0.0,0.0,-0.36953930048256867
1666090104815393146,0.2850000000000005,0.0,0.0,0.0,0.0,-0.36037208402717963
1666090104865413287,0.13500000000000045,0.0,0.0,0.0,0.0,-0.35120486757179054
1666090104915425880,0.1,0.0,0.0,0.0,0.0,-0.3490658503988664
1666090104965562697,0.1,0.0,0.0,0.0,0.0,-0.3490658503988664
1666090105015558667,0.1,0.0,0.0,0.0,0.0,-0.3490658503988664
1666090105065502161,0.1,0.0,0.0,0.0,0.0,-0.4490658503988664
1666090105115460088,0.1,0.0,0.0,0.0,0.0,-0.5235987755982994
1666090105166034796,0.1,0.0,0.0,0.0,0.0,-0.6235987755982993
1666090105215530892,0.1,0.0,0.0,0.0,0.0,-0.7235987755982993
1666090105265301596,0.1,0.0,0.0,0.0,0.0,-0.8235987755982993
1666090105315260861,0.0,0.0,0.0,0.0,0.0,-0.39851165264625105
1666090105365235722,0.0,0.0,0.0,0.0,0.0,-0.4042706842139552
1666090105415655325,0.0,0.0,0.0,0.0,0.0,-0.39801059409007467
1666090105465389010,0.0,0.0,0.0,0.0,0.0,-0.39801059409007467
1666090105516567038,0.0,0.0,0.0,0.0,0.0,-0.400497848398974
1666090105565233025,0.0,0.0,0.0,0.0,0.0,-0.400497848398974
1666090105615894989,0.0,0.0,0.0,0.0,0.0,-0.3985363490845458
1666090105665311749,0.0,0.0,0.0,0.0,0.0,-0.3985363490845458
1666090105715279906,0.0,0.0,0.0,0.0,0.0,-0.3902792337524575
1666090105765831660,0.015,0.0,0.0,0.0,0.0,-0.392778975162067
1666090105819240015,0.03,0.0,0.0,0.0,0.0,-0.3952787165716765
1666090105865592793,0.045,0.0,0.0,0.0,0.0,-0.397778457981286
1666090105915725534,0.06,0.0,0.0,0.0,0.0,-0.40027819939089554
1666090105965229365,0.075,0.0,0.0,0.0,0.0,-0.40277794080050505
1666090106016101280,0.09,0.0,0.0,0.0,0.0,-0.40166665617150565
1666090106065250882,0.105,0.0,0.0,0.0,0.0,-0.40055537154250626
1666090106115536686,0.12,0.0,0.0,0.0,0.0,-0.39944408691350686
1666090106165401301,0.135,0.0,0.0,0.0,0.0,-0.39833280228450746
1666090106215532019,0.15000000000000002,0.0,0.0,0.0,0.0,-0.39722151765550806
1666090106265129888,0.16500000000000004,0.0,0.0,0.0,0.0,-0.39611023302650866
1666090106315916426,0.18000000000000005,0.0,0.0,0.0,0.0,-0.39499894839750926
1666090106365727824,0.19500000000000006,0.0,0.0,0.0,0.0,-0.39388766376850987
1666090106416041310,0.21000000000000008,0.0,0.0,0.0,0.0,-0.39277637913951047
1666090106465334714,0.2250000000000001,0.0,0.0,0.0,0.0,-0.39166509451051107
1666090106515532800,0.2400000000000001,0.0,0.0,0.0,0.0,-0.3905538098815116
1666090106565159884,0.2550000000000001,0.0,0.0,0.0,0.0,-0.38476753618467024
1666090106615413379,0.27000000000000013,0.0,0.0,0.0,0.0,-0.3789812624878289
1666090106665278254,0.28500000000000014,0.0,0.0,0.0,0.0,-0.3731949887909875
1666090106715646052,0.30000000000000016,0.0,0.0,0.0,0.0,-0.36740871509414613
1666090106765543906,0.31500000000000017,0.0,0.0,0.0,0.0,-0.36162244139730476
1666090106815375522,0.3300000000000002,0.0,0.0,0.0,0.0,-0.3558361677004634
1666090106865702495,0.3450000000000002,0.0,0.0,0.0,0.0,-0.350049894003622
1666090106916070822,0.3600000000000002,0.0,0.0,0.0,0.0,-0.34193119623364765
1666090106966761164,0.3750000000000002,0.0,0.0,0.0,0.0,-0.3335109661010009
1666090107015969508,0.39000000000000024,0.0,0.0,0.0,0.0,-0.3250765675936754
1666090107065250457,0.40500000000000025,0.0,0.0,0.0,0.0,-0.31635137101757654
1666090107116753168,0.42000000000000026,0.0,0.0,0.0,0.0,-0.30762617444147766
1666090107165665359,0.4350000000000003,0.0,0.0,0.0,0.0,-0.2989009778653787
1666090107215696880,0.4500000000000003,0.0,0.0,0.0,0.0,-0.2895382541933349
1666090107266121971,0.4650000000000003,0.0,0.0,0.0,0.0,-0.27996827463415735
1666090107315495718,0.4800000000000003,0.0,0.0,0.0,0.0,-0.2703982950749798
1666090107365335170,0.49500000000000033,0.0,0.0,0.0,0.0,-0.25661681691676846
1666090107415933399,0.5100000000000003,0.0,0.0,0.0,0.0,-0.2428353387585571
1666090107465437870,0.5250000000000004,0.0,0.0,0.0,0.0,-0.22905386060034572
1666090107516550031,0.5400000000000004,0.0,0.0,0.0,0.0,-0.21987338526535713
1666090107565300841,0.5550000000000004,0.0,0.0,0.0,0.0,-0.21069290993036854
1666090107616341598,0.5700000000000004,0.0,0.0,0.0,0.0,-0.20053651743959833
1666090107665260222,0.5850000000000004,0.0,0.0,0.0,0.0,-0.1817724978982903
1666090107715582746,0.6000000000000004,0.0,0.0,0.0,0.0,-0.16300847835698226
1666090107765867123,0.6150000000000004,0.0,0.0,0.0,0.0,-0.14424445881567421
1666090107815583556,0.6300000000000004,0.0,0.0,0.0,0.0,-0.1272707305045701
1666090107865484439,0.6450000000000005,0.0,0.0,0.0,0.0,-0.10672671936571111
1666090107915388024,0.6600000000000005,0.0,0.0,0.0,0.0,-0.08045725051967986
1666090107965587291,0.6750000000000005,0.0,0.0,0.0,0.0,-0.054187781673648606
1666090108016057963,0.6900000000000005,0.0,0.0,0.0,0.0,-0.057105202508229556
1666090108065481449,0.6909421682357788,0.0,0.0,0.0,0.0,-0.05728844925761223
1666090108115437379,0.6751812696456908,0.0,0.0,0.0,0.0,0.03451138734817505
1666090108165258545,0.6751812696456908,0.0,0.0,0.0,0.0,0.03451138734817505
1666090108215352046,0.6568308472633362,0.0,0.0,0.0,0.0,0.024202991276979446
1666090108265340200,0.6568308472633362,0.0,0.0,0.0,0.0,0.024202991276979446
1666090108316295111,0.6532010062751468,0.0,0.0,0.0,0.0,-0.07579700872302056
1666090108365302013,0.6536692976951599,0.0,0.0,0.0,0.0,-0.07863803207874298
1666090108415401274,0.6536692976951599,0.0,0.0,0.0,0.0,-0.07863803207874298
1666090108465330873,0.6259872317314148,0.0,0.0,0.0,0.0,-0.0913582593202591
1666090108515455798,0.6259872317314148,0.0,0.0,0.0,0.0,-0.0913582593202591
1666090108565445709,0.6100046038627625,0.0,0.0,0.0,0.0,-0.09800741821527481
1666090108615682012,0.6100046038627625,0.0,0.0,0.0,0.0,-0.09800741821527481
1666090108665340497,0.5928192138671875,0.0,0.0,0.0,0.0,-0.10513060539960861
1666090108715567334,0.5928192138671875,0.0,0.0,0.0,0.0,-0.10513060539960861
1666090108765478969,0.5928192138671875,0.0,0.0,0.0,0.0,-0.10513060539960861
1666090108815304943,0.542446494102478,0.0,0.0,0.0,0.0,-0.17453292519943345
1666090108865360234,0.5183171629905701,0.0,0.0,0.0,0.0,-0.1267569214105606
1666090108915433810,0.5183171629905701,0.0,0.0,0.0,0.0,-0.1267569214105606
1666090108965629480,0.4963196218013763,0.0,0.0,0.0,0.0,-0.1348554790019989
1666090109015692616,0.4963196218013763,0.0,0.0,0.0,0.0,-0.1348554790019989
1666090109065245859,0.4963196218013763,0.0,0.0,0.0,0.0,-0.1348554790019989
1666090109115594678,0.4417824149131775,0.0,0.0,0.0,0.0,-0.1443125307559967
1666090109165264179,0.4417824149131775,0.0,0.0,0.0,0.0,-0.1443125307559967
1666090109215453245,0.41715049743652344,0.0,0.0,0.0,0.0,-0.14618024230003357
1666090109265790614,0.4182877242565155,0.0,0.0,0.0,0.0,-0.14608250558376312
1666090109316737947,0.4182877242565155,0.0,0.0,0.0,0.0,-0.14608250558376312
1666090109365453681,0.2965765802657762,0.0,0.0,0.0,0.0,-0.24608250558376313
1666090109415643518,0.18143930812856932,0.0,0.0,0.0,0.0,-0.34608250558376313
1666090109465521798,0.08038173521613515,0.0,0.0,0.0,0.0,-0.44608250558376317
1666090109515434352,0.0,0.0,0.0,0.0,0.0,-0.5256230416362028
1666090109565174658,0.0,0.0,0.0,0.0,0.0,-0.5256230416362028
1666090109615736496,0.0,0.0,0.0,0.0,0.0,-0.5533365437627155
1666090109665340988,0.0,0.0,0.0,0.0,0.0,-0.5533365437627155
1666090109715545655,0.0,0.0,0.0,0.0,0.0,-0.5737005148961044
1666090109765271901,0.0,0.0,0.0,0.0,0.0,-0.5737005148961044
1666090109815232876,0.0,0.0,0.0,0.0,0.0,-0.6023516935843024
1666090109865235710,0.0,0.0,0.0,0.0,0.0,-0.6023516935843024
1666090109916426155,0.0,0.0,0.0,0.0,0.0,-0.6023516935843024
1666090109965208587,0.015,0.0,0.0,0.0,0.0,-0.587426587849142
1666090110015291330,0.03,0.0,0.0,0.0,0.0,-0.5733746357473712
1666090110066109397,0.045,0.0,0.0,0.0,0.0,-0.5600220111456005
1666090110115247901,0.06,0.0,0.0,0.0,0.0,-0.5466693865438297
1666090110165381281,0.075,0.0,0.0,0.0,0.0,-0.5333167619420589
1666090110215664588,0.09,0.0,0.0,0.0,0.0,-0.5209801178449707
1666090110265231332,0.105,0.0,0.0,0.0,0.0,-0.502530750577338
1666090110315490571,0.12,0.0,0.0,0.0,0.0,-0.49186941209618124
1666090110365289514,0.135,0.0,0.0,0.0,0.0,-0.4812080736150245
1666090110416066931,0.15000000000000002,0.0,0.0,0.0,0.0,-0.47093574945023675
1666090110465319996,0.16500000000000004,0.0,0.0,0.0,0.0,-0.460663425285449
1666090110515697351,0.18000000000000005,0.0,0.0,0.0,0.0,-0.45064919145032156
1666090110565339785,0.19500000000000006,0.0,0.0,0.0,0.0,-0.4356599297102945
1666090110615565284,0.21000000000000008,0.0,0.0,0.0,0.0,-0.4261875209412272
1666090110665218861,0.2250000000000001,0.0,0.0,0.0,0.0,-0.4167151121721599
1666090110715184498,0.2400000000000001,0.0,0.0,0.0,0.0,-0.4072427034030926
1666090110765385609,0.2550000000000001,0.0,0.0,0.0,0.0,-0.39790323993402266
1666090110815473282,0.27000000000000013,0.0,0.0,0.0,0.0,-0.3885637764649527
1666090110865336378,0.28500000000000014,0.0,0.0,0.0,0.0,-0.37912858636407964
1666090110916203859,0.30000000000000016,0.0,0.0,0.0,0.0,-0.36932931870309743
1666090110965393756,0.31500000000000017,0.0,0.0,0.0,0.0,-0.3595300510421152
1666090111015406503,0.3300000000000002,0.0,0.0,0.0,0.0,-0.3493021133101009
1666090111065248728,0.3450000000000002,0.0,0.0,0.0,0.0,-0.3390741755780866
1666090111115291988,0.3600000000000002,0.0,0.0,0.0,0.0,-0.32831554551449205
1666090111165870024,0.3750000000000002,0.0,0.0,0.0,0.0,-0.31702943956226687
1666090111215280217,0.39000000000000024,0.0,0.0,0.0,0.0,-0.3057433336100417
1666090111265515556,0.2400000000000002,0.0,0.0,0.0,0.0,-0.1881497437600257
1666090111315569676,0.2550000000000002,0.0,0.0,0.0,0.0,-0.18428511518440877
1666090111365775011,0.27000000000000024,0.0,0.0,0.0,0.0,-0.18042048660879184
1666090111415277263,0.28500000000000025,0.0,0.0,0.0,0.0,-0.1763115312829354
1666090111466379735,0.30000000000000027,0.0,0.0,0.0,0.0,-0.17220257595707894
1666090111515485729,0.3150000000000003,0.0,0.0,0.0,0.0,-0.16366903049623355
1666090111565271150,0.3300000000000003,0.0,0.0,0.0,0.0,-0.15513548503538815
1666090111615188079,0.3450000000000003,0.0,0.0,0.0,0.0,-0.14864043238868607
1666090111665233163,0.3600000000000003,0.0,0.0,0.0,0.0,-0.14214269004535973
1666090111715269701,0.37500000000000033,0.0,0.0,0.0,0.0,-0.1356449477020334
1666090111765223017,0.39000000000000035,0.0,0.0,0.0,0.0,-0.1293280462986531
1666090111815853594,0.40500000000000036,0.0,0.0,0.0,0.0,-0.12062972650162501
1666090111865315429,0.4200000000000004,0.0,0.0,0.0,0.0,-0.11193140670459692
1666090111915272903,0.4350000000000004,0.0,0.0,0.0,0.0,-0.10323308690756883
1666090111965892487,0.4500000000000004,0.0,0.0,0.0,0.0,-0.09680737940855264
1666090112015433519,0.4650000000000004,0.0,0.0,0.0,0.0,-0.09038167190953644
1666090112065279101,0.4800000000000004,0.0,0.0,0.0,0.0,-0.08062971910811292
1666090112115345924,0.49500000000000044,0.0,0.0,0.0,0.0,-0.046177719738526905
1666090112165384963,0.5100000000000005,0.0,0.0,0.0,0.0,-0.01172572036894088
1666090112215430065,0.5250000000000005,0.0,0.0,0.0,0.0,0.022726279000645146
1666090112265448347,0.5400000000000005,0.0,0.0,0.0,0.0,0.05836945876873101
1666090112315295700,0.5550000000000005,0.0,0.0,0.0,0.0,0.09570014720476125
1666090112365794129,0.5700000000000005,0.0,0.0,0.0,0.0,0.13612738857022635
1666090112415504134,0.5850000000000005,0.0,0.0,0.0,0.0,0.17967573730167521
1666090112465526319,0.6000000000000005,0.0,0.0,0.0,0.0,0.2232240860331241
1666090112516091770,0.605247881118265,0.0,0.0,0.0,0.0,0.32322408603312414
1666090112566673704,0.455247881118265,0.0,0.0,0.0,0.0,0.22726403411235224
1666090112615242752,0.3310215736043381,0.0,0.0,0.0,0.0,0.12726403411235224
1666090112665314510,0.20679526609041127,0.0,0.0,0.0,0.0,0.02726403411235223
1666090112715522525,0.1,0.0,0.0,0.0,0.0,-0.057871777564287186
1666090112765285678,0.1,0.0,0.0,0.0,0.0,-0.057871777564287186
1666090112815278393,0.115,0.0,0.0,0.0,0.0,-0.044955880863936294
1666090112867206889,0.13,0.0,0.0,0.0,0.0,-0.03156517405696578
1666090112915746665,0.14500000000000002,0.0,0.0,0.0,0.0,-0.02411661251754713
1666090112965687284,0.16000000000000003,0.0,0.0,0.0,0.0,-0.016668050978128478
1666090113015495988,0.17500000000000004,0.0,0.0,0.0,0.0,-0.008832060738280098
1666090113065890771,0.19000000000000006,0.0,0.0,0.0,0.0,-0.0009960704984317177
1666090113115240068,0.20500000000000007,0.0,0.0,0.0,0.0,0.006839919741416662
1666090113165680972,0.22000000000000008,0.0,0.0,0.0,0.0,0.014986425771551674
1666090113215422550,0.2350000000000001,0.0,0.0,0.0,0.0,0.023936170694266044
1666090113265315565,0.2500000000000001,0.0,0.0,0.0,0.0,0.03258019206178654
1666090113315407895,0.2650000000000001,0.0,0.0,0.0,0.0,0.041224213429307044
1666090113365595586,0.28000000000000014,0.0,0.0,0.0,0.0,0.049378770142750994
1666090113415369231,0.29500000000000015,0.0,0.0,0.0,0.0,0.06707665721673521
1666090113465749424,0.31000000000000016,0.0,0.0,0.0,0.0,0.08477454429071943
1666090113515245273,0.3250000000000002,0.0,0.0,0.0,0.0,0.11095480496860188
1666090113565856928,0.3400000000000002,0.0,0.0,0.0,0.0,0.1526983834033516
1666090113615196340,0.3550000000000002,0.0,0.0,0.0,0.0,0.1944419618381013
1666090113665783697,0.30437359642729644,0.0,0.0,0.0,0.0,0.29444196183810134
1666090113715316803,0.31937359642729646,0.0,0.0,0.0,0.0,0.28969838844489104
1666090113765396386,0.33437359642729647,0.0,0.0,0.0,0.0,0.2849548150516807
1666090113816157984,0.3493735964272965,0.0,0.0,0.0,0.0,0.2805341134831693
1666090113865266286,0.3643735964272965,0.0,0.0,0.0,0.0,0.27611341191465794
1666090113915343634,0.3793735964272965,0.0,0.0,0.0,0.0,0.2722554320733535
1666090113965197291,0.3943735964272965,0.0,0.0,0.0,0.0,0.2683974522320491
1666090114015474425,0.40937359642729654,0.0,0.0,0.0,0.0,0.26453947239074466
1666090114065363235,0.42437359642729655,0.0,0.0,0.0,0.0,0.2609255564790037
1666090114115551939,0.43937359642729656,0.0,0.0,0.0,0.0,0.2574756140445317
1666090114165177553,0.4543735964272966,0.0,0.0,0.0,0.0,0.2540256716100597
1666090114215853119,0.4693735964272966,0.0,0.0,0.0,0.0,0.2505757291755877
1666090114265207695,0.4843735964272966,0.0,0.0,0.0,0.0,0.2471257867411157
1666090114315617523,0.4993735964272966,0.0,0.0,0.0,0.0,0.2519704414897607
1666090114365459807,0.5143735964272966,0.0,0.0,0.0,0.0,0.25681509623840576
1666090114415328738,0.5293735964272966,0.0,0.0,0.0,0.0,0.2616597509870508
1666090114465603029,0.5443735964272967,0.0,0.0,0.0,0.0,0.26650440573569584
1666090114515203206,0.5593735964272967,0.0,0.0,0.0,0.0,0.2713490604843409
1666090114567190365,0.5743735964272967,0.0,0.0,0.0,0.0,0.27619371523298586
1666090114615294162,0.5893735964272967,0.0,0.0,0.0,0.0,0.2810383699816309
1666090114665579966,0.6043735964272967,0.0,0.0,0.0,0.0,0.28588302473027594
1666090114715328310,0.6193735964272967,0.0,0.0,0.0,0.0,0.2907276794789209
1666090114765559013,0.6343735964272967,0.0,0.0,0.0,0.0,0.29557233422756596
1666090114815207600,0.6493735964272968,0.0,0.0,0.0,0.0,0.30041698897621094
1666090114865619023,0.6643735964272968,0.0,0.0,0.0,0.0,0.305261643724856
1666090114915464145,0.6793735964272968,0.0,0.0,0.0,0.0,0.310106298473501
1666090114965364656,0.6943735964272968,0.0,0.0,0.0,0.0,0.33665427687643695
1666090115015193486,0.7093735964272968,0.0,0.0,0.0,0.0,0.3632022552793729
1666090115066307057,0.7243735964272968,0.0,0.0,0.0,0.0,0.3897502336823089
1666090115115666623,0.7393735964272968,0.0,0.0,0.0,0.0,0.41629821208524487
1666090115165533360,0.7543735964272968,0.0,0.0,0.0,0.0,0.44284619048818086
1666090115215486569,0.7693735964272969,0.0,0.0,0.0,0.0,0.46939416889111685
1666090115265947962,0.7843735964272969,0.0,0.0,0.0,0.0,0.4997860614831773
1666090115315212392,0.7993735964272969,0.0,0.0,0.0,0.0,0.5226442137166685
1666090115365558868,0.7999999999999999,0.0,0.0,0.0,0.0,0.5235987755982984
1666090115415388548,0.7999999999999999,0.0,0.0,0.0,0.0,0.5235987755982984
1666090115466641747,0.7741874583717144,0.0,0.0,0.0,0.0,0.6235987755982983
1666090115515259026,0.7549486160278319,0.0,0.0,0.0,0.0,0.6981317007977313
1666090115569801490,0.7396347522735596,0.0,0.0,0.0,0.0,0.6981317007977313
1666090115615188271,0.7396347522735596,0.0,0.0,0.0,0.0,0.6981317007977313
1666090115665515371,0.7546347522735596,0.0,0.0,0.0,0.0,0.6981317007977313
1666090115715975280,0.7600568532943726,0.0,0.0,0.0,0.0,0.6981317007977313
1666090115765825601,0.7441655397415161,0.0,0.0,0.0,0.0,0.6981317007977313
1666090115815176939,0.7441655397415161,0.0,0.0,0.0,0.0,0.6981317007977313
1666090115865454452,0.6353607177734375,0.0,0.0,0.0,0.0,0.6981317007977313
1666090115916439722,0.6108850763921553,0.0,0.0,0.0,0.0,0.7981317007977313
1666090115965252062,0.5926426649093627,0.0,0.0,0.0,0.0,0.8726646259971643
1666090116015316395,0.5690460801124572,0.0,0.0,0.0,0.0,0.8726646259971643
1666090116065536140,0.5347246527671814,0.0,0.0,0.0,0.0,0.8726646259971643
1666090116115246349,0.5347246527671814,0.0,0.0,0.0,0.0,0.8726646259971643
1666090116165400206,0.5497246527671814,0.0,0.0,0.0,0.0,0.8726646259971643
1666090116215564847,0.5611839944509432,0.0,0.0,0.0,0.0,0.9726646259971643
1666090116265397399,0.569724977016449,0.0,0.0,0.0,0.0,1.0471975511965972
1666090116315379424,0.4385229051113128,0.0,0.0,0.0,0.0,0.8726646259971643
1666090116365470699,0.4385229051113128,0.0,0.0,0.0,0.0,0.8726646259971643
1666090116416342993,0.44011399149894714,0.0,0.0,0.0,0.0,0.8726646259971643
1666090116465380615,0.44011399149894714,0.0,0.0,0.0,0.0,0.8726646259971643
1666090116515243093,0.45511399149894716,0.0,0.0,0.0,0.0,0.8969512823723401
1666090116566648883,0.4461695849895477,0.0,0.0,0.0,0.0,0.8726646259971643
1666090116615189744,0.4461695849895477,0.0,0.0,0.0,0.0,0.8726646259971643
1666090116666137523,0.4487697780132293,0.0,0.0,0.0,0.0,0.8726646259971643
1666090116715206290,0.4487697780132293,0.0,0.0,0.0,0.0,0.8726646259971643
1666090116766648475,0.45029252767562866,0.0,0.0,0.0,0.0,0.8726646259971643
1666090116815555383,0.4652925276756287,0.0,0.0,0.0,0.0,0.8981413127994129
1666090116865502649,0.4802925276756287,0.0,0.0,0.0,0.0,0.9236179996016614
1666090116915394834,0.4952925276756287,0.0,0.0,0.0,0.0,0.9490946864039099
1666090116965988688,0.5102925276756287,0.0,0.0,0.0,0.0,0.9745713732061585
1666090117015671544,0.4828455746173858,0.0,0.0,0.0,0.0,0.8726646259971643
1666090117065415254,0.4827744662761688,0.0,0.0,0.0,0.0,0.8726646259971643
1666090117115297859,0.4922716915607452,0.0,0.0,0.0,0.0,0.8726646259971643
1666090117165471392,0.5072716915607451,0.0,0.0,0.0,0.0,0.8726646259971643
1666090117215196872,0.5222716915607452,0.0,0.0,0.0,0.0,0.8726646259971643
1666090117265409506,0.5372716915607452,0.0,0.0,0.0,0.0,0.8726646259971643
1666090117315266619,0.5522716915607452,0.0,0.0,0.0,0.0,0.8726646259971643
1666090117365463910,0.5404340028762817,0.0,0.0,0.0,0.0,0.6981317007977313
1666090117415374779,0.5400785803794861,0.0,0.0,0.0,0.0,0.6981317007977313
1666090117465289697,0.5404984951019287,0.0,0.0,0.0,0.0,0.6981317007977313
1666090117515652630,0.5554984951019287,0.0,0.0,0.0,0.0,0.6981317007977313
1666090117565659808,0.559584379196167,0.0,0.0,0.0,0.0,0.6981317007977313
1666090117615217018,0.574584379196167,0.0,0.0,0.0,0.0,0.6981317007977313
1666090117665312408,0.5788129568099976,0.0,0.0,0.0,0.0,0.6981317007977313
1666090117715937659,0.5938129568099976,0.0,0.0,0.0,0.0,0.6662031658251248
1666090117765325669,0.6088129568099976,0.0,0.0,0.0,0.0,0.6342746308525183
1666090117815232440,0.6091164350509644,0.0,0.0,0.0,0.0,0.5235987755982984
1666090117868093065,0.6085478663444519,0.0,0.0,0.0,0.0,0.5235987755982984
1666090117915465343,0.6085478663444519,0.0,0.0,0.0,0.0,0.5235987755982984
1666090117965397932,0.6235478663444519,0.0,0.0,0.0,0.0,0.5235987755982984
1666090118015301330,0.6111106872558594,0.0,0.0,0.0,0.0,0.3490658503988654
1666090118066560559,0.6111106872558594,0.0,0.0,0.0,0.0,0.3490658503988654
1666090118115220830,0.6014549732208252,0.0,0.0,0.0,0.0,0.3490658503988654
1666090118166622187,0.5852569937705994,0.0,0.0,0.0,0.0,0.3490658503988654
1666090118215246063,0.5394704341888428,0.0,0.0,0.0,0.0,0.3490658503988654
1666090118265546350,0.5394704341888428,0.0,0.0,0.0,0.0,0.3490658503988654
1666090118317551590,0.5022088885307312,0.0,0.0,0.0,0.0,0.3490658503988654
1666090118365348322,0.5022088885307312,0.0,0.0,0.0,0.0,0.3490658503988654
1666090118415380506,0.5022088885307312,0.0,0.0,0.0,0.0,0.3490658503988654
1666090118465586425,0.46388161182403564,0.0,0.0,0.0,0.0,0.17453292519943245
1666090118515493214,0.4220699369907379,0.0,0.0,0.0,0.0,0.17453292519943245
1666090118565543008,0.37679141759872437,0.0,0.0,0.0,0.0,0.17453292519943245
1666090118615925151,0.22679141759872434,0.0,0.0,0.0,0.0,0.17453292519943245
1666090118665242149,0.07679141759872432,0.0,0.0,0.0,0.0,0.17453292519943245
1666090118715263633,0.0,0.0,0.0,0.0,0.0,0.17453292519943245
1666090118765334280,0.0,0.0,0.0,0.0,0.0,0.17453292519943245
1666090118815292300,0.0,0.0,0.0,0.0,0.0,0.17453292519943245
1666090118871464245,0.0,0.0,0.0,0.0,0.0,0.17453292519943245
1666090118915780462,0.0,0.0,0.0,0.0,0.0,0.22102224336803358
1666090118965627852,0.0,0.0,0.0,0.0,0.0,0.22102224336803358
1666090119018052420,0.0,0.0,0.0,0.0,0.0,0.23180631704675309
1666090119065568189,0.0,0.0,0.0,0.0,0.0,0.24420311565930025
1666090119115426033,0.0,0.0,0.0,0.0,0.0,0.24420311565930025
1666090119165481852,0.0,0.0,0.0,0.0,0.0,0.2587129937888067
1666090119216065116,0.0,0.0,0.0,0.0,0.0,0.25793857348428295
1666090119265492891,0.0,0.0,0.0,0.0,0.0,0.25774472026326267
1666090119315214256,0.0,0.0,0.0,0.0,0.0,0.25774472026326267
1666090119368206184,0.0,0.0,0.0,0.0,0.0,0.26679026167111125
1666090119416130026,0.0,0.0,0.0,0.0,0.0,0.2492579371432403
1666090119465488154,0.0,0.0,0.0,0.0,0.0,0.2492579371432403
1666090119515284608,0.0,0.0,0.0,0.0,0.0,0.2357052824301323
1666090119565382530,0.0,0.0,0.0,0.0,0.0,0.17453292519943245
1666090119616433334,0.0,0.0,0.0,0.0,0.0,0.17453292519943245
1666090119665299666,0.0,0.0,0.0,0.0,0.0,0.17453292519943245
1666090119715288260,0.0,0.0,0.0,0.0,0.0,0.17453292519943245
1666090119765350471,0.0,0.0,0.0,0.0,0.0,0.17453292519943245
1666090119815499184,0.0,0.0,0.0,0.0,0.0,0.17453292519943245
1666090119866014234,0.0,0.0,0.0,0.0,0.0,0.17453292519943245
1666090119915500522,0.0,0.0,0.0,0.0,0.0,0.07453292519943244
1666090119965257983,0.0,0.0,0.0,0.0,0.0,-4.996003610813204e-16
1666090120015390291,0.0,0.0,0.0,0.0,0.0,-4.996003610813204e-16
1666090120065723341,0.0,0.0,0.0,0.0,0.0,-4.996003610813204e-16
1666090120115490601,0.0,0.0,0.0,0.0,0.0,-4.996003610813204e-16
1666090120166390497,0.0,0.0,0.0,0.0,0.0,-4.996003610813204e-16
1666090120215502310,0.0,0.0,0.0,0.0,0.0,-4.996003610813204e-16
1666090120265579700,0.0,0.0,0.0,0.0,0.0,-4.996003610813204e-16
1666090120315376652,0.0,0.0,0.0,0.0,0.0,-4.996003610813204e-16
1666090120365310217,0.0,0.0,0.0,0.0,0.0,-4.996003610813204e-16
1666090120415212922,0.0,0.0,0.0,0.0,0.0,-4.996003610813204e-16
1666090120465442257,0.0,0.0,0.0,0.0,0.0,-4.996003610813204e-16
1666090120515342986,0.0,0.0,0.0,0.0,0.0,-4.996003610813204e-16
1666090120565627229,0.0,0.0,0.0,0.0,0.0,-4.996003610813204e-16
1666090120615188827,0.0,0.0,0.0,0.0,0.0,-4.996003610813204e-16
1666090120665779855,0.0,0.0,0.0,0.0,0.0,-4.996003610813204e-16
1666090120715438518,0.0,0.0,0.0,0.0,0.0,-4.996003610813204e-16
1666090120765209165,0.0,0.0,0.0,0.0,0.0,-4.996003610813204e-16
1666090120815913987,0.0,0.0,0.0,0.0,0.0,-4.996003610813204e-16
1666090120865750426,0.0,0.0,0.0,0.0,0.0,-4.996003610813204e-16
1666090120915267653,0.0,0.0,0.0,0.0,0.0,-4.996003610813204e-16
1666090120965377988,0.0,0.0,0.0,0.0,0.0,-4.996003610813204e-16
1666090121016088009,0.0,0.0,0.0,0.0,0.0,-4.996003610813204e-16
1666090121065540979,0.0,0.0,0.0,0.0,0.0,-4.996003610813204e-16
1666090121115261940,0.0,0.0,0.0,0.0,0.0,-4.996003610813204e-16
1666090121165557986,0.0,0.0,0.0,0.0,0.0,-4.996003610813204e-16
1666090121215556490,0.0,0.0,0.0,0.0,0.0,-4.996003610813204e-16
1666090121265335353,0.0,0.0,0.0,0.0,0.0,-4.996003610813204e-16
1666090121315336479,0.0,0.0,0.0,0.0,0.0,-4.996003610813204e-16
1666090121365450936,0.0,0.0,0.0,0.0,0.0,-4.996003610813204e-16
1666090121415133236,0.0,0.0,0.0,0.0,0.0,-4.996003610813204e-16
1666090121466254817,0.0,0.0,0.0,0.0,0.0,-4.996003610813204e-16
1666090121516269308,0.0,0.0,0.0,0.0,0.0,-4.996003610813204e-16
1666090121565584502,0.0,0.0,0.0,0.0,0.0,-4.996003610813204e-16
1666090121615399473,0.0,0.0,0.0,0.0,0.0,-4.996003610813204e-16
1666090121665608180,0.0,0.0,0.0,0.0,0.0,-4.996003610813204e-16
1666090121716087746,0.0,0.0,0.0,0.0,0.0,-4.996003610813204e-16
1666090121765234017,0.0,0.0,0.0,0.0,0.0,-4.996003610813204e-16
1666090121815276496,0.0,0.0,0.0,0.0,0.0,-4.996003610813204e-16
1666090121865448562,0.0,0.0,0.0,0.0,0.0,-4.996003610813204e-16
1666090121915271729,0.0,0.0,0.0,0.0,0.0,-4.996003610813204e-16
1666090121966360265,0.0,0.0,0.0,0.0,0.0,-4.996003610813204e-16
1666090122015444408,0.0,0.0,0.0,0.0,0.0,-4.996003610813204e-16
1666090122065562797,0.0,0.0,0.0,0.0,0.0,-4.996003610813204e-16
1666090122115257580,0.0,0.0,0.0,0.0,0.0,-4.996003610813204e-16
1666090122166043383,0.0,0.0,0.0,0.0,0.0,-4.996003610813204e-16
1666090122215367025,0.0,0.0,0.0,0.0,0.0,-4.996003610813204e-16
1666090122265940587,0.0,0.0,0.0,0.0,0.0,-4.996003610813204e-16
1666090122315294627,0.0,0.0,0.0,0.0,0.0,-4.996003610813204e-16
1666090122365386263,0.0,0.0,0.0,0.0,0.0,-4.996003610813204e-16
1666090122415222560,0.0,0.0,0.0,0.0,0.0,-4.996003610813204e-16
1666090122465593151,0.0,0.0,0.0,0.0,0.0,-4.996003610813204e-16
1666090122515318487,0.0,0.0,0.0,0.0,0.0,-4.996003610813204e-16
1666090122566496383,0.0,0.0,0.0,0.0,0.0,-4.996003610813204e-16
1666090122615737397,0.0,0.0,0.0,0.0,0.0,-4.996003610813204e-16
1666090122666289531,0.0,0.0,0.0,0.0,0.0,-4.996003610813204e-16
1666090122715235011,0.0,0.0,0.0,0.0,0.0,-4.996003610813204e-16
1666090122765706783,0.0,0.0,0.0,0.0,0.0,-4.996003610813204e-16
1666090122816097361,0.0,0.0,0.0,0.0,0.0,-4.996003610813204e-16
1666090122865948240,0.0,0.0,0.0,0.0,0.0,-4.996003610813204e-16
1666090122916700519,0.0,0.0,0.0,0.0,0.0,-4.996003610813204e-16
1666090122965357577,0.0,0.0,0.0,0.0,0.0,-4.996003610813204e-16
1666090123015182713,0.0,0.0,0.0,0.0,0.0,-4.996003610813204e-16
1666090123065824071,0.0,0.0,0.0,0.0,0.0,-4.996003610813204e-16
1666090123115369091,0.0,0.0,0.0,0.0,0.0,-4.996003610813204e-16
1666090123169547760,0.0,0.0,0.0,0.0,0.0,-4.996003610813204e-16
1666090123215375933,0.0,0.0,0.0,0.0,0.0,-4.996003610813204e-16
1666090123265401429,0.0,0.0,0.0,0.0,0.0,-4.996003610813204e-16
1666090123315504871,0.0,0.0,0.0,0.0,0.0,-4.996003610813204e-16
1666090123366022144,0.0,0.0,0.0,0.0,0.0,-4.996003610813204e-16
1666090123415721387,0.0,0.0,0.0,0.0,0.0,-4.996003610813204e-16
1666090123466195483,0.0,0.0,0.0,0.0,0.0,-4.996003610813204e-16
1666090123515355414,0.0,0.0,0.0,0.0,0.0,-4.996003610813204e-16
1666090123565492756,0.0,0.0,0.0,0.0,0.0,-4.996003610813204e-16
1666090123615545146,0.0,0.0,0.0,0.0,0.0,0.0999999999999995
1666090123665897792,0.0,0.0,0.0,0.0,0.0,0.17453292519943245
1666090123715392809,0.0,0.0,0.0,0.0,0.0,0.17453292519943245
1666090123765414271,0.0,0.0,0.0,0.0,0.0,0.17453292519943245
1666090123815163910,0.0,0.0,0.0,0.0,0.0,0.17453292519943245
1666090123865401386,0.0,0.0,0.0,0.0,0.0,0.17453292519943245
1666090123915318696,0.0,0.0,0.0,0.0,0.0,0.17453292519943245
1666090123965653376,0.0,0.0,0.0,0.0,0.0,0.17453292519943245
1666090124015234778,0.0,0.0,0.0,0.0,0.0,0.17453292519943245
1666090124068200385,0.0,0.0,0.0,0.0,0.0,0.17453292519943245
1666090124115436414,0.0,0.0,0.0,0.0,0.0,0.17453292519943245
1666090124165611925,0.0,0.0,0.0,0.0,0.0,0.17453292519943245
1666090124215291184,0.0,0.0,0.0,0.0,0.0,0.17453292519943245
1666090124265655363,0.0,0.0,0.0,0.0,0.0,0.17453292519943245
1666090124315321607,0.0,0.0,0.0,0.0,0.0,0.17453292519943245
1666090124366031083,0.0,0.0,0.0,0.0,0.0,0.17453292519943245
1666090124415238157,0.0,0.0,0.0,0.0,0.0,0.07453292519943244
1666090124466076534,0.0,0.0,0.0,0.0,0.0,-4.996003610813204e-16
1666090124515370040,0.0,0.0,0.0,0.0,0.0,-4.996003610813204e-16
1666090124565424152,0.0,0.0,0.0,0.0,0.0,-4.996003610813204e-16
1666090124615937645,0.0,0.0,0.0,0.0,0.0,-4.996003610813204e-16
1666090124665425476,0.0,0.0,0.0,0.0,0.0,-4.996003610813204e-16
1666090124715230271,0.0,0.0,0.0,0.0,0.0,-4.996003610813204e-16
1666090124765610211,0.0,0.0,0.0,0.0,0.0,-4.996003610813204e-16
1666090124815354964,0.0,0.0,0.0,0.0,0.0,-4.996003610813204e-16
1666090124866555958,0.0,0.0,0.0,0.0,0.0,-4.996003610813204e-16
1666090124915223790,0.0,0.0,0.0,0.0,0.0,-4.996003610813204e-16
1666090124965441907,0.0,0.0,0.0,0.0,0.0,-4.996003610813204e-16
1666090125015320634,0.0,0.0,0.0,0.0,0.0,-4.996003610813204e-16
1666090125065848641,0.0,0.0,0.0,0.0,0.0,-4.996003610813204e-16
1666090125115473933,0.0,0.0,0.0,0.0,0.0,-4.996003610813204e-16
1666090125165485092,0.0,0.0,0.0,0.0,0.0,-4.996003610813204e-16
1666090125215537200,0.0,0.0,0.0,0.0,0.0,-4.996003610813204e-16
1666090125265976735,0.0,0.0,0.0,0.0,0.0,-4.996003610813204e-16
1666090125315439454,0.0,0.0,0.0,0.0,0.0,-4.996003610813204e-16
1666090125366062550,0.0,0.0,0.0,0.0,0.0,-4.996003610813204e-16
1666090125415955897,0.0,0.0,0.0,0.0,0.0,-4.996003610813204e-16
1666090125466374042,0.0,0.0,0.0,0.0,0.0,-4.996003610813204e-16
1666090125515496555,0.0,0.0,0.0,0.0,0.0,-4.996003610813204e-16
1666090125567596148,0.0,0.0,0.0,0.0,0.0,-4.996003610813204e-16
