%time,field.linear.x,field.linear.y,field.linear.z,field.angular.x,field.angular.y,field.angular.z
1666089303123399316,0.015,0.0,0.0,0.0,0.0,-0.03362404444057502
1666089303173359427,0.03,0.0,0.0,0.0,0.0,-0.06724808888115004
1666089303224894954,0.045,0.0,0.0,0.0,0.0,-0.09912945018037386
1666089303273334222,0.06,0.0,0.0,0.0,0.0,-0.13101081147959767
1666089303323362137,0.075,0.0,0.0,0.0,0.0,-0.16293290965989868
1666089303373332721,0.09,0.0,0.0,0.0,0.0,-0.20672269627170736
1666089303423385399,0.105,0.0,0.0,0.0,0.0,-0.2505557698600428
1666089303473488326,0.12,0.0,0.0,0.0,0.0,-0.29521724506365843
1666089303523335462,0.135,0.0,0.0,0.0,0.0,-0.33987872026727406
1666089303573691856,0.15000000000000002,0.0,0.0,0.0,0.0,-0.3845401954708897
1666089303623411890,0.16500000000000004,0.0,0.0,0.0,0.0,-0.4138478738156276
1666089303673767659,0.18000000000000005,0.0,0.0,0.0,0.0,-0.4431555521603655
1666089303723273890,0.19500000000000006,0.0,0.0,0.0,0.0,-0.47287773506406083
1666089303773430157,0.21000000000000008,0.0,0.0,0.0,0.0,-0.5025999179677562
1666089303823422886,0.2250000000000001,0.0,0.0,0.0,0.0,-0.5323221008714515
1666089303875222595,0.2400000000000001,0.0,0.0,0.0,0.0,-0.5627430938828036
1666089303923216434,0.2550000000000001,0.0,0.0,0.0,0.0,-0.5931640868941558
1666089303973335381,0.27000000000000013,0.0,0.0,0.0,0.0,-0.6238901439708294
1666089304023897773,0.28500000000000014,0.0,0.0,0.0,0.0,-0.6549654865569114
1666089304073489607,0.30000000000000016,0.0,0.0,0.0,0.0,-0.7436414761748462
1666089304123793392,0.31500000000000017,0.0,0.0,0.0,0.0,-0.8406290610109798
1666089304173300505,0.3277930894560054,0.0,0.0,0.0,0.0,-0.9406290610109798
1666089304224021742,0.3405861789120106,0.0,0.0,0.0,0.0,-1.0406290610109799
1666089304273383914,0.3555861789120106,0.0,0.0,0.0,0.0,-1.0415496955907813
1666089304323190643,0.3705861789120106,0.0,0.0,0.0,0.0,-1.0424703301705827
1666089304373403903,0.38558617891201064,0.0,0.0,0.0,0.0,-1.0434997242643365
1666089304423698370,0.40058617891201065,0.0,0.0,0.0,0.0,-1.0445291183580903
1666089304473232865,0.41558617891201066,0.0,0.0,0.0,0.0,-1.0457943377817784
1666089304523228620,0.4159705340862274,0.0,0.0,0.0,0.0,-1.0471975511965983
1666089304574056216,0.4159705340862274,0.0,0.0,0.0,0.0,-1.0471975511965983
1666089304624198562,0.39696311950683594,0.0,0.0,0.0,0.0,-1.0471975511965983
1666089304673374538,0.39696311950683594,0.0,0.0,0.0,0.0,-1.0471975511965983
1666089304724100110,0.24696311950683592,0.0,0.0,0.0,0.0,-0.9217140774656617
1666089304773997035,0.0969631195068359,0.0,0.0,0.0,0.0,-0.7962306037347251
1666089304823577633,0.0,0.0,0.0,0.0,0.0,-0.6981317007977323
1666089304874098555,0.0,0.0,0.0,0.0,0.0,-0.6379656504114041
1666089304923330552,0.0,0.0,0.0,0.0,0.0,-0.6379656504114041
1666089304974430305,0.0,0.0,0.0,0.0,0.0,-0.5876543483270027
1666089305023393841,0.0,0.0,0.0,0.0,0.0,-0.5423978878969233
1666089305073516394,0.0,0.0,0.0,0.0,0.0,-0.5423978878969233
1666089305123689336,0.0,0.0,0.0,0.0,0.0,-0.4396474840839769
1666089305173568612,0.0,0.0,0.0,0.0,0.0,-0.392698394539334
1666089305223152308,0.0,0.0,0.0,0.0,0.0,-0.392698394539334
1666089305273819033,0.0,0.0,0.0,0.0,0.0,-0.392698394539334
1666089305323960713,0.0,0.0,0.0,0.0,0.0,0.0
1666089305374434441,0.0,0.0,0.0,0.0,0.0,-0.1
1666089305423382749,0.0,0.0,0.0,0.0,0.0,-0.2
1666089305473711690,0.0,0.0,0.0,0.0,0.0,-0.23829383421053724
1666089305523452773,0.0,0.0,0.0,0.0,0.0,-0.2370372237636278
1666089305573511171,0.0,0.0,0.0,0.0,0.0,-0.2370372237636278
1666089305623742452,0.0,0.0,0.0,0.0,0.0,-0.2370372237636278
1666089305674373733,0.0,0.0,0.0,0.0,0.0,-0.22443688935806538
1666089305723173071,0.0,0.0,0.0,0.0,0.0,-0.22443688935806538
1666089305774367259,0.0,0.0,0.0,0.0,0.0,-0.22443688935806538
1666089305823541113,0.0,0.0,0.0,0.0,0.0,-0.2522542693638805
1666089305873571755,0.0,0.0,0.0,0.0,0.0,-0.26379987481741074
1666089305923782979,0.0,0.0,0.0,0.0,0.0,-0.26156001756325015
1666089305974085383,0.0,0.0,0.0,0.0,0.0,-0.26156001756325015
1666089306023297470,0.0,0.0,0.0,0.0,0.0,-0.2839110059091129
1666089306073382257,0.0,0.0,0.0,0.0,0.0,-0.2839110059091129
1666089306123237144,0.0,0.0,0.0,0.0,0.0,-0.309511888186848
1666089306173541971,0.0,0.0,0.0,0.0,0.0,-0.309511888186848
1666089306223443050,0.0,0.0,0.0,0.0,0.0,-0.309511888186848
1666089306273580365,0.0,0.0,0.0,0.0,0.0,-0.35863175586554696
1666089306323263779,0.0,0.0,0.0,0.0,0.0,-0.37530438144354084
1666089306373558543,0.0,0.0,0.0,0.0,0.0,-0.39620120043272744
1666089306423236074,0.0,0.0,0.0,0.0,0.0,-0.39620120043272744
1666089306473575342,0.0,0.0,0.0,0.0,0.0,-0.42838157857835335
1666089306523209197,0.0,0.0,0.0,0.0,0.0,-0.42838157857835335
1666089306573590767,0.0,0.0,0.0,0.0,0.0,-0.44626261735825284
1666089306623798641,0.0,0.0,0.0,0.0,0.0,-0.4615500314874059
1666089306673128279,0.0,0.0,0.0,0.0,0.0,-0.4615500314874059
1666089306723399148,0.0,0.0,0.0,0.0,0.0,-0.4838890389311146
1666089306774057003,0.0,0.0,0.0,0.0,0.0,-0.49944067238306145
1666089306823265842,0.0,0.0,0.0,0.0,0.0,-0.5286443404965949
1666089306873183471,0.0,0.0,0.0,0.0,0.0,-0.5286443404965949
1666089306923215287,0.0,0.0,0.0,0.0,0.0,-0.555910829911604
1666089306973722330,0.0,0.0,0.0,0.0,0.0,-0.5777575452785982
1666089307023293412,0.0,0.0,0.0,0.0,0.0,-0.5873819643965298
1666089307073335008,0.0,0.0,0.0,0.0,0.0,-0.5873819643965298
1666089307123300890,0.0,0.0,0.0,0.0,0.0,-0.60622018346478
1666089307177959336,0.0,0.0,0.0,0.0,0.0,-0.60622018346478
1666089307223369252,0.0,0.0,0.0,0.0,0.0,-0.6246879513105135
1666089307273158001,0.0,0.0,0.0,0.0,0.0,-0.6240081724801914
1666089307323295025,0.0,0.0,0.0,0.0,0.0,-0.631935256820394
1666089307373610810,0.0,0.0,0.0,0.0,0.0,-0.631935256820394
1666089307423457694,0.0,0.0,0.0,0.0,0.0,-0.6095458541534459
1666089307473218713,0.0,0.0,0.0,0.0,0.0,-0.6095458541534459
1666089307525621554,0.0,0.0,0.0,0.0,0.0,-0.6095458541534459
1666089307573339939,0.0,0.0,0.0,0.0,0.0,-0.5516391585440429
1666089307623230382,0.0,0.0,0.0,0.0,0.0,-0.5517807099602191
1666089307677740397,0.0,0.0,0.0,0.0,0.0,-0.5375235357338617
1666089307723398614,0.0,0.0,0.0,0.0,0.0,-0.5375235357338617
1666089307773219930,0.0,0.0,0.0,0.0,0.0,-0.5375235357338617
1666089307823358610,0.0,0.0,0.0,0.0,0.0,-0.5288774033768469
1666089307873624200,0.0,0.0,0.0,0.0,0.0,-0.4755372606267486
1666089307923215276,0.0,0.0,0.0,0.0,0.0,-0.4755372606267486
1666089307973732705,0.0,0.0,0.0,0.0,0.0,-0.4507339993456837
1666089308023974960,0.0,0.0,0.0,0.0,0.0,-0.42071818793283366
1666089308073129567,0.0,0.0,0.0,0.0,0.0,-0.42071818793283366
1666089308123794534,0.0,0.0,0.0,0.0,0.0,-0.42071818793283366
1666089308173160757,0.0,0.0,0.0,0.0,0.0,-0.3923437957794005
1666089308223247825,0.0,0.0,0.0,0.0,0.0,-0.3842745771903025
1666089308273317046,0.0,0.0,0.0,0.0,0.0,-0.36960322642826604
1666089308323224761,0.0,0.0,0.0,0.0,0.0,-0.36960322642826604
1666089308373182459,0.015,0.0,0.0,0.0,0.0,-0.35460177023194217
1666089308424068441,0.03,0.0,0.0,0.0,0.0,-0.3396003140356183
1666089308473260306,0.045,0.0,0.0,0.0,0.0,-0.3263225283967068
1666089308523264564,0.06,0.0,0.0,0.0,0.0,-0.32002336650254537
1666089308573210997,0.075,0.0,0.0,0.0,0.0,-0.30967257604700116
1666089308623196591,0.09,0.0,0.0,0.0,0.0,-0.2993390477048212
1666089308673143794,0.105,0.0,0.0,0.0,0.0,-0.2890055193626413
1666089308723486203,0.12,0.0,0.0,0.0,0.0,-0.2836969030058861
1666089308773353964,0.135,0.0,0.0,0.0,0.0,-0.27838828664913096
1666089308823284168,0.15000000000000002,0.0,0.0,0.0,0.0,-0.27483875388984935
1666089308873291129,0.16500000000000004,0.0,0.0,0.0,0.0,-0.2713531339759281
1666089308923226493,0.18000000000000005,0.0,0.0,0.0,0.0,-0.2678675140620068
1666089308973689390,0.19500000000000006,0.0,0.0,0.0,0.0,-0.2645100050410235
1666089309023339480,0.21000000000000008,0.0,0.0,0.0,0.0,-0.26755738469281143
1666089309073134854,0.2250000000000001,0.0,0.0,0.0,0.0,-0.27060476434459935
1666089309123152200,0.2400000000000001,0.0,0.0,0.0,0.0,-0.2667805039910587
1666089309173207228,0.2550000000000001,0.0,0.0,0.0,0.0,-0.262956243637518
1666089309223256948,0.27000000000000013,0.0,0.0,0.0,0.0,-0.2590315317576837
1666089309273417987,0.28500000000000014,0.0,0.0,0.0,0.0,-0.2549397690908792
1666089309323118983,0.30000000000000016,0.0,0.0,0.0,0.0,-0.2508480064240747
1666089309373365628,0.31500000000000017,0.0,0.0,0.0,0.0,-0.23609377862696831
1666089309423305859,0.3300000000000002,0.0,0.0,0.0,0.0,-0.22133955082986195
1666089309473758073,0.3450000000000002,0.0,0.0,0.0,0.0,-0.21840747516881642
1666089309523430840,0.3600000000000002,0.0,0.0,0.0,0.0,-0.2154753995077709
1666089309573281968,0.3750000000000002,0.0,0.0,0.0,0.0,-0.21254332384672536
1666089309623624005,0.39000000000000024,0.0,0.0,0.0,0.0,-0.20960822348601382
1666089309673309602,0.40500000000000025,0.0,0.0,0.0,0.0,-0.20667312312530228
1666089309723404090,0.42000000000000026,0.0,0.0,0.0,0.0,-0.20083435144191797
1666089309773253681,0.4350000000000003,0.0,0.0,0.0,0.0,-0.17296013289197393
1666089309823189523,0.4500000000000003,0.0,0.0,0.0,0.0,-0.14508591434202986
1666089309873885193,0.4650000000000003,0.0,0.0,0.0,0.0,-0.14612330905300874
1666089309923421400,0.4800000000000003,0.0,0.0,0.0,0.0,-0.14716070376398765
1666089309973825883,0.49500000000000033,0.0,0.0,0.0,0.0,-0.14845146212027874
1666089310023273576,0.5100000000000003,0.0,0.0,0.0,0.0,-0.14993574810460739
1666089310073233736,0.48247385025024414,0.0,0.0,0.0,0.0,-0.04913761094212532
1666089310123524644,0.48247385025024414,0.0,0.0,0.0,0.0,-0.04913761094212532
1666089310173187426,0.4726015329360962,0.0,0.0,0.0,0.0,-0.04826473444700241
1666089310223870088,0.4738809168338775,0.0,0.0,0.0,0.0,-0.048135582357645035
1666089310273718248,0.4624421000480652,0.0,0.0,0.0,0.0,-0.04383024200797081
1666089310323174352,0.4624421000480652,0.0,0.0,0.0,0.0,-0.04383024200797081
1666089310373202523,0.4774421000480652,0.0,0.0,0.0,0.0,-0.07499858801037702
1666089310423297025,0.4924421000480652,0.0,0.0,0.0,0.0,-0.10616693401278324
1666089310473958126,0.5074421000480652,0.0,0.0,0.0,0.0,-0.1373352800151895
1666089310523245317,0.44917890429496765,0.0,0.0,0.0,0.0,-0.04139305278658867
1666089310573234835,0.46417890429496766,0.0,0.0,0.0,0.0,-0.07232852511545257
1666089310624654265,0.4791789042949677,0.0,0.0,0.0,0.0,-0.11117588106650557
1666089310673294241,0.4935424029827118,0.0,0.0,0.0,0.0,-0.14837481081485748
1666089310723245083,0.4252538681030273,0.0,0.0,0.0,0.0,-0.03968742862343788
1666089310773458108,0.4291676878929138,0.0,0.0,0.0,0.0,-0.042785532772541046
1666089310823411062,0.42881232500076294,0.0,0.0,0.0,0.0,-0.04269826412200928
1666089310873230273,0.42881232500076294,0.0,0.0,0.0,0.0,-0.04269826412200928
1666089310923347408,0.44381232500076295,0.0,0.0,0.0,0.0,-0.06882880227436203
1666089310973601178,0.45881232500076297,0.0,0.0,0.0,0.0,-0.09585313608461751
1666089311024402627,0.473812325000763,0.0,0.0,0.0,0.0,-0.12555534844769023
1666089311073224046,0.488812325000763,0.0,0.0,0.0,0.0,-0.15525756081076295
1666089311123178960,0.4889772236347198,0.0,0.0,0.0,0.0,-0.16323740780353546
1666089311173581062,0.4886928796768188,0.0,0.0,0.0,0.0,-0.1637854427099228
1666089311223295696,0.4830042719841003,0.0,0.0,0.0,0.0,-0.1670493483543396
1666089311273218127,0.4830042719841003,0.0,0.0,0.0,0.0,-0.1670493483543396
1666089311323401255,0.48108638307705914,0.0,0.0,0.0,0.0,-0.2670493483543396
1666089311373263395,0.479168494170018,0.0,0.0,0.0,0.0,-0.36704934835433956
1666089311423575990,0.47569622914116677,0.0,0.0,0.0,0.0,-0.46704934835433953
1666089311473251088,0.4692720320869802,0.0,0.0,0.0,0.0,-0.5670493483543395
1666089311523290487,0.46284783503279364,0.0,0.0,0.0,0.0,-0.6670493483543395
1666089311573682650,0.4527755081653595,0.0,0.0,0.0,0.0,-0.6981317007977323
1666089311623382819,0.4527755081653595,0.0,0.0,0.0,0.0,-0.6981317007977323
1666089311673545545,0.4417872130870819,0.0,0.0,0.0,0.0,-0.6981317007977323
1666089311723309338,0.44164505600929255,0.0,0.0,0.0,0.0,-0.6981317007977323
1666089311773169709,0.43976058974181315,0.0,0.0,0.0,0.0,-0.7981317007977323
1666089311823213124,0.43835604190826416,0.0,0.0,0.0,0.0,-0.8726646259971653
1666089311873218689,0.4388369917869568,0.0,0.0,0.0,0.0,-0.8726646259971653
1666089311923245377,0.4388369917869568,0.0,0.0,0.0,0.0,-0.8726646259971653
1666089311973819061,0.4398755431175232,0.0,0.0,0.0,0.0,-0.8726646259971653
1666089312023177456,0.4398755431175232,0.0,0.0,0.0,0.0,-0.8726646259971653
1666089312073221414,0.44177886843681335,0.0,0.0,0.0,0.0,-0.8726646259971653
1666089312123182663,0.44177886843681335,0.0,0.0,0.0,0.0,-0.8726646259971653
1666089312173487882,0.4301117062568664,0.0,0.0,0.0,0.0,-0.8726646259971653
1666089312223243738,0.4301117062568664,0.0,0.0,0.0,0.0,-0.8726646259971653
1666089312273342304,0.31455770134925837,0.0,0.0,0.0,0.0,-0.6981317007977323
1666089312323193590,0.31455770134925837,0.0,0.0,0.0,0.0,-0.6981317007977323
1666089312373127572,0.3295577013492584,0.0,0.0,0.0,0.0,-0.6981317007977323
1666089312423759405,0.3445577013492584,0.0,0.0,0.0,0.0,-0.6981317007977323
1666089312473315410,0.3595577013492584,0.0,0.0,0.0,0.0,-0.6981317007977323
1666089312523507477,0.20955770134925839,0.0,0.0,0.0,0.0,-0.5776805317422575
1666089312573189198,0.05955770134925836,0.0,0.0,0.0,0.0,-0.45722936268678266
1666089312623690769,0.0,0.0,0.0,0.0,0.0,-0.35300174793485234
1666089312673580037,0.0,0.0,0.0,0.0,0.0,-0.29250220681002587
1666089312723159941,0.0,0.0,0.0,0.0,0.0,-0.29250220681002587
1666089312773308595,0.0,0.0,0.0,0.0,0.0,-0.17453292519943345
1666089312823410000,0.0,0.0,0.0,0.0,0.0,-0.17453292519943345
1666089312873202874,0.0,0.0,0.0,0.0,0.0,-0.17453292519943345
1666089312923405238,0.0,0.0,0.0,0.0,0.0,-4.996003610813204e-16
1666089312973273167,0.0,0.0,0.0,0.0,0.0,-4.996003610813204e-16
1666089313023352322,0.0,0.0,0.0,0.0,0.0,-4.996003610813204e-16
1666089313073242322,0.0,0.0,0.0,0.0,0.0,-4.996003610813204e-16
1666089313123466804,0.015,0.0,0.0,0.0,0.0,-0.001392502043636401
1666089313173220886,0.03,0.0,0.0,0.0,0.0,-0.0027850040872723024
1666089313223222429,0.045,0.0,0.0,0.0,0.0,-0.0037610735081164896
1666089313273408491,0.06,0.0,0.0,0.0,0.0,-0.00024188306530388082
1666089313323583920,0.075,0.0,0.0,0.0,0.0,-0.0006532222399585504
1666089313375085925,0.09,0.0,0.0,0.0,0.0,-0.00106456141461322
1666089313423284521,0.105,0.0,0.0,0.0,0.0,-0.0014759005892678893
1666089313473856471,0.12,0.0,0.0,0.0,0.0,-0.001699247611394577
1666089313523310932,0.135,0.0,0.0,0.0,0.0,-0.0018979107795866331
1666089313573181175,0.15000000000000002,0.0,0.0,0.0,0.0,-0.0020965739477786893
1666089313623599765,0.16500000000000004,0.0,0.0,0.0,0.0,-0.0022952371159707455
1666089313673202562,0.18000000000000005,0.0,0.0,0.0,0.0,-0.0025601094559946145
1666089313723294287,0.19500000000000006,0.0,0.0,0.0,0.0,-0.002673198565689309
1666089313773111584,0.21000000000000008,0.0,0.0,0.0,0.0,-0.0027862876753840036
1666089313823399763,0.2250000000000001,0.0,0.0,0.0,0.0,-0.002965398776312137
1666089313873600044,0.2400000000000001,0.0,0.0,0.0,0.0,-0.0032486421323614898
1666089313923162230,0.2550000000000001,0.0,0.0,0.0,0.0,-0.0035318854884108424
1666089313973144480,0.27000000000000013,0.0,0.0,0.0,0.0,-0.0038151288444601954
1666089314023208205,0.28500000000000014,0.0,0.0,0.0,0.0,-0.004031742512086906
1666089314074426766,0.30000000000000016,0.0,0.0,0.0,0.0,-0.004393317129544771
1666089314123171331,0.31500000000000017,0.0,0.0,0.0,0.0,-0.004777913880003748
1666089314173393417,0.3300000000000002,0.0,0.0,0.0,0.0,-0.005162510630462725
1666089314223971704,0.3450000000000002,0.0,0.0,0.0,0.0,-0.005709052831876889
1666089314273448546,0.3600000000000002,0.0,0.0,0.0,0.0,-0.006255595033291052
1666089314323663063,0.3750000000000002,0.0,0.0,0.0,0.0,-0.006802137234705216
1666089314373192105,0.39000000000000024,0.0,0.0,0.0,0.0,-0.007335680433904105
1666089314423402718,0.40500000000000025,0.0,0.0,0.0,0.0,-0.008097935271137441
1666089314473201162,0.42000000000000026,0.0,0.0,0.0,0.0,-0.008860190108370778
1666089314523464297,0.4350000000000003,0.0,0.0,0.0,0.0,-0.009678399235289766
1666089314573704049,0.4500000000000003,0.0,0.0,0.0,0.0,-0.010496608362208754
1666089314623664099,0.4650000000000003,0.0,0.0,0.0,0.0,-0.011370124668045318
1666089314673976598,0.4800000000000003,0.0,0.0,0.0,0.0,-0.012239361571442266
1666089314723323565,0.49500000000000033,0.0,0.0,0.0,0.0,-0.013108598474839214
1666089314773163410,0.5100000000000003,0.0,0.0,0.0,0.0,-0.01392083960843126
1666089314823187960,0.5250000000000004,0.0,0.0,0.0,0.0,-0.014733080742023306
1666089314873332731,0.5400000000000004,0.0,0.0,0.0,0.0,-0.015474174624654015
1666089314923442121,0.5550000000000004,0.0,0.0,0.0,0.0,-0.015943601091288687
1666089314973795671,0.5700000000000004,0.0,0.0,0.0,0.0,-0.016436178828663665
1666089315023194629,0.5850000000000004,0.0,0.0,0.0,0.0,-0.01657564813702791
1666089315073465413,0.6000000000000004,0.0,0.0,0.0,0.0,-0.01671511744539216
1666089315127231226,0.6122583150863647,0.0,0.0,0.0,0.0,-0.014526847749948502
1666089315174078693,0.5905532240867615,0.0,0.0,0.0,0.0,-0.01210272591561079
1666089315223444849,0.5905532240867615,0.0,0.0,0.0,0.0,-0.01210272591561079
1666089315273116248,0.5905532240867615,0.0,0.0,0.0,0.0,-0.01210272591561079
1666089315323421506,0.5870720233902655,0.0,0.0,0.0,0.0,0.08789727408438922
1666089315373903589,0.5866701602935791,0.0,0.0,0.0,0.0,0.09944108128547668
1666089315423791243,0.5496527422977692,0.0,0.0,0.0,0.0,-0.000558918714523321
1666089315473361952,0.5555965605342098,0.0,0.0,0.0,0.0,0.09944108128547668
1666089315523166809,0.5560787916183472,0.0,0.0,0.0,0.0,0.10755423456430435
1666089315575199425,0.4789802730083465,0.0,0.0,0.0,0.0,0.003428496653214097
1666089315623346075,0.4773455262184143,0.0,0.0,0.0,0.0,0.0032609449699521065
1666089315673773845,0.4773455262184143,0.0,0.0,0.0,0.0,0.0032609449699521065
1666089315723377321,0.4234117567539215,0.0,0.0,0.0,0.0,0.003228374058380723
1666089315773472124,0.4384117567539215,0.0,0.0,0.0,0.0,0.0899825129907979
1666089315823320498,0.4435380697250366,0.0,0.0,0.0,0.0,0.11963110417127609
1666089315873635903,0.4197777211666107,0.0,0.0,0.0,0.0,0.11994742602109909
1666089315923332505,0.4197777211666107,0.0,0.0,0.0,0.0,0.11994742602109909
1666089315973624078,0.2697777211666107,0.0,0.0,0.0,0.0,0.18890054615193438
1666089316023512345,0.11977772116661067,0.0,0.0,0.0,0.0,0.26618976016254664
1666089316073165217,0.0,0.0,0.0,0.0,0.0,0.32790659966221075
1666089316123151305,0.0,0.0,0.0,0.0,0.0,0.33992273226360115
1666089316173303259,0.0,0.0,0.0,0.0,0.0,0.33992273226360115
1666089316223491416,0.0,0.0,0.0,0.0,0.0,0.3490658503988654
1666089316273453432,0.0,0.0,0.0,0.0,0.0,0.3497390865247829
1666089316323514882,0.0,0.0,0.0,0.0,0.0,0.3497390865247829
1666089316373270441,0.0,0.0,0.0,0.0,0.0,0.3592235514328235
1666089316423198824,0.0,0.0,0.0,0.0,0.0,0.3592271410426289
1666089316473463604,0.0,0.0,0.0,0.0,0.0,0.3592271410426289
1666089316523389708,0.0,0.0,0.0,0.0,0.0,0.3592271410426289
1666089316573220933,0.0,0.0,0.0,0.0,0.0,0.36167888752387245
1666089316623166937,0.0,0.0,0.0,0.0,0.0,0.3515300976982719
1666089316673234745,0.0,0.0,0.0,0.0,0.0,0.3515300976982719
1666089316723659879,0.015,0.0,0.0,0.0,0.0,0.3379171666143714
1666089316773293668,0.03,0.0,0.0,0.0,0.0,0.33088328559614716
1666089316823214054,0.045,0.0,0.0,0.0,0.0,0.32384940457792294
1666089316873528574,0.06,0.0,0.0,0.0,0.0,0.31152785668704513
1666089316923378568,0.075,0.0,0.0,0.0,0.0,0.29920630879616733
1666089316973887253,0.09,0.0,0.0,0.0,0.0,0.28864373793005516
1666089317023189322,0.105,0.0,0.0,0.0,0.0,0.278081167063943
1666089317073376418,0.12,0.0,0.0,0.0,0.0,0.2682072636873908
1666089317123439676,0.135,0.0,0.0,0.0,0.0,0.2589223387767423
1666089317173296030,0.15000000000000002,0.0,0.0,0.0,0.0,0.24963741386609387
1666089317225741593,0.16500000000000004,0.0,0.0,0.0,0.0,0.24142296497826268
1666089317273627025,0.18000000000000005,0.0,0.0,0.0,0.0,0.23316935708095046
1666089317323340138,0.19500000000000006,0.0,0.0,0.0,0.0,0.22540786448356878
1666089317373187358,0.21000000000000008,0.0,0.0,0.0,0.0,0.21796071565677513
1666089317423394663,0.2250000000000001,0.0,0.0,0.0,0.0,0.21051356682998149
1666089317473319092,0.2400000000000001,0.0,0.0,0.0,0.0,0.20345274318144616
1666089317523243158,0.2550000000000001,0.0,0.0,0.0,0.0,0.19639191953291082
1666089317573260017,0.27000000000000013,0.0,0.0,0.0,0.0,0.18983677921551925
1666089317623268715,0.28500000000000014,0.0,0.0,0.0,0.0,0.18328163889812768
1666089317673695502,0.30000000000000016,0.0,0.0,0.0,0.0,0.17728552646272902
1666089317723408824,0.31500000000000017,0.0,0.0,0.0,0.0,0.17128941402733036
1666089317773680086,0.3300000000000002,0.0,0.0,0.0,0.0,0.1558311244507831
1666089317823131414,0.3450000000000002,0.0,0.0,0.0,0.0,0.14076479206429107
1666089317873807566,0.3600000000000002,0.0,0.0,0.0,0.0,0.12569845967779905
1666089317923282016,0.3750000000000002,0.0,0.0,0.0,0.0,0.11094358818004983
1666089317973205447,0.39000000000000024,0.0,0.0,0.0,0.0,0.09659267614433975
1666089318023617792,0.40500000000000025,0.0,0.0,0.0,0.0,0.08224176410862967
1666089318075883377,0.42000000000000026,0.0,0.0,0.0,0.0,0.06802314786438832
1666089318123331420,0.4350000000000003,0.0,0.0,0.0,0.0,0.053886217292777705
1666089318173339682,0.4500000000000003,0.0,0.0,0.0,0.0,0.03947974721188533
1666089318223464846,0.4650000000000003,0.0,0.0,0.0,0.0,0.025073277130992958
1666089318273295013,0.4800000000000003,0.0,0.0,0.0,0.0,0.010312902252937189
1666089318323618043,0.49500000000000033,0.0,0.0,0.0,0.0,-0.004447472625118581
1666089318373131752,0.5100000000000003,0.0,0.0,0.0,0.0,-0.019890036236403362
1666089318423611120,0.5250000000000004,0.0,0.0,0.0,0.0,-0.03340049004533947
1666089318473746701,0.5400000000000004,0.0,0.0,0.0,0.0,-0.046910943854275584
1666089318523209824,0.5550000000000004,0.0,0.0,0.0,0.0,-0.06536690362821566
1666089318573829059,0.5700000000000004,0.0,0.0,0.0,0.0,-0.05247710289405062
1666089318623365163,0.5850000000000004,0.0,0.0,0.0,0.0,-0.031989388227047375
1666089318673743500,0.6000000000000004,0.0,0.0,0.0,0.0,-0.011501673560044112
1666089318723364215,0.6150000000000004,0.0,0.0,0.0,0.0,0.01336019766993539
1666089318773396477,0.6300000000000004,0.0,0.0,0.0,0.0,0.09623364123227159
1666089318823261496,0.6207637190818786,0.0,0.0,0.0,0.0,0.11666043102741241
1666089318873357267,0.578823447227478,0.0,0.0,0.0,0.0,0.013920300640165806
1666089318924145654,0.578823447227478,0.0,0.0,0.0,0.0,0.013920300640165806
1666089318973249592,0.5661719441413879,0.0,0.0,0.0,0.0,0.011577474884688854
1666089319023449772,0.5661719441413879,0.0,0.0,0.0,0.0,0.011577474884688854
1666089319073351243,0.581171944141388,0.0,0.0,0.0,0.0,0.10162453227060754
1666089319123330099,0.5387157201766968,0.0,0.0,0.0,0.0,0.008051573298871517
1666089319173375658,0.5280075219296524,0.0,0.0,0.0,0.0,0.10805157329887152
1666089319223796917,0.5208885669708252,0.0,0.0,0.0,0.0,0.17453292519943245
1666089319273526508,0.5082652504034286,0.0,0.0,0.0,0.0,0.27453292519943245
1666089319323206933,0.49885672330856323,0.0,0.0,0.0,0.0,0.3490658503988654
1666089319373206336,0.4779263138771057,0.0,0.0,0.0,0.0,0.3490658503988654
1666089319423382036,0.4590131640434265,0.0,0.0,0.0,0.0,0.3490658503988654
1666089319473632835,0.4405178129673004,0.0,0.0,0.0,0.0,0.3490658503988654
1666089319523382359,0.4405178129673004,0.0,0.0,0.0,0.0,0.3490658503988654
1666089319574278995,0.4405178129673004,0.0,0.0,0.0,0.0,0.3490658503988654
1666089319623467843,0.42744526267051697,0.0,0.0,0.0,0.0,0.3490658503988654
1666089319673217967,0.4179652333259582,0.0,0.0,0.0,0.0,0.3490658503988654
1666089319723302907,0.4179652333259582,0.0,0.0,0.0,0.0,0.3490658503988654
1666089319773200056,0.4179652333259582,0.0,0.0,0.0,0.0,0.3490658503988654
1666089319823694805,0.4329652333259582,0.0,0.0,0.0,0.0,0.3490658503988654
1666089319873572991,0.40508392453193665,0.0,0.0,0.0,0.0,0.3490658503988654
1666089319923264771,0.406496524810791,0.0,0.0,0.0,0.0,0.3490658503988654
1666089319973202282,0.4034610986709595,0.0,0.0,0.0,0.0,0.3490658503988654
1666089320023157965,0.4034610986709595,0.0,0.0,0.0,0.0,0.3490658503988654
1666089320073138853,0.4034610986709595,0.0,0.0,0.0,0.0,0.3490658503988654
1666089320123676412,0.3981143832206726,0.0,0.0,0.0,0.0,0.3490658503988654
1666089320173169471,0.3981143832206726,0.0,0.0,0.0,0.0,0.3490658503988654
1666089320223533889,0.39437028765678406,0.0,0.0,0.0,0.0,0.3490658503988654
1666089320273548277,0.39033475518226624,0.0,0.0,0.0,0.0,0.17453292519943245
1666089320323551731,0.39033475518226624,0.0,0.0,0.0,0.0,0.17453292519943245
1666089320373308949,0.39033475518226624,0.0,0.0,0.0,0.0,0.17453292519943245
1666089320423492830,0.38792118430137634,0.0,0.0,0.0,0.0,0.17453292519943245
1666089320473409707,0.38534495234489435,0.0,0.0,0.0,0.0,0.17453292519943245
1666089320523221761,0.38534495234489435,0.0,0.0,0.0,0.0,0.17453292519943245
1666089320573369902,0.23534495234489433,0.0,0.0,0.0,0.0,0.10659395617802646
1666089320624281710,0.08534495234489431,0.0,0.0,0.0,0.0,0.03865498715662047
1666089320673279076,0.10034495234489431,0.0,0.0,0.0,0.0,0.03676735606769471
1666089320723325589,0.11534495234489431,0.0,0.0,0.0,0.0,0.034879724978768956
1666089320774271087,0.0,0.0,0.0,0.0,0.0,-4.996003610813204e-16
1666089320823521053,0.0,0.0,0.0,0.0,0.0,-4.996003610813204e-16
1666089320873178438,0.0,0.0,0.0,0.0,0.0,-4.996003610813204e-16
1666089320923455610,0.0,0.0,0.0,0.0,0.0,-4.996003610813204e-16
1666089320974053317,0.0,0.0,0.0,0.0,0.0,-4.996003610813204e-16
1666089321023233257,0.0,0.0,0.0,0.0,0.0,-4.996003610813204e-16
1666089321073126811,0.0,0.0,0.0,0.0,0.0,-0.1000000000000005
1666089321123337509,0.0,0.0,0.0,0.0,0.0,-0.17453292519943345
1666089321173212418,0.015,0.0,0.0,0.0,0.0,-0.17156206698863627
1666089321223517465,0.03,0.0,0.0,0.0,0.0,-0.1685912087778391
1666089321273320097,0.045,0.0,0.0,0.0,0.0,-0.1604502751112965
1666089321323298995,0.06,0.0,0.0,0.0,0.0,-0.15230934144475392
1666089321373276025,0.075,0.0,0.0,0.0,0.0,-0.15011477188760083
1666089321423492434,0.09,0.0,0.0,0.0,0.0,-0.14792020233044775
1666089321473302506,0.105,0.0,0.0,0.0,0.0,-0.14585129935074406
1666089321524567539,0.12,0.0,0.0,0.0,0.0,-0.13784244564653172
1666089321574876114,0.135,0.0,0.0,0.0,0.0,-0.13013618235072874
1666089321623978446,0.15000000000000002,0.0,0.0,0.0,0.0,-0.12242991905492577
1666089321673617795,0.16500000000000004,0.0,0.0,0.0,0.0,-0.12173346932981767
1666089321723227236,0.18000000000000005,0.0,0.0,0.0,0.0,-0.12103701960470957
1666089321773355923,0.19500000000000006,0.0,0.0,0.0,0.0,-0.12365159826286021
1666089321823216001,0.21000000000000008,0.0,0.0,0.0,0.0,-0.12301284880462442
1666089321873488114,0.2250000000000001,0.0,0.0,0.0,0.0,-0.12237409934638864
1666089321923672293,0.2400000000000001,0.0,0.0,0.0,0.0,-0.12174271256289339
1666089321973653954,0.2550000000000001,0.0,0.0,0.0,0.0,-0.11484404289536526
1666089322023269000,0.27000000000000013,0.0,0.0,0.0,0.0,-0.10794537322783714
1666089322073180239,0.28500000000000014,0.0,0.0,0.0,0.0,-0.10744148185316828
1666089322123260120,0.30000000000000016,0.0,0.0,0.0,0.0,-0.10693759047849942
1666089322173342371,0.31500000000000017,0.0,0.0,0.0,0.0,-0.10643369910383056
1666089322223764261,0.3300000000000002,0.0,0.0,0.0,0.0,-0.1059880858400823
1666089322273966497,0.3450000000000002,0.0,0.0,0.0,0.0,-0.10554247257633405
1666089322323809491,0.3600000000000002,0.0,0.0,0.0,0.0,-0.10006068407329738
1666089322373285354,0.3750000000000002,0.0,0.0,0.0,0.0,-0.09457889557026071
1666089322423776444,0.2250000000000002,0.0,0.0,0.0,0.0,-0.09527037116678484
1666089322473272312,0.1,0.0,0.0,0.0,0.0,-0.09233150631189346
1666089322523179825,0.1,0.0,0.0,0.0,0.0,-0.09233150631189346
1666089322573217755,0.115,0.0,0.0,0.0,0.0,-0.0851734836324008
1666089322623395556,0.13,0.0,0.0,0.0,0.0,-0.07801546095290815
1666089322673207884,0.1,0.0,0.0,0.0,0.0,-0.09854066371917725
1666089322723287878,0.1,0.0,0.0,0.0,0.0,-0.09782792627811432
1666089322773153556,0.1,0.0,0.0,0.0,0.0,-0.09782792627811432
1666089322823613140,0.115,0.0,0.0,0.0,0.0,-0.09013977444441171
1666089322873142104,0.13,0.0,0.0,0.0,0.0,-0.0824516226107091
1666089322923620097,0.14500000000000002,0.0,0.0,0.0,0.0,-0.07482268974136996
1666089322973204463,0.16000000000000003,0.0,0.0,0.0,0.0,-0.06719375687203083
1666089323023656068,0.10410241765895759,0.0,0.0,0.0,0.0,-0.16719375687203084
1666089323073415279,0.1,0.0,0.0,0.0,0.0,-0.17453292519943345
1666089323123494220,0.1,0.0,0.0,0.0,0.0,-0.17453292519943345
1666089323173585121,0.1,0.0,0.0,0.0,0.0,-0.17453292519943345
1666089323223211938,0.1,0.0,0.0,0.0,0.0,-0.17453292519943345
1666089323273337223,0.1,0.0,0.0,0.0,0.0,-0.17453292519943345
1666089323324251622,0.1,0.0,0.0,0.0,0.0,-0.17453292519943345
1666089323373256015,0.1,0.0,0.0,0.0,0.0,-0.17453292519943345
1666089323423207056,0.1,0.0,0.0,0.0,0.0,-0.17453292519943345
1666089323473380827,0.1,0.0,0.0,0.0,0.0,-0.17453292519943345
1666089323523443966,0.1,0.0,0.0,0.0,0.0,-0.17453292519943345
1666089323573087020,0.1,0.0,0.0,0.0,0.0,-0.17453292519943345
1666089323623431335,0.1,0.0,0.0,0.0,0.0,-0.17453292519943345
1666089323673327498,0.1,0.0,0.0,0.0,0.0,-0.17453292519943345
1666089323723436303,0.1,0.0,0.0,0.0,0.0,-0.17453292519943345
1666089323773364085,0.1,0.0,0.0,0.0,0.0,-0.17453292519943345
1666089323823870272,0.1,0.0,0.0,0.0,0.0,-0.17453292519943345
1666089323873170425,0.1,0.0,0.0,0.0,0.0,-0.17453292519943345
1666089323923330873,0.1,0.0,0.0,0.0,0.0,-0.17453292519943345
1666089323973956518,0.1,0.0,0.0,0.0,0.0,-0.17453292519943345
1666089324023530640,0.1,0.0,0.0,0.0,0.0,-0.17453292519943345
1666089324073324673,0.1,0.0,0.0,0.0,0.0,-0.17453292519943345
1666089324123331834,0.1,0.0,0.0,0.0,0.0,-0.17453292519943345
1666089324173193299,0.1,0.0,0.0,0.0,0.0,-0.17453292519943345
1666089324223168243,0.1,0.0,0.0,0.0,0.0,-0.17453292519943345
1666089324273914858,0.115,0.0,0.0,0.0,0.0,-0.16705294269088633
1666089324323921176,0.1,0.0,0.0,0.0,0.0,-0.0319470651447773
1666089324373920043,0.1,0.0,0.0,0.0,0.0,-0.0319470651447773
1666089324426034746,0.1,0.0,0.0,0.0,0.0,-0.0317562073469162
1666089324473204371,0.1,0.0,0.0,0.0,0.0,-0.03218789026141167
1666089324523454518,0.115,0.0,0.0,0.0,0.0,-0.027758158501536435
1666089324573381106,0.13,0.0,0.0,0.0,0.0,-0.023328426741661204
1666089324623345824,0.1,0.0,0.0,0.0,0.0,-0.11653908342123032
1666089324673234559,0.1,0.0,0.0,0.0,0.0,-0.11653908342123032
1666089324723416240,0.115,0.0,0.0,0.0,0.0,-0.11030182609364468
1666089324773268045,0.13,0.0,0.0,0.0,0.0,-0.10406456876605905
1666089324823530604,0.14500000000000002,0.0,0.0,0.0,0.0,-0.09782731143847341
1666089324873281864,0.1,0.0,0.0,0.0,0.0,-0.12846095860004425
1666089324923297795,0.1,0.0,0.0,0.0,0.0,-0.12846095860004425
1666089324973219278,0.1,0.0,0.0,0.0,0.0,-0.12846095860004425
1666089325023239904,0.1,0.0,0.0,0.0,0.0,-0.1379537731409073
1666089325073377011,0.1,0.0,0.0,0.0,0.0,-0.1379537731409073
1666089325123416020,0.1,0.0,0.0,0.0,0.0,-0.1434362679719925
1666089325173735068,0.115,0.0,0.0,0.0,0.0,-0.13288265114975983
1666089325223302383,0.13,0.0,0.0,0.0,0.0,-0.12232903432752716
1666089325273555569,0.14500000000000002,0.0,0.0,0.0,0.0,-0.11568287105453554
1666089325323342841,0.16000000000000003,0.0,0.0,0.0,0.0,-0.10503977056323627
1666089325373247692,0.17500000000000004,0.0,0.0,0.0,0.0,-0.09439667007193701
1666089325423585143,0.19000000000000006,0.0,0.0,0.0,0.0,-0.08375356958063776
1666089325473438178,0.20500000000000007,0.0,0.0,0.0,0.0,-0.0731104690893385
1666089325523437136,0.22000000000000008,0.0,0.0,0.0,0.0,-0.062467368598039245
1666089325573777184,0.2350000000000001,0.0,0.0,0.0,0.0,-0.051824268106739985
1666089325623474621,0.2500000000000001,0.0,0.0,0.0,0.0,-0.041181167615440724
1666089325673995259,0.2650000000000001,0.0,0.0,0.0,0.0,-0.030538067124141463
1666089325723505771,0.28000000000000014,0.0,0.0,0.0,0.0,-0.019894966632842202
1666089325773185277,0.29500000000000015,0.0,0.0,0.0,0.0,-0.009251866141542942
1666089325823215648,0.31000000000000016,0.0,0.0,0.0,0.0,0.001391234349756321
1666089325873472559,0.3250000000000002,0.0,0.0,0.0,0.0,0.017377179490017818
1666089325923374226,0.3400000000000002,0.0,0.0,0.0,0.0,0.033363124630279316
1666089325973374693,0.3550000000000002,0.0,0.0,0.0,0.0,0.04365777873142887
1666089326023341475,0.3700000000000002,0.0,0.0,0.0,0.0,0.053952432832578424
1666089326073327751,0.38500000000000023,0.0,0.0,0.0,0.0,0.06424708693372798
1666089326123219709,0.40000000000000024,0.0,0.0,0.0,0.0,0.07454174103487753
1666089326173201341,0.41500000000000026,0.0,0.0,0.0,0.0,0.07829141044104834
1666089326223352496,0.43000000000000027,0.0,0.0,0.0,0.0,0.06844111164986073
1666089326273599505,0.4450000000000003,0.0,0.0,0.0,0.0,0.058590812858673125
1666089326323260700,0.4600000000000003,0.0,0.0,0.0,0.0,0.048740514067485516
1666089326373673089,0.4750000000000003,0.0,0.0,0.0,0.0,0.039180571200199674
1666089326423473466,0.4900000000000003,0.0,0.0,0.0,0.0,0.029620628332913835
1666089326473611027,0.5050000000000003,0.0,0.0,0.0,0.0,0.019742230581348632
1666089326524181606,0.5200000000000004,0.0,0.0,0.0,0.0,0.009863832829783427
1666089326573707920,0.5350000000000004,0.0,0.0,0.0,0.0,-0.003515426164676169
1666089326623211467,0.5500000000000004,0.0,0.0,0.0,0.0,-0.013195661959096407
1666089326673268619,0.5650000000000004,0.0,0.0,0.0,0.0,-0.022875897753516644
1666089326723432926,0.5800000000000004,0.0,0.0,0.0,0.0,-0.032094803735810654
1666089326773264211,0.5950000000000004,0.0,0.0,0.0,0.0,-0.041265643313371875
1666089326823263719,0.6100000000000004,0.0,0.0,0.0,0.0,-0.050436482890933096
1666089326873196596,0.6250000000000004,0.0,0.0,0.0,0.0,-0.06529712303837999
1666089326923505723,0.6400000000000005,0.0,0.0,0.0,0.0,-0.0803104421864089
1666089326975455357,0.6550000000000005,0.0,0.0,0.0,0.0,-0.0953237613344378
1666089327023453265,0.6700000000000005,0.0,0.0,0.0,0.0,-0.1029931829506942
1666089327073515391,0.6850000000000005,0.0,0.0,0.0,0.0,-0.11124776859477954
1666089327123271125,0.7000000000000005,0.0,0.0,0.0,0.0,-0.02844169761307333
1666089327173169058,0.7150000000000005,0.0,0.0,0.0,0.0,-0.05035538175102747
1666089327223116091,0.7300000000000005,0.0,0.0,0.0,0.0,-0.07226906588898162
1666089327274110090,0.7450000000000006,0.0,0.0,0.0,0.0,-0.09418275002693577
1666089327323251763,0.7600000000000006,0.0,0.0,0.0,0.0,-0.11609643416488992
1666089327373849211,0.7750000000000006,0.0,0.0,0.0,0.0,-0.16936994540744127
1666089327423278491,0.7900000000000006,0.0,0.0,0.0,0.0,-0.22264345664999263
1666089327473467297,0.7999999999999999,0.0,0.0,0.0,0.0,-0.18510110676288605
1666089327523407820,0.7999999999999999,0.0,0.0,0.0,0.0,-0.18510110676288605
1666089327573172052,0.7999999999999999,0.0,0.0,0.0,0.0,-0.2654808759689331
1666089327623333834,0.7999999999999999,0.0,0.0,0.0,0.0,-0.26819533109664917
1666089327673327350,0.7999999999999999,0.0,0.0,0.0,0.0,-0.26819533109664917
1666089327723538819,0.7999999999999999,0.0,0.0,0.0,0.0,-0.2704022526741028
1666089327773520139,0.7999999999999999,0.0,0.0,0.0,0.0,-0.2704022526741028
1666089327824274752,0.7781069874763489,0.0,0.0,0.0,0.0,-0.27287063002586365
1666089327873319395,0.772204283978202,0.0,0.0,0.0,0.0,-0.3728706300258636
1666089327923265119,0.766301580480055,0.0,0.0,0.0,0.0,-0.4728706300258636
1666089327973208457,0.7603988769819082,0.0,0.0,0.0,0.0,-0.5728706300258636
1666089328023141620,0.748555642123056,0.0,0.0,0.0,0.0,-0.6728706300258636
1666089328073231527,0.7367124072642038,0.0,0.0,0.0,0.0,-0.7728706300258635
1666089328123234966,0.7248935699462891,0.0,0.0,0.0,0.0,-0.8726646259971653
1666089328174095141,0.6792123317718506,0.0,0.0,0.0,0.0,-0.8726646259971653
1666089328223372388,0.6593668460845947,0.0,0.0,0.0,0.0,-0.8726646259971653
1666089328273472920,0.6314432621002197,0.0,0.0,0.0,0.0,-0.8726646259971653
1666089328323158737,0.6326515674591064,0.0,0.0,0.0,0.0,-0.8726646259971653
1666089328373446683,0.6326515674591064,0.0,0.0,0.0,0.0,-0.8726646259971653
1666089328423577365,0.6326515674591064,0.0,0.0,0.0,0.0,-0.8726646259971653
1666089328473272751,0.584994912147522,0.0,0.0,0.0,0.0,-0.8726646259971653
1666089328523482469,0.5625500082969666,0.0,0.0,0.0,0.0,-0.8726646259971653
1666089328573437933,0.5625500082969666,0.0,0.0,0.0,0.0,-0.8726646259971653
1666089328623192422,0.543062925338745,0.0,0.0,0.0,0.0,-0.8726646259971653
1666089328673337275,0.543062925338745,0.0,0.0,0.0,0.0,-0.8726646259971653
1666089328723971955,0.543062925338745,0.0,0.0,0.0,0.0,-0.8726646259971653
1666089328773253461,0.5089967250823975,0.0,0.0,0.0,0.0,-0.8726646259971653
1666089328823228384,0.5089967250823975,0.0,0.0,0.0,0.0,-0.8726646259971653
1666089328873877501,0.48104092478752136,0.0,0.0,0.0,0.0,-0.8726646259971653
1666089328923170613,0.48104092478752136,0.0,0.0,0.0,0.0,-0.8726646259971653
1666089328973293314,0.48104092478752136,0.0,0.0,0.0,0.0,-0.8726646259971653
1666089329023771026,0.4753728210926056,0.0,0.0,0.0,0.0,-0.8726646259971653
1666089329073365857,0.46599996089935297,0.0,0.0,0.0,0.0,-0.8726646259971653
1666089329123236139,0.4567977786064148,0.0,0.0,0.0,0.0,-0.6981317007977323
1666089329173266943,0.4567977786064148,0.0,0.0,0.0,0.0,-0.6981317007977323
1666089329223442942,0.44718763232231135,0.0,0.0,0.0,0.0,-0.6981317007977323
1666089329273568781,0.44718763232231135,0.0,0.0,0.0,0.0,-0.6981317007977323
1666089329323256773,0.43041989207267756,0.0,0.0,0.0,0.0,-0.5235987755982994
1666089329373382415,0.43041989207267756,0.0,0.0,0.0,0.0,-0.5235987755982994
1666089329423771466,0.40498799085617065,0.0,0.0,0.0,0.0,-0.3490658503988664
1666089329473297677,0.25498799085617063,0.0,0.0,0.0,0.0,-0.31934647177902487
1666089329523211657,0.10498799085617061,0.0,0.0,0.0,0.0,-0.2906369782598318
1666089329573273556,0.0,0.0,0.0,0.0,0.0,-0.2705426313059763
1666089329623398223,0.0,0.0,0.0,0.0,0.0,-0.17453292519943345
1666089329674562147,0.0,0.0,0.0,0.0,0.0,-0.17453292519943345
1666089329723193478,0.0,0.0,0.0,0.0,0.0,-4.996003610813204e-16
1666089329773350032,0.0,0.0,0.0,0.0,0.0,-4.996003610813204e-16
1666089329823147027,0.0,0.0,0.0,0.0,0.0,-4.996003610813204e-16
1666089329873291429,0.0,0.0,0.0,0.0,0.0,-4.996003610813204e-16
1666089329923241491,0.0,0.0,0.0,0.0,0.0,-4.996003610813204e-16
1666089329973425496,0.0,0.0,0.0,0.0,0.0,-4.996003610813204e-16
1666089330023418085,0.0,0.0,0.0,0.0,0.0,-4.996003610813204e-16
1666089330073160660,0.0,0.0,0.0,0.0,0.0,-4.996003610813204e-16
1666089330123303108,0.0,0.0,0.0,0.0,0.0,-4.996003610813204e-16
1666089330173216709,0.0,0.0,0.0,0.0,0.0,-4.996003610813204e-16
1666089330224160529,0.0,0.0,0.0,0.0,0.0,-4.996003610813204e-16
1666089330273157327,0.015,0.0,0.0,0.0,0.0,-0.0016496077208597456
1666089330323462662,0.03,0.0,0.0,0.0,0.0,-0.0027108075380963114
1666089330373426282,0.045,0.0,0.0,0.0,0.0,-0.003772007355332877
1666089330423308380,0.06,0.0,0.0,0.0,0.0,-0.004625759135224432
1666089330473639970,0.075,0.0,0.0,0.0,0.0,-0.005479510915115986
1666089330523207815,0.09,0.0,0.0,0.0,0.0,-0.006333262695007541
1666089330573139223,0.105,0.0,0.0,0.0,0.0,-0.006655365050489273
1666089330623358338,0.12,0.0,0.0,0.0,0.0,-0.006977467405971005
1666089330673296863,0.135,0.0,0.0,0.0,0.0,-0.007155354707119068
1666089330723334426,0.15000000000000002,0.0,0.0,0.0,0.0,-0.007333038175464202
1666089330773313889,0.16500000000000004,0.0,0.0,0.0,0.0,-0.007510721643809336
1666089330823246148,0.18000000000000005,0.0,0.0,0.0,0.0,-0.007430503050078982
1666089330873327968,0.19500000000000006,0.0,0.0,0.0,0.0,-0.007347174217658687
1666089330923433792,0.21000000000000008,0.0,0.0,0.0,0.0,-0.007106819060796653
1666089330974537002,0.2250000000000001,0.0,0.0,0.0,0.0,-0.006690276059689005
1666089331023365342,0.2400000000000001,0.0,0.0,0.0,0.0,-0.006273733058581357
1666089331073741570,0.2550000000000001,0.0,0.0,0.0,0.0,-0.005718019798845075
1666089331124282933,0.27000000000000013,0.0,0.0,0.0,0.0,-0.0051623065391087925
1666089331173807745,0.28500000000000014,0.0,0.0,0.0,0.0,-0.004448868594761865
1666089331223423828,0.30000000000000016,0.0,0.0,0.0,0.0,-0.003735430650414937
1666089331273508172,0.31500000000000017,0.0,0.0,0.0,0.0,-0.002814784093573683
1666089331323401934,0.3300000000000002,0.0,0.0,0.0,0.0,-0.0014784129385555795
1666089331373223911,0.3450000000000002,0.0,0.0,0.0,0.0,-0.00014204178353747587
1666089331423225925,0.3600000000000002,0.0,0.0,0.0,0.0,0.0014162297024210516
1666089331473685192,0.3750000000000002,0.0,0.0,0.0,0.0,0.0029745011883795794
1666089331523170181,0.39000000000000024,0.0,0.0,0.0,0.0,0.004532772674338107
1666089331573576922,0.40500000000000025,0.0,0.0,0.0,0.0,0.006587827198405546
1666089331623221199,0.42000000000000026,0.0,0.0,0.0,0.0,0.008657853473854754
1666089331674154549,0.4350000000000003,0.0,0.0,0.0,0.0,0.010727879749303964
1666089331723491399,0.4500000000000003,0.0,0.0,0.0,0.0,0.013079648855111526
1666089331773218042,0.4650000000000003,0.0,0.0,0.0,0.0,0.01593708598585795
1666089331823246553,0.4800000000000003,0.0,0.0,0.0,0.0,0.019047723804266004
1666089331873624377,0.49500000000000033,0.0,0.0,0.0,0.0,0.022162266040562126
1666089331923412552,0.5100000000000003,0.0,0.0,0.0,0.0,0.025579892499979925
1666089331973473020,0.5250000000000004,0.0,0.0,0.0,0.0,0.029304714296575555
1666089332023464762,0.5400000000000004,0.0,0.0,0.0,0.0,0.033029536093171184
1666089332073437131,0.5550000000000004,0.0,0.0,0.0,0.0,0.03700781239884852
1666089332123392586,0.5700000000000004,0.0,0.0,0.0,0.0,0.04098608870452585
1666089332173452834,0.5850000000000004,0.0,0.0,0.0,0.0,0.04527612106631978
1666089332223380801,0.6000000000000004,0.0,0.0,0.0,0.0,0.064405164610445
1666089332273243268,0.6150000000000004,0.0,0.0,0.0,0.0,0.08353420815457023
1666089332323437458,0.6158217787742615,0.0,0.0,0.0,0.0,0.056715141981840134
1666089332373314508,0.6158217787742615,0.0,0.0,0.0,0.0,0.056715141981840134
1666089332423298783,0.6065771579742432,0.0,0.0,0.0,0.0,0.05539114773273468
1666089332473513686,0.597758412361145,0.0,0.0,0.0,0.0,0.05453663319349289
1666089332523782018,0.612758412361145,0.0,0.0,0.0,0.0,0.09341663435549678
1666089332573194527,0.5816509127616882,0.0,0.0,0.0,0.0,0.05606261268258095
1666089332623295015,0.5816509127616882,0.0,0.0,0.0,0.0,0.05606261268258095
1666089332675330266,0.56683748960495,0.0,0.0,0.0,0.0,0.05555228888988495
1666089332723228349,0.56683748960495,0.0,0.0,0.0,0.0,0.05555228888988495
1666089332773679631,0.5565265417098999,0.0,0.0,0.0,0.0,0.055896464735269547
1666089332823250176,0.5398142337799072,0.0,0.0,0.0,0.0,0.0552222803235054
1666089332873664123,0.5252419710159302,0.0,0.0,0.0,0.0,0.05607010796666145
1666089332923431410,0.5252419710159302,0.0,0.0,0.0,0.0,0.05607010796666145
1666089332973964438,0.5110201239585876,0.0,0.0,0.0,0.0,0.05638111010193825
1666089333023286271,0.4921119511127472,0.0,0.0,0.0,0.0,0.056019823998212814
1666089333073747246,0.4921119511127472,0.0,0.0,0.0,0.0,0.056019823998212814
1666089333123251611,0.483088388322308,0.0,0.0,0.0,0.0,0.15601982399821282
1666089333173512125,0.4740648255318688,0.0,0.0,0.0,0.0,0.2560198239982128
1666089333223729634,0.4650412627414296,0.0,0.0,0.0,0.0,0.35601982399821286
1666089333273423972,0.4396752795774955,0.0,0.0,0.0,0.0,0.45601982399821284
1666089333323621766,0.42324399948120117,0.0,0.0,0.0,0.0,0.5235987755982984
1666089333373686621,0.4075964971304709,0.0,0.0,0.0,0.0,0.6235987755982983
1666089333423739245,0.3728199899196625,0.0,0.0,0.0,0.0,0.6981317007977313
1666089333473303899,0.3493004441261291,0.0,0.0,0.0,0.0,0.6981317007977313
1666089333523547320,0.3263978660106659,0.0,0.0,0.0,0.0,0.6981317007977313
1666089333574148336,0.3263978660106659,0.0,0.0,0.0,0.0,0.6981317007977313
1666089333623950326,0.30494585633277893,0.0,0.0,0.0,0.0,0.6981317007977313
1666089333673471025,0.1549458563327789,0.0,0.0,0.0,0.0,0.6545484368230773
1666089333723369276,0.004945856332778886,0.0,0.0,0.0,0.0,0.6109651728484233
1666089333773533937,0.0,0.0,0.0,0.0,0.0,0.6287464566102663
1666089333823184862,0.0,0.0,0.0,0.0,0.0,0.6287464566102663
1666089333873360005,0.0,0.0,0.0,0.0,0.0,0.6381125218673961
1666089333924209083,0.0,0.0,0.0,0.0,0.0,0.6528318069998192
1666089333973238608,0.0,0.0,0.0,0.0,0.0,0.6528318069998192
1666089334023140963,0.0,0.0,0.0,0.0,0.0,0.6389362303748365
1666089334073536103,0.0,0.0,0.0,0.0,0.0,0.6357510534127819
1666089334123577416,0.0,0.0,0.0,0.0,0.0,0.5945178020175319
1666089334173470602,0.0,0.0,0.0,0.0,0.0,0.5851518924116778
1666089334223360136,0.0,0.0,0.0,0.0,0.0,0.5698091465742169
1666089334273896675,0.0,0.0,0.0,0.0,0.0,0.5235987755982984
1666089334323179757,0.0,0.0,0.0,0.0,0.0,0.5235987755982984
1666089334373232442,0.0,0.0,0.0,0.0,0.0,0.5235987755982984
1666089334423435131,0.0,0.0,0.0,0.0,0.0,0.49647796184504955
1666089334473490236,0.0,0.0,0.0,0.0,0.0,0.3828255837262669
1666089334523517151,0.0,0.0,0.0,0.0,0.0,0.3828255837262669
1666089334574139647,0.0,0.0,0.0,0.0,0.0,0.3828255837262669
1666089334624215915,0.0,0.0,0.0,0.0,0.0,0.3490658503988654
1666089334673731237,0.0,0.0,0.0,0.0,0.0,0.3490658503988654
1666089334724134438,0.0,0.0,0.0,0.0,0.0,0.3029778023531306
1666089334773368273,0.015,0.0,0.0,0.0,0.0,0.2979282886965748
1666089334823227190,0.03,0.0,0.0,0.0,0.0,0.29287877504001897
1666089334873332647,0.045,0.0,0.0,0.0,0.0,0.2880378202907245
1666089334923411278,0.06,0.0,0.0,0.0,0.0,0.283381292090019
1666089334973385050,0.075,0.0,0.0,0.0,0.0,0.2787247638893135
1666089335023521029,0.09,0.0,0.0,0.0,0.0,0.27423785758012664
1666089335073395180,0.105,0.0,0.0,0.0,0.0,0.2697509512709398
1666089335123322698,0.12,0.0,0.0,0.0,0.0,0.25807240836227374
1666089335173757341,0.135,0.0,0.0,0.0,0.0,0.25009236737028256
1666089335223177671,0.15000000000000002,0.0,0.0,0.0,0.0,0.24211232637829136
1666089335273296957,0.16500000000000004,0.0,0.0,0.0,0.0,0.23413228538630015
1666089335323632024,0.18000000000000005,0.0,0.0,0.0,0.0,0.22282809445909507
1666089335373567002,0.19500000000000006,0.0,0.0,0.0,0.0,0.21152390353189
1666089335423128968,0.21000000000000008,0.0,0.0,0.0,0.0,0.19760610512313193
1666089335474652107,0.2250000000000001,0.0,0.0,0.0,0.0,0.1836497490559355
1666089335524153473,0.2400000000000001,0.0,0.0,0.0,0.0,0.1696933929887391
1666089335573243539,0.2550000000000001,0.0,0.0,0.0,0.0,0.15561564836814465
1666089335623208276,0.27000000000000013,0.0,0.0,0.0,0.0,0.1415379037475502
1666089335675247727,0.28500000000000014,0.0,0.0,0.0,0.0,0.13114040998119908
1666089335723134425,0.30000000000000016,0.0,0.0,0.0,0.0,0.12074291621484796
1666089335773236095,0.31500000000000017,0.0,0.0,0.0,0.0,0.10471048608677734
1666089335823477801,0.3300000000000002,0.0,0.0,0.0,0.0,0.09399348932721363
1666089335876531815,0.3450000000000002,0.0,0.0,0.0,0.0,0.08327649256764992
1666089335923220310,0.3600000000000002,0.0,0.0,0.0,0.0,0.06264383501391366
1666089335973843846,0.3750000000000002,0.0,0.0,0.0,0.0,0.03886705909211714
1666089336023271862,0.39000000000000024,0.0,0.0,0.0,0.0,0.00971169886943007
1666089336073390541,0.40500000000000025,0.0,0.0,0.0,0.0,-0.019443661353257008
1666089336123573252,0.42000000000000026,0.0,0.0,0.0,0.0,-0.04859902157594409
1666089336173431832,0.4197331964969635,0.0,0.0,0.0,0.0,-0.0835588350892067
1666089336223388175,0.2697331964969635,0.0,0.0,0.0,0.0,-0.05369742463135742
1666089336273571961,0.11973319649696346,0.0,0.0,0.0,0.0,-0.023836014173508144
1666089336323380580,0.0,0.0,0.0,0.0,0.0,-4.996003610813204e-16
1666089336373349718,0.0,0.0,0.0,0.0,0.0,-4.996003610813204e-16
1666089336423257227,0.0,0.0,0.0,0.0,0.0,-4.996003610813204e-16
1666089336473210869,0.0,0.0,0.0,0.0,0.0,-4.996003610813204e-16
1666089336523443967,0.0,0.0,0.0,0.0,0.0,-4.996003610813204e-16
1666089336573246737,0.0,0.0,0.0,0.0,0.0,-4.996003610813204e-16
1666089336623112330,0.0,0.0,0.0,0.0,0.0,-4.996003610813204e-16
1666089336673454060,0.0,0.0,0.0,0.0,0.0,-4.996003610813204e-16
1666089336723136141,0.0,0.0,0.0,0.0,0.0,-4.996003610813204e-16
1666089336773522600,0.0,0.0,0.0,0.0,0.0,-4.996003610813204e-16
1666089336823206449,0.0,0.0,0.0,0.0,0.0,-4.996003610813204e-16
1666089336873398809,0.0,0.0,0.0,0.0,0.0,-4.996003610813204e-16
1666089336923436421,0.0,0.0,0.0,0.0,0.0,-4.996003610813204e-16
1666089336974096307,0.0,0.0,0.0,0.0,0.0,-4.996003610813204e-16
1666089337023191923,0.0,0.0,0.0,0.0,0.0,-4.996003610813204e-16
1666089337073402832,0.0,0.0,0.0,0.0,0.0,-4.996003610813204e-16
1666089337123154588,0.0,0.0,0.0,0.0,0.0,-4.996003610813204e-16
1666089337173307747,0.0,0.0,0.0,0.0,0.0,-4.996003610813204e-16
1666089337223438073,0.0,0.0,0.0,0.0,0.0,-4.996003610813204e-16
1666089337275963278,0.0,0.0,0.0,0.0,0.0,-4.996003610813204e-16
1666089337323676607,0.0,0.0,0.0,0.0,0.0,-4.996003610813204e-16
1666089337373439510,0.0,0.0,0.0,0.0,0.0,-4.996003610813204e-16
1666089337423282796,0.0,0.0,0.0,0.0,0.0,-4.996003610813204e-16
1666089337476213298,0.0,0.0,0.0,0.0,0.0,-4.996003610813204e-16
1666089337523277697,0.0,0.0,0.0,0.0,0.0,-4.996003610813204e-16
1666089337573411697,0.0,0.0,0.0,0.0,0.0,-4.996003610813204e-16
1666089337623462340,0.0,0.0,0.0,0.0,0.0,-4.996003610813204e-16
1666089337673203808,0.0,0.0,0.0,0.0,0.0,-4.996003610813204e-16
1666089337723263721,0.0,0.0,0.0,0.0,0.0,-4.996003610813204e-16
1666089337773318492,0.0,0.0,0.0,0.0,0.0,-4.996003610813204e-16
1666089337823204500,0.0,0.0,0.0,0.0,0.0,-4.996003610813204e-16
1666089337876699401,0.0,0.0,0.0,0.0,0.0,-4.996003610813204e-16
1666089337923258299,0.0,0.0,0.0,0.0,0.0,-4.996003610813204e-16
1666089337973281157,0.0,0.0,0.0,0.0,0.0,-4.996003610813204e-16
1666089338023360149,0.0,0.0,0.0,0.0,0.0,-4.996003610813204e-16
1666089338073752480,0.0,0.0,0.0,0.0,0.0,-4.996003610813204e-16
1666089338123298082,0.0,0.0,0.0,0.0,0.0,-4.996003610813204e-16
1666089338176587265,0.0,0.0,0.0,0.0,0.0,-4.996003610813204e-16
1666089338223349179,0.0,0.0,0.0,0.0,0.0,-4.996003610813204e-16
1666089338273205617,0.0,0.0,0.0,0.0,0.0,-4.996003610813204e-16
1666089338323257899,0.0,0.0,0.0,0.0,0.0,-4.996003610813204e-16
1666089338374214100,0.0,0.0,0.0,0.0,0.0,-4.996003610813204e-16
1666089338423233158,0.0,0.0,0.0,0.0,0.0,-4.996003610813204e-16
1666089338473638345,0.0,0.0,0.0,0.0,0.0,-4.996003610813204e-16
1666089338523505490,0.0,0.0,0.0,0.0,0.0,-4.996003610813204e-16
1666089338573428870,0.0,0.0,0.0,0.0,0.0,-4.996003610813204e-16
1666089338623470646,0.0,0.0,0.0,0.0,0.0,-4.996003610813204e-16
1666089338673242440,0.0,0.0,0.0,0.0,0.0,-4.996003610813204e-16
1666089338723630341,0.0,0.0,0.0,0.0,0.0,-4.996003610813204e-16
1666089338776039406,0.0,0.0,0.0,0.0,0.0,-4.996003610813204e-16
1666089338823928433,0.0,0.0,0.0,0.0,0.0,-4.996003610813204e-16
1666089338873740814,0.0,0.0,0.0,0.0,0.0,-4.996003610813204e-16
1666089338923526283,0.0,0.0,0.0,0.0,0.0,-4.996003610813204e-16
1666089338973282194,0.0,0.0,0.0,0.0,0.0,-4.996003610813204e-16
1666089339023354687,0.0,0.0,0.0,0.0,0.0,-4.996003610813204e-16
1666089339073663499,0.0,0.0,0.0,0.0,0.0,-4.996003610813204e-16
1666089339123449435,0.0,0.0,0.0,0.0,0.0,-4.996003610813204e-16
1666089339173518783,0.0,0.0,0.0,0.0,0.0,-4.996003610813204e-16
1666089339223809688,0.0,0.0,0.0,0.0,0.0,-4.996003610813204e-16
1666089339273422580,0.0,0.0,0.0,0.0,0.0,-4.996003610813204e-16
1666089339323310001,0.0,0.0,0.0,0.0,0.0,-4.996003610813204e-16
1666089339373355384,0.0,0.0,0.0,0.0,0.0,-4.996003610813204e-16
1666089339423789169,0.0,0.0,0.0,0.0,0.0,-4.996003610813204e-16
1666089339473431968,0.0,0.0,0.0,0.0,0.0,-4.996003610813204e-16
1666089339523205520,0.0,0.0,0.0,0.0,0.0,-4.996003610813204e-16
1666089339573326043,0.0,0.0,0.0,0.0,0.0,-4.996003610813204e-16
1666089339623481552,0.0,0.0,0.0,0.0,0.0,-4.996003610813204e-16
1666089339673694574,0.0,0.0,0.0,0.0,0.0,-4.996003610813204e-16
1666089339723815930,0.0,0.0,0.0,0.0,0.0,-4.996003610813204e-16
1666089339773327503,0.0,0.0,0.0,0.0,0.0,-4.996003610813204e-16
1666089339823235832,0.0,0.0,0.0,0.0,0.0,-4.996003610813204e-16
1666089339874526614,0.0,0.0,0.0,0.0,0.0,-4.996003610813204e-16
1666089339924000966,0.0,0.0,0.0,0.0,0.0,-4.996003610813204e-16
1666089339973391469,0.0,0.0,0.0,0.0,0.0,-4.996003610813204e-16
1666089340023230067,0.0,0.0,0.0,0.0,0.0,-4.996003610813204e-16
1666089340074590062,0.0,0.0,0.0,0.0,0.0,-4.996003610813204e-16
1666089340123213268,0.0,0.0,0.0,0.0,0.0,-4.996003610813204e-16
1666089340173201298,0.0,0.0,0.0,0.0,0.0,-4.996003610813204e-16
1666089340224091243,0.0,0.0,0.0,0.0,0.0,-4.996003610813204e-16
1666089340273406882,0.0,0.0,0.0,0.0,0.0,-4.996003610813204e-16
