%time,field.linear.x,field.linear.y,field.linear.z,field.angular.x,field.angular.y,field.angular.z
1666091995919853917,0.5155342817306519,0.0,0.0,0.0,0.0,-1.2217304763960313
1666091996035781314,0.5105511546134949,0.0,0.0,0.0,0.0,-1.2217304763960313
1666091996128810938,0.508452832698822,0.0,0.0,0.0,0.0,-1.2217304763960313
1666091996207798999,0.5049628615379333,0.0,0.0,0.0,0.0,-1.2217304763960313
1666091996302976366,0.38226860761642456,0.0,0.0,0.0,0.0,-1.2217304763960313
1666091996347738865,0.3825191557407379,0.0,0.0,0.0,0.0,-1.2217304763960313
1666091996402510718,0.4908038675785064,0.0,0.0,0.0,0.0,-1.2217304763960313
1666091996463979275,0.4849093556404113,0.0,0.0,0.0,0.0,-1.2217304763960313
1666091996554375101,0.48083433508872986,0.0,0.0,0.0,0.0,-1.0471975511965983
1666091996641734747,0.35356923937797546,0.0,0.0,0.0,0.0,-1.0471975511965983
1666091996740891717,0.46756854653358454,0.0,0.0,0.0,0.0,-1.0471975511965983
1666091996809741558,0.46410512924194336,0.0,0.0,0.0,0.0,-1.0471975511965983
1666091996858893408,0.46073454618453974,0.0,0.0,0.0,0.0,-1.0471975511965983
1666091996991787982,0.4591704905033111,0.0,0.0,0.0,0.0,-1.0471975511965983
1666091997063422127,0.45345184206962585,0.0,0.0,0.0,0.0,-1.0471975511965983
1666091997154132899,0.4492928087711334,0.0,0.0,0.0,0.0,-1.0471975511965983
1666091997285983691,0.32594856619834894,0.0,0.0,0.0,0.0,-0.8726646259971653
1666091997328178832,0.43660297989845276,0.0,0.0,0.0,0.0,-1.0471975511965983
1666091997409164521,0.4289700388908386,0.0,0.0,0.0,0.0,-0.8726646259971653
1666091997494024584,0.3022320568561554,0.0,0.0,0.0,0.0,-0.8726646259971653
1666091997545210556,0.3020898997783661,0.0,0.0,0.0,0.0,-0.8726646259971653
1666091997587897369,0.30059242248535156,0.0,0.0,0.0,0.0,-0.8726646259971653
1666091997665561497,0.29613348841667175,0.0,0.0,0.0,0.0,-0.6981317007977323
1666091997798421002,0.0,0.0,0.0,0.0,0.0,-0.569803669346136
1666091997877099414,0.0,0.0,0.0,0.0,0.0,-0.5309208784694494
1666091997888635642,0.0,0.0,0.0,0.0,0.0,-0.49026756855630743
1666091998012151364,0.0,0.0,0.0,0.0,0.0,-0.4499587246709379
1666091998061079282,0.0,0.0,0.0,0.0,0.0,-0.4471928111525876
1666091998119793708,0.0,0.0,0.0,0.0,0.0,-0.40603565524060564
1666091998229168937,0.0,0.0,0.0,0.0,0.0,-0.33142578919274523
1666091998315426269,0.0,0.0,0.0,0.0,0.0,-0.28923643883223815
1666091998324471826,0.0,0.0,0.0,0.0,0.0,-0.2870469809977937
1666091998419566042,0.0,0.0,0.0,0.0,0.0,-0.22170268923419245
1666091998485543707,0.0,0.0,0.0,0.0,0.0,-0.2212742832098898
1666091998530682254,0.0,0.0,0.0,0.0,0.0,-0.17453292519943345
1666091998693033283,0.0,0.0,0.0,0.0,0.0,-0.17453292519943345
1666091998729325627,0.0,0.0,0.0,0.0,0.0,-4.996003610813204e-16
1666091998781049197,0.0,0.0,0.0,0.0,0.0,-4.996003610813204e-16
1666091998858705336,0.0,0.0,0.0,0.0,0.0,-4.996003610813204e-16
1666091998949460895,0.0,0.0,0.0,0.0,0.0,-4.996003610813204e-16
1666091999044483341,0.0,0.0,0.0,0.0,0.0,-4.996003610813204e-16
1666091999139750029,0.0,0.0,0.0,0.0,0.0,-4.996003610813204e-16
1666091999201570420,0.0,0.0,0.0,0.0,0.0,-4.996003610813204e-16
1666091999295529125,0.0,0.0,0.0,0.0,0.0,-4.996003610813204e-16
1666091999381818353,0.0,0.0,0.0,0.0,0.0,-4.996003610813204e-16
1666091999424810112,0.0,0.0,0.0,0.0,0.0,-4.996003610813204e-16
1666091999503167836,0.0,0.0,0.0,0.0,0.0,-0.17453292519943345
1666091999633692422,0.0,0.0,0.0,0.0,0.0,-0.17453292519943345
1666091999754679943,0.0,0.0,0.0,0.0,0.0,-0.17453292519943345
1666091999764894500,0.0,0.0,0.0,0.0,0.0,-0.17453292519943345
1666091999802779968,0.0,0.0,0.0,0.0,0.0,-0.2164544254123019
1666091999890219465,0.0,0.0,0.0,0.0,0.0,-0.23451507510595937
1666092000022049640,0.0,0.0,0.0,0.0,0.0,-0.28416183227691577
1666092000079504669,0.0,0.0,0.0,0.0,0.0,-0.3101633397916738
1666092000080893170,0.0,0.0,0.0,0.0,0.0,-0.3050901429060403
1666092000189537039,0.0,0.0,0.0,0.0,0.0,-0.39553681584843253
1666092000241839635,0.0,0.0,0.0,0.0,0.0,-0.42709432984474144
1666092000321428923,0.0,0.0,0.0,0.0,0.0,-0.45957601358214634
1666092000411023360,0.0,0.0,0.0,0.0,0.0,-0.5013282078364706
1666092000541061348,0.4074290096759796,0.0,0.0,0.0,0.0,-0.15840958058834076
1666092000582921132,0.4245282709598541,0.0,0.0,0.0,0.0,-0.16565342247486115
1666092000642326911,0.43523043394088745,0.0,0.0,0.0,0.0,-0.17201240360736847
1666092000711344480,0.44004914164543146,0.0,0.0,0.0,0.0,-0.17700068652629852
1666092000800265080,0.4445173144340515,0.0,0.0,0.0,0.0,-0.6981317007977323
1666092000888617821,0.36632972955703735,0.0,0.0,0.0,0.0,-0.09214477241039276
1666092000942911562,0.38638260960578913,0.0,0.0,0.0,0.0,-0.10491405427455902
1666092001010221569,0.3934292197227478,0.0,0.0,0.0,0.0,-0.11327728629112244
1666092001142858278,0.49884650111198425,0.0,0.0,0.0,0.0,-0.21739459037780762
1666092001245143465,0.5041025280952454,0.0,0.0,0.0,0.0,-0.21944372355937958
1666092001273079822,0.5036760568618774,0.0,0.0,0.0,0.0,-0.21895502507686615
1666092001353198188,0.5071691274642944,0.0,0.0,0.0,0.0,-0.2205592691898346
1666092001439676754,0.4173780679702759,0.0,0.0,0.0,0.0,-0.12891767919063568
1666092001571085059,0.5255122184753418,0.0,0.0,0.0,0.0,-0.2256450355052948
1666092001604398495,0.5410287380218506,0.0,0.0,0.0,0.0,-0.23061969876289368
1666092001699207502,0.5513564944267273,0.0,0.0,0.0,0.0,-0.2353965938091278
1666092001784348829,0.5751064419746399,0.0,0.0,0.0,0.0,-0.2509385645389557
1666092001830031520,0.5750353336334229,0.0,0.0,0.0,0.0,-0.25090017914772034
1666092001874045156,0.49493345618247986,0.0,0.0,0.0,0.0,-0.17567375302314758
1666092001958881462,0.5963451862335204,0.0,0.0,0.0,0.0,-0.26464298367500305
1666092002004163674,0.604339063167572,0.0,0.0,0.0,0.0,-0.2697845995426178
1666092002093186649,0.6229832172393799,0.0,0.0,0.0,0.0,-0.28119879961013794
1666092002171063711,0.6286956667900085,0.0,0.0,0.0,0.0,-0.28812387585639954
1666092002211504200,0.632080614566803,0.0,0.0,0.0,0.0,-0.29496607184410095
1666092002300344593,0.6305708289146423,0.0,0.0,0.0,0.0,-0.30076175928115845
1666092002380025708,0.5380785465240479,0.0,0.0,0.0,0.0,-0.24120564758777618
1666092002436577115,0.6182088851928711,0.0,0.0,0.0,0.0,-0.3490658503988664
1666092002443905489,0.618564248085022,0.0,0.0,0.0,0.0,-0.3490658503988664
1666092002514526471,0.6020155549049377,0.0,0.0,0.0,0.0,-0.3490658503988664
1666092002609357733,0.5869771242141724,0.0,0.0,0.0,0.0,-0.5235987755982994
1666092002654177276,0.5750486254692078,0.0,0.0,0.0,0.0,-0.6981317007977323
1666092002731283035,0.5626763105392456,0.0,0.0,0.0,0.0,-0.8726646259971653
1666092002785449020,0.5575793385505676,0.0,0.0,0.0,0.0,-1.0471975511965983
1666092002917383770,0.5518857240676879,0.0,0.0,0.0,0.0,-1.2217304763960313
1666092002924020276,0.5427272319793701,0.0,0.0,0.0,0.0,-1.2217304763960313
1666092003034382471,0.4163239300251007,0.0,0.0,0.0,0.0,-1.2217304763960313
1666092003078005104,0.5254939198493958,0.0,0.0,0.0,0.0,-1.2217304763960313
1666092003165409591,0.5205153822898865,0.0,0.0,0.0,0.0,-1.2217304763960313
1666092003237543446,0.5092983841896057,0.0,0.0,0.0,0.0,-1.3962634015954642
1666092003251569116,0.509440541267395,0.0,0.0,0.0,0.0,-1.3962634015954642
1666092003326609366,0.5116127729415894,0.0,0.0,0.0,0.0,-1.3962634015954642
1666092003420199737,0.3965354263782501,0.0,0.0,0.0,0.0,-1.2217304763960313
1666092003504595003,0.5244151949882507,0.0,0.0,0.0,0.0,-1.2217304763960313
1666092003550512397,0.5394554138183594,0.0,0.0,0.0,0.0,-1.2217304763960313
1666092003592883138,0.44626399874687195,0.0,0.0,0.0,0.0,-1.2217304763960313
1666092003674781955,0.5802229046821593,0.0,0.0,0.0,0.0,-1.2217304763960313
1666092003763830103,0.6002519726753235,0.0,0.0,0.0,0.0,-1.2217304763960313
1666092003844239632,0.5487139821052551,0.0,0.0,0.0,0.0,-1.0471975511965983
1666092003916123601,0.5724403262138367,0.0,0.0,0.0,0.0,-1.0471975511965983
1666092003927077451,0.571303129196167,0.0,0.0,0.0,0.0,-1.0471975511965983
1666092004016293987,0.679448664188385,0.0,0.0,0.0,0.0,-0.8726646259971653
1666092004119623097,0.7119623422622681,0.0,0.0,0.0,0.0,-0.8726646259971653
1666092004168228377,0.7116779685020446,0.0,0.0,0.0,0.0,-0.8726646259971653
1666092004232549425,0.7293537855148315,0.0,0.0,0.0,0.0,-0.6981317007977323
1666092004319312145,0.710571825504303,0.0,0.0,0.0,0.0,-0.5235987755982994
1666092004365353689,0.7102164030075072,0.0,0.0,0.0,0.0,-0.5235987755982994
1666092004407553697,0.7720308303833008,0.0,0.0,0.0,0.0,-0.5235987755982994
1666092004514486050,0.7853002548217773,0.0,0.0,0.0,0.0,-0.3490658503988664
1666092004531281935,0.7844473719596862,0.0,0.0,0.0,0.0,-0.3490658503988664
1666092004651624183,0.7471942901611328,0.0,0.0,0.0,0.0,-0.3490658503988664
1666092004714159259,0.7733262777328491,0.0,0.0,0.0,0.0,-0.3490658503988664
1666092004789413322,0.7493374943733215,0.0,0.0,0.0,0.0,-0.17453292519943345
1666092004829720474,0.7491953372955322,0.0,0.0,0.0,0.0,-0.17453292519943345
1666092004960762319,0.7166470289230347,0.0,0.0,0.0,0.0,-0.17453292519943345
1666092005051401159,0.6701961755752562,0.0,0.0,0.0,0.0,-0.17453292519943345
1666092005091804816,0.6710491180419921,0.0,0.0,0.0,0.0,-0.17453292519943345
1666092005105816052,0.6401090621948242,0.0,0.0,0.0,0.0,-4.996003610813204e-16
1666092005211310386,0.6100922226905823,0.0,0.0,0.0,0.0,-4.996003610813204e-16
1666092005255014819,0.5824674963951111,0.0,0.0,0.0,0.0,-0.050455886870622635
1666092005386413801,0.5561373829841614,0.0,0.0,0.0,0.0,-0.0474473237991333
1666092005445597798,0.5318537354469299,0.0,0.0,0.0,0.0,-0.04558231309056282
1666092005506992550,0.5058013200759888,0.0,0.0,0.0,0.0,-0.04397241398692131
1666092005596220266,0.479561448097229,0.0,0.0,0.0,0.0,-0.04253343492746353
1666092005687295974,0.45668765902519226,0.0,0.0,0.0,0.0,0.07497631013393402
1666092005732417428,0.408310055732727,0.0,0.0,0.0,0.0,-0.04334235191345215
1666092005808477040,0.3927052617073059,0.0,0.0,0.0,0.0,0.07919017225503922
1666092005894744541,0.0,0.0,0.0,0.0,0.0,-4.996003610813204e-16
1666092005980757857,0.0,0.0,0.0,0.0,0.0,-4.996003610813204e-16
1666092006070121849,0.0,0.0,0.0,0.0,0.0,-4.996003610813204e-16
1666092006150083598,0.0,0.0,0.0,0.0,0.0,-4.996003610813204e-16
1666092006241131985,0.0,0.0,0.0,0.0,0.0,-4.996003610813204e-16
1666092006289326644,0.0,0.0,0.0,0.0,0.0,-4.996003610813204e-16
1666092006408984915,0.0,0.0,0.0,0.0,0.0,-4.996003610813204e-16
1666092006497298117,0.0,0.0,0.0,0.0,0.0,-4.996003610813204e-16
1666092006585364692,0.0,0.0,0.0,0.0,0.0,-4.996003610813204e-16
1666092006629269731,0.0,0.0,0.0,0.0,0.0,-4.996003610813204e-16
1666092006704568803,0.0,0.0,0.0,0.0,0.0,-4.996003610813204e-16
1666092006793504768,0.0,0.0,0.0,0.0,0.0,-4.996003610813204e-16
1666092006837654576,0.0,0.0,0.0,0.0,0.0,0.17453292519943245
1666092006927215152,0.0,0.0,0.0,0.0,0.0,0.17453292519943245
1666092007027789968,0.4036242663860321,0.0,0.0,0.0,0.0,-0.02357698231935501
1666092007094311941,0.40369537472724915,0.0,0.0,0.0,0.0,-0.02357698231935501
1666092007142722717,0.45672762393951416,0.0,0.0,0.0,0.0,0.1023208424448967
1666092007211976298,0.4414549767971039,0.0,0.0,0.0,0.0,-0.009208076633512974
1666092007299743806,0.46715328097343445,0.0,0.0,0.0,0.0,0.0004798811278305948
1666092007403878207,0.49863237142562866,0.0,0.0,0.0,0.0,0.018021944910287857
1666092007434392134,0.4982770085334778,0.0,0.0,0.0,0.0,0.018112700432538986
1666092007514396008,0.5098288059234619,0.0,0.0,0.0,0.0,0.02643979899585247
1666092007608892034,0.5672412514686584,0.0,0.0,0.0,0.0,0.13874264061450958
1666092007650905215,0.5312184691429138,0.0,0.0,0.0,0.0,0.04277407377958298
1666092007727100160,0.5370484590530396,0.0,0.0,0.0,0.0,0.04992182180285454
1666092007818613329,0.5460199117660522,0.0,0.0,0.0,0.0,0.05706973373889923
1666092007907099568,0.6062772870063782,0.0,0.0,0.0,0.0,0.16303791105747223
1666092007954213877,0.5566040277481079,0.0,0.0,0.0,0.0,0.07113046944141388
1666092008071301270,0.556718647480011,0.0,0.0,0.0,0.0,0.0770169049501419
1666092008160471692,0.5538243055343628,0.0,0.0,0.0,0.0,0.08268434554338455
1666092008204395707,0.5479867458343506,0.0,0.0,0.0,0.0,0.08687982708215714
1666092008292437586,0.5480336546897888,0.0,0.0,0.0,0.0,0.09258522093296051
1666092008346558083,0.5525960326194763,0.0,0.0,0.0,0.0,0.10010761767625809
1666092008456185554,0.5589827299118042,0.0,0.0,0.0,0.0,0.11044090241193771
1666092008504998645,0.562101662158966,0.0,0.0,0.0,0.0,0.11993882805109024
1666092008552191015,0.5612237453460693,0.0,0.0,0.0,0.0,0.12969762086868286
1666092008606461997,0.5605345964431763,0.0,0.0,0.0,0.0,0.14037910103797913
1666092008717987286,0.6320367455482483,0.0,0.0,0.0,0.0,0.23559662699699402
1666092008764698844,0.5472399592399597,0.0,0.0,0.0,0.0,0.15983445942401886
1666092008855014553,0.5339493155479431,0.0,0.0,0.0,0.0,0.16962642967700958
1666092008975363074,0.522983968257904,0.0,0.0,0.0,0.0,0.18048138916492462
1666092009063110267,0.4996174871921539,0.0,0.0,0.0,0.0,0.20628571510314941
1666092009109223772,0.5001860857009888,0.0,0.0,0.0,0.0,0.20633457601070404
1666092009153563326,0.48647174239158625,0.0,0.0,0.0,0.0,0.21633730828762054
1666092009231072096,0.5778334140777587,0.0,0.0,0.0,0.0,0.3019336760044098
1666092009323154898,0.569579541683197,0.0,0.0,0.0,0.0,0.3095906376838684
1666092009363840830,0.5551816821098328,0.0,0.0,0.0,0.0,0.31359079480171204
1666092009453256133,0.433906614780426,0.0,0.0,0.0,0.0,0.2483663111925125
1666092009496034119,0.4282598197460174,0.0,0.0,0.0,0.0,0.2558063566684723
1666092009574957340,0.5287671685218811,0.0,0.0,0.0,0.0,0.3264451026916504
1666092009668587286,0.3936858475208282,0.0,0.0,0.0,0.0,0.2560952305793762
1666092009713459375,0.3773799538612366,0.0,0.0,0.0,0.0,1.2217304763960302
1666092009769051820,0.36259311437606806,0.0,0.0,0.0,0.0,1.2217304763960302
1666092009831216774,0.3525906205177307,0.0,0.0,0.0,0.0,1.2217304763960302
1666092009922207825,0.34085556864738464,0.0,0.0,0.0,0.0,1.2217304763960302
1666092009962564890,0.33299002051353455,0.0,0.0,0.0,0.0,1.2217304763960302
1666092010053141019,0.4579271674156189,0.0,0.0,0.0,0.0,1.2217304763960302
1666092010171143309,0.3238461911678314,0.0,0.0,0.0,0.0,1.2217304763960302
1666092010259522379,0.3257824182510376,0.0,0.0,0.0,0.0,1.2217304763960302
1666092010303398706,0.33764123916625977,0.0,0.0,0.0,0.0,1.2217304763960302
1666092010394421211,0.34984588623046875,0.0,0.0,0.0,0.0,1.2217304763960302
1666092010470682739,0.364529550075531,0.0,0.0,0.0,0.0,1.2217304763960302
1666092010565228308,0.37367549538612366,0.0,0.0,0.0,0.0,1.0471975511965972
1666092010712251837,0.4081112444400787,0.0,0.0,0.0,0.0,1.0471975511965972
1666092010738739481,0.4075426459312439,0.0,0.0,0.0,0.0,1.0471975511965972
1666092010828087998,0.4331432580947876,0.0,0.0,0.0,0.0,1.0471975511965972
1666092010872886004,0.46158406138420105,0.0,0.0,0.0,0.0,1.0471975511965972
1666092010993020611,0.4831909239292145,0.0,0.0,0.0,0.0,0.8726646259971643
1666092011083948327,0.5244172215461731,0.0,0.0,0.0,0.0,0.6981317007977313
1666092011171320164,0.5699310302734374,0.0,0.0,0.0,0.0,0.6981317007977313
1666092011249462003,0.6095969080924987,0.0,0.0,0.0,0.0,0.5235987755982984
1666092011335037166,0.6546114087104797,0.0,0.0,0.0,0.0,0.5235987755982984
1666092011384000689,0.6831175088882446,0.0,0.0,0.0,0.0,0.3490658503988654
1666092011477996088,0.7233482003211975,0.0,0.0,0.0,0.0,0.3490658503988654
1666092011508613970,0.7478011846542358,0.0,0.0,0.0,0.0,0.17453292519943245
1666092011598625907,0.7616720795631409,0.0,0.0,0.0,0.0,-4.996003610813204e-16
1666092011729222896,0.7511245608329773,0.0,0.0,0.0,0.0,0.013902662321925163
1666092011771505015,0.777962028980255,0.0,0.0,0.0,0.0,-0.09903189539909363
1666092011815301294,0.7604768872261047,0.0,0.0,0.0,0.0,-0.12388405203819275
1666092011934581974,0.743503749370575,0.0,0.0,0.0,0.0,-0.14710310101509094
1666092012027450111,0.7368857860565184,0.0,0.0,0.0,0.0,-0.17014160752296448
1666092012112290710,0.7301760315895081,0.0,0.0,0.0,0.0,-0.3490658503988664
1666092012234469528,0.7050752639770507,0.0,0.0,0.0,0.0,-0.3490658503988664
1666092012320521545,0.6758178472518921,0.0,0.0,0.0,0.0,-0.5235987755982994
1666092012365168913,0.5783751010894775,0.0,0.0,0.0,0.0,-0.3490658503988664
1666092012457192221,0.6122778058052063,0.0,0.0,0.0,0.0,-0.6981317007977323
1666092012501412637,0.5728870630264282,0.0,0.0,0.0,0.0,-0.8726646259971653
1666092012616235611,0.5356298089027405,0.0,0.0,0.0,0.0,-0.8726646259971653
1666092012704051863,0.405111700296402,0.0,0.0,0.0,0.0,-0.8726646259971653
1666092012834762126,0.3745574355125427,0.0,0.0,0.0,0.0,-0.8726646259971653
1666092012958650771,0.4311737716197967,0.0,0.0,0.0,0.0,-1.0471975511965983
1666092013099110509,0.4181486070156097,0.0,0.0,0.0,0.0,-1.0471975511965983
1666092013132394602,0.4079206883907318,0.0,0.0,0.0,0.0,-1.0471975511965983
1666092013224152668,0.39492782950401306,0.0,0.0,0.0,0.0,-1.0471975511965983
1666092013343648103,0.3846475481986999,0.0,0.0,0.0,0.0,-1.0471975511965983
1666092013431257446,0.37634339928627014,0.0,0.0,0.0,0.0,-1.0471975511965983
1666092013495698708,0.37177106738090515,0.0,0.0,0.0,0.0,-1.0471975511965983
1666092013643145764,0.3649207055568695,0.0,0.0,0.0,0.0,-1.0471975511965983
1666092013736152203,0.22872766852378845,0.0,0.0,0.0,0.0,-1.0471975511965983
1666092013807130463,0.0,0.0,0.0,0.0,0.0,-0.8726646259971653
1666092013918259727,0.0,0.0,0.0,0.0,0.0,-0.8062804686545317
1666092013948942567,0.0,0.0,0.0,0.0,0.0,-0.7990264228062512
1666092014006924386,0.0,0.0,0.0,0.0,0.0,-0.7703527313479107
1666092014115752586,0.38706874847412104,0.0,0.0,0.0,0.0,-0.8726646259971653
1666092014160785951,0.4030312895774841,0.0,0.0,0.0,0.0,-0.8726646259971653
1666092014290755859,0.4226574301719665,0.0,0.0,0.0,0.0,-0.6981317007977323
1666092014397106923,0.4334135055541992,0.0,0.0,0.0,0.0,-0.6981317007977323
1666092014411510142,0.4325605630874634,0.0,0.0,0.0,0.0,-0.6981317007977323
1666092014500301402,0.3782674372196197,0.0,0.0,0.0,0.0,-0.5235987755982994
1666092014586729687,0.41594582796096796,0.0,0.0,0.0,0.0,-0.5235987755982994
1666092014681584609,0.514566957950592,0.0,0.0,0.0,0.0,-0.5235987755982994
1666092014714235820,0.4998758137226105,0.0,0.0,0.0,0.0,-0.3490658503988664
1666092014799670892,0.5731805562973022,0.0,0.0,0.0,0.0,-0.3490658503988664
1666092014869365146,0.6025113463401794,0.0,0.0,0.0,0.0,-0.17453292519943345
1666092014961544486,0.6251797080039977,0.0,0.0,0.0,0.0,-0.17453292519943345
1666092015009836986,0.6321637630462645,0.0,0.0,0.0,0.0,-0.17453292519943345
1666092015070288427,0.6662912368774414,0.0,0.0,0.0,0.0,-0.08358657360076904
1666092015206845009,0.6741437911987305,0.0,0.0,0.0,0.0,-4.996003610813204e-16
1666092015296284909,0.6847344040870667,0.0,0.0,0.0,0.0,-4.996003610813204e-16
1666092015331691418,0.6792126297950745,0.0,0.0,0.0,0.0,0.17453292519943245
1666092015420917709,0.6695945262908934,0.0,0.0,0.0,0.0,0.17453292519943245
1666092015503477043,0.659123957157135,0.0,0.0,0.0,0.0,0.17453292519943245
1666092015547545202,0.6714191436767578,0.0,0.0,0.0,0.0,0.17453292519943245
1666092015650001771,0.6538383960723877,0.0,0.0,0.0,0.0,0.17453292519943245
1666092015755636049,0.6139336824417114,0.0,0.0,0.0,0.0,0.3490658503988654
1666092015846659677,0.5808276534080505,0.0,0.0,0.0,0.0,0.3490658503988654
1666092015896987422,0.5801879167556763,0.0,0.0,0.0,0.0,0.3490658503988654
1666092015939283153,0.5612770318984985,0.0,0.0,0.0,0.0,0.3490658503988654
1666092016063003314,0.5406164526939392,0.0,0.0,0.0,0.0,0.3490658503988654
1666092016147392646,0.5068830847740173,0.0,0.0,0.0,0.0,0.3490658503988654
1666092016193889469,0.5073095560073853,0.0,0.0,0.0,0.0,0.3490658503988654
1666092016239752496,0.48308128118515015,0.0,0.0,0.0,0.0,0.3490658503988654
1666092016311519916,0.47152537107467646,0.0,0.0,0.0,0.0,0.3490658503988654
1666092016400099237,0.4551197588443756,0.0,0.0,0.0,0.0,0.3490658503988654
1666092016493483622,0.4460563361644745,0.0,0.0,0.0,0.0,0.3490658503988654
1666092016556170138,0.4430440962314605,0.0,0.0,0.0,0.0,0.3490658503988654
1666092016611983897,0.1,0.0,0.0,0.0,0.0,0.17453292519943245
1666092016702090307,0.1,0.0,0.0,0.0,0.0,0.17453292519943245
1666092016789553327,0.46491223573684687,0.0,0.0,0.0,0.0,0.5235987755982984
1666092016833234369,0.1,0.0,0.0,0.0,0.0,0.17453292519943245
1666092016953083776,0.1,0.0,0.0,0.0,0.0,0.17453292519943245
1666092017041200736,0.1,0.0,0.0,0.0,0.0,0.17453292519943245
1666092017176511334,0.1,0.0,0.0,0.0,0.0,0.17453292519943245
1666092017215509888,0.1,0.0,0.0,0.0,0.0,0.17453292519943245
1666092017250433367,0.1,0.0,0.0,0.0,0.0,0.17453292519943245
1666092017336483736,0.1,0.0,0.0,0.0,0.0,-4.996003610813204e-16
1666092017484945660,0.1,0.0,0.0,0.0,0.0,-4.996003610813204e-16
1666092017501416468,0.1,0.0,0.0,0.0,0.0,-4.996003610813204e-16
1666092017633084555,0.1,0.0,0.0,0.0,0.0,0.17453292519943245
1666092017728419610,0.1,0.0,0.0,0.0,0.0,0.17453292519943245
1666092017729987997,0.1,0.0,0.0,0.0,0.0,0.17453292519943245
1666092017793980333,0.1,0.0,0.0,0.0,0.0,0.17453292519943245
1666092017882194464,0.1,0.0,0.0,0.0,0.0,0.17453292519943245
1666092017971776126,0.1,0.0,0.0,0.0,0.0,0.17453292519943245
1666092018014051001,0.1,0.0,0.0,0.0,0.0,0.17453292519943245
1666092018147817273,0.1,0.0,0.0,0.0,0.0,0.3490658503988654
1666092018234772454,0.1,0.0,0.0,0.0,0.0,0.3490658503988654
1666092018290564985,0.1,0.0,0.0,0.0,0.0,0.3490658503988654
1666092018445753083,0.1,0.0,0.0,0.0,0.0,0.3490658503988654
1666092018490573795,0.1,0.0,0.0,0.0,0.0,0.3490658503988654
1666092018582224660,0.1,0.0,0.0,0.0,0.0,0.3490658503988654
1666092018654397719,0.1,0.0,0.0,0.0,0.0,0.3490658503988654
1666092018742441494,0.1,0.0,0.0,0.0,0.0,0.3490658503988654
1666092018885242204,0.1,0.0,0.0,0.0,0.0,0.3490658503988654
1666092018997845799,0.1,0.0,0.0,0.0,0.0,0.8726646259971643
1666092019085972761,0.1,0.0,0.0,0.0,0.0,0.8726646259971643
1666092019173525800,0.1,0.0,0.0,0.0,0.0,0.8726646259971643
1666092019230192224,0.2,0.0,0.0,0.0,0.0,1.5707963267948961
1666092019250596150,0.1,0.0,0.0,0.0,0.0,1.0471975511965972
1666092019390552292,0.1,0.0,0.0,0.0,0.0,1.0471975511965972
1666092019481702022,0.1,0.0,0.0,0.0,0.0,1.2217304763960302
1666092019553757240,0.1,0.0,0.0,0.0,0.0,1.2217304763960302
1666092019732103264,0.1,0.0,0.0,0.0,0.0,1.2217304763960302
1666092019821677373,0.1,0.0,0.0,0.0,0.0,1.3962634015954631
1666092019829894760,0.1,0.0,0.0,0.0,0.0,1.3962634015954631
1666092019894787164,0.7999999999999999,0.0,0.0,0.0,0.0,0.10109712183475494
1666092020029443766,0.7999999999999999,0.0,0.0,0.0,0.0,-4.996003610813204e-16
1666092020131123455,0.7999999999999999,0.0,0.0,0.0,0.0,-0.17453292519943345
1666092020197207294,0.7999999999999999,0.0,0.0,0.0,0.0,-0.17453292519943345
1666092020290698356,0.7999999999999999,0.0,0.0,0.0,0.0,-0.3490658503988664
1666092020335605017,0.7999999999999999,0.0,0.0,0.0,0.0,-0.3490658503988664
1666092020413566248,0.7999999999999999,0.0,0.0,0.0,0.0,-0.5235987755982994
1666092020506726417,0.7999999999999999,0.0,0.0,0.0,0.0,-0.5235987755982994
1666092020636088463,0.7999999999999999,0.0,0.0,0.0,0.0,-0.5235987755982994
1666092020758863852,0.7999999999999999,0.0,0.0,0.0,0.0,-0.5235987755982994
1666092020801435074,0.7999999999999999,0.0,0.0,0.0,0.0,-0.5235987755982994
1666092020902773228,0.7999999999999999,0.0,0.0,0.0,0.0,-0.5235987755982994
1666092020934928808,0.7999999999999999,0.0,0.0,0.0,0.0,-0.5235987755982994
1666092020983191099,0.7999999999999999,0.0,0.0,0.0,0.0,-0.5235987755982994
1666092021101563738,0.7999999999999999,0.0,0.0,0.0,0.0,-0.6981317007977323
1666092021148372736,0.7223392128944397,0.0,0.0,0.0,0.0,-0.6981317007977323
1666092021189737105,0.721628427505493,0.0,0.0,0.0,0.0,-0.6981317007977323
1666092021274922475,0.7430896162986754,0.0,0.0,0.0,0.0,-0.6981317007977323
1666092021399874432,0.7090975642204285,0.0,0.0,0.0,0.0,-0.8726646259971653
1666092021438441044,0.6767385601997375,0.0,0.0,0.0,0.0,-0.8726646259971653
1666092021532075065,0.5530580878257751,0.0,0.0,0.0,0.0,-0.8726646259971653
1666092021614502401,0.5098430514335632,0.0,0.0,0.0,0.0,-1.0471975511965983
1666092021662916398,0.5739408135414124,0.0,0.0,0.0,0.0,-1.0471975511965983
1666092021740049366,0.5430201292037964,0.0,0.0,0.0,0.0,-1.0471975511965983
1666092021872273753,0.39457613229751587,0.0,0.0,0.0,0.0,-1.0471975511965983
1666092021914657885,0.47831448912620544,0.0,0.0,0.0,0.0,-1.2217304763960313
1666092021992987734,0.4491182267665863,0.0,0.0,0.0,0.0,-1.2217304763960313
1666092022122672585,0.4199979901313781,0.0,0.0,0.0,0.0,-1.2217304763960313
1666092022215891364,0.39335429668426514,0.0,0.0,0.0,0.0,-1.2217304763960313
1666092022314944787,0.34921738505363464,0.0,0.0,0.0,0.0,-1.2217304763960313
1666092022379189500,0.3497149348258972,0.0,0.0,0.0,0.0,-1.2217304763960313
1666092022428132797,0.3347202539443969,0.0,0.0,0.0,0.0,-1.2217304763960313
1666092022455379397,0.0,0.0,0.0,0.0,0.0,-1.0471975511965983
1666092022585086989,0.0,0.0,0.0,0.0,0.0,-0.9990162143226587
1666092022628798287,0.0,0.0,0.0,0.0,0.0,-0.9880323500956725
1666092022674438767,0.0,0.0,0.0,0.0,0.0,-0.9485294985642149
1666092022751838297,0.0,0.0,0.0,0.0,0.0,-0.9111283628971828
1666092022837565621,0.0,0.0,0.0,0.0,0.0,-0.8726646259971653
1666092022929501782,0.0,0.0,0.0,0.0,0.0,-0.8067404945710256
1666092023005791147,0.0,0.0,0.0,0.0,0.0,-0.6981317007977323
1666092023083931437,0.0,0.0,0.0,0.0,0.0,-0.6005949855211754
1666092023096623013,0.0,0.0,0.0,0.0,0.0,-0.5993135189802575
1666092023190454786,0.0,0.0,0.0,0.0,0.0,-0.5266847365113787
1666092023291108144,0.0,0.0,0.0,0.0,0.0,-0.44492111451413124
1666092023358699231,0.0,0.0,0.0,0.0,0.0,-0.3759512628655964
1666092023450078481,0.0,0.0,0.0,0.0,0.0,-0.3149571201163828
1666092023550786570,0.0,0.0,0.0,0.0,0.0,-0.17453292519943345
1666092023552042790,0.0,0.0,0.0,0.0,0.0,-0.17453292519943345
1666092023662586957,0.0,0.0,0.0,0.0,0.0,-0.17453292519943345
1666092023708847436,0.0,0.0,0.0,0.0,0.0,-0.17453292519943345
1666092023802687499,0.0,0.0,0.0,0.0,0.0,-4.996003610813204e-16
1666092023922862954,0.0,0.0,0.0,0.0,0.0,-4.996003610813204e-16
1666092024008926421,0.0,0.0,0.0,0.0,0.0,-4.996003610813204e-16
1666092024057835968,0.0,0.0,0.0,0.0,0.0,-4.996003610813204e-16
1666092024102674186,0.0,0.0,0.0,0.0,0.0,-4.996003610813204e-16
1666092024172774151,0.0,0.0,0.0,0.0,0.0,-4.996003610813204e-16
1666092024265484237,0.0,0.0,0.0,0.0,0.0,-4.996003610813204e-16
1666092024313125905,0.0,0.0,0.0,0.0,0.0,-4.996003610813204e-16
1666092024372390747,0.0,0.0,0.0,0.0,0.0,-4.996003610813204e-16
1666092024437359319,0.0,0.0,0.0,0.0,0.0,-4.996003610813204e-16
1666092024574602458,0.0,0.0,0.0,0.0,0.0,-4.996003610813204e-16
1666092024680072429,0.0,0.0,0.0,0.0,0.0,-4.996003610813204e-16
1666092024695637374,0.0,0.0,0.0,0.0,0.0,-4.996003610813204e-16
1666092024784934557,0.0,0.0,0.0,0.0,0.0,-4.996003610813204e-16
1666092024872995762,0.0,0.0,0.0,0.0,0.0,-4.996003610813204e-16
1666092024933005732,0.0,0.0,0.0,0.0,0.0,-4.996003610813204e-16
1666092025001050358,0.0,0.0,0.0,0.0,0.0,-4.996003610813204e-16
1666092025137377682,0.0,0.0,0.0,0.0,0.0,-0.17453292519943345
1666092025212145850,0.0,0.0,0.0,0.0,0.0,-0.17453292519943345
1666092025302826865,0.0,0.0,0.0,0.0,0.0,-0.17453292519943345
1666092025388849623,0.0,0.0,0.0,0.0,0.0,-0.17453292519943345
1666092025435123079,0.0,0.0,0.0,0.0,0.0,-0.17453292519943345
1666092025521175978,0.0,0.0,0.0,0.0,0.0,-0.17453292519943345
1666092025645369128,0.0,0.0,0.0,0.0,0.0,-0.17453292519943345
1666092025737178302,0.0,0.0,0.0,0.0,0.0,-0.17453292519943345
1666092025785329149,0.0,0.0,0.0,0.0,0.0,-0.17453292519943345
1666092025853500519,0.0,0.0,0.0,0.0,0.0,-0.17453292519943345
1666092025901839112,0.0,0.0,0.0,0.0,0.0,-0.17453292519943345
1666092025952589522,0.0,0.0,0.0,0.0,0.0,-0.17453292519943345
1666092026061429942,0.0,0.0,0.0,0.0,0.0,-0.17453292519943345
1666092026105276838,0.0,0.0,0.0,0.0,0.0,-0.17453292519943345
1666092026174733558,0.0,0.0,0.0,0.0,0.0,-0.17453292519943345
1666092026271536919,0.0,0.0,0.0,0.0,0.0,-0.17453292519943345
1666092026381663690,0.0,0.0,0.0,0.0,0.0,-0.17453292519943345
1666092026515218436,0.0,0.0,0.0,0.0,0.0,-0.17453292519943345
1666092026557689371,0.0,0.0,0.0,0.0,0.0,-0.17453292519943345
1666092026635005140,0.0,0.0,0.0,0.0,0.0,-0.17453292519943345
1666092026721661558,0.0,0.0,0.0,0.0,0.0,-0.17453292519943345
1666092026813183100,0.0,0.0,0.0,0.0,0.0,-0.17453292519943345
1666092026857045291,0.0,0.0,0.0,0.0,0.0,-0.17453292519943345
1666092026901391966,0.0,0.0,0.0,0.0,0.0,-0.17453292519943345
1666092026977146176,0.0,0.0,0.0,0.0,0.0,-0.17453292519943345
1666092027065528291,0.0,0.0,0.0,0.0,0.0,-0.17453292519943345
1666092027152759990,0.0,0.0,0.0,0.0,0.0,-0.17453292519943345
1666092027277188784,0.0,0.0,0.0,0.0,0.0,-0.17453292519943345
1666092027368771283,0.0,0.0,0.0,0.0,0.0,-0.17453292519943345
1666092027456724602,0.0,0.0,0.0,0.0,0.0,-0.17453292519943345
1666092027537019229,0.0,0.0,0.0,0.0,0.0,-0.17453292519943345
1666092027621762186,0.0,0.0,0.0,0.0,0.0,-0.17453292519943345
1666092027713630189,0.0,0.0,0.0,0.0,0.0,-0.17453292519943345
1666092027759364389,0.0,0.0,0.0,0.0,0.0,-0.17453292519943345
1666092027813626871,0.0,0.0,0.0,0.0,0.0,-0.17453292519943345
1666092027876709186,0.0,0.0,0.0,0.0,0.0,-0.17453292519943345
1666092027965977496,0.0,0.0,0.0,0.0,0.0,-0.17453292519943345
1666092028057647315,0.0,0.0,0.0,0.0,0.0,-0.17453292519943345
1666092028146130420,0.0,0.0,0.0,0.0,0.0,-0.17453292519943345
1666092028177852497,0.0,0.0,0.0,0.0,0.0,-0.17453292519943345
1666092028221029128,0.0,0.0,0.0,0.0,0.0,-0.17453292519943345
1666092028356992181,0.0,0.0,0.0,0.0,0.0,-0.17453292519943345
1666092028413288368,0.0,0.0,0.0,0.0,0.0,-0.17453292519943345
1666092028522536329,0.0,0.0,0.0,0.0,0.0,-0.17453292519943345
1666092028568874896,0.0,0.0,0.0,0.0,0.0,-0.17453292519943345
1666092028617903421,0.0,0.0,0.0,0.0,0.0,-0.17453292519943345
1666092028693296547,0.0,0.0,0.0,0.0,0.0,-0.17453292519943345
1666092028780942692,0.0,0.0,0.0,0.0,0.0,-0.17453292519943345
1666092028872112685,0.0,0.0,0.0,0.0,0.0,-0.17453292519943345
1666092028957658252,0.0,0.0,0.0,0.0,0.0,-0.17453292519943345
1666092029076933687,0.0,0.0,0.0,0.0,0.0,-0.17453292519943345
1666092029122014700,0.0,0.0,0.0,0.0,0.0,-0.17453292519943345
1666092029208785598,0.0,0.0,0.0,0.0,0.0,-0.17453292519943345
1666092029253414317,0.0,0.0,0.0,0.0,0.0,-0.17453292519943345
1666092029341444005,0.0,0.0,0.0,0.0,0.0,-0.17453292519943345
1666092029377681574,0.0,0.0,0.0,0.0,0.0,-0.17453292519943345
1666092029509751304,0.0,0.0,0.0,0.0,0.0,-0.17453292519943345
1666092029568236790,0.0,0.0,0.0,0.0,0.0,-0.17453292519943345
1666092029597175279,0.0,0.0,0.0,0.0,0.0,-0.17453292519943345
1666092029718135250,0.0,0.0,0.0,0.0,0.0,-0.17453292519943345
1666092029805829113,0.0,0.0,0.0,0.0,0.0,-0.17453292519943345
1666092029848828108,0.0,0.0,0.0,0.0,0.0,-0.17453292519943345
1666092029944963426,0.0,0.0,0.0,0.0,0.0,-0.17453292519943345
1666092029988815108,0.0,0.0,0.0,0.0,0.0,-0.17453292519943345
1666092030060564574,0.0,0.0,0.0,0.0,0.0,-0.17453292519943345
1666092030153195488,0.0,0.0,0.0,0.0,0.0,-0.17453292519943345
1666092030246949511,0.0,0.0,0.0,0.0,0.0,-0.17453292519943345
1666092030254063863,0.0,0.0,0.0,0.0,0.0,-0.17453292519943345
1666092030363851587,0.0,0.0,0.0,0.0,0.0,-0.17453292519943345
1666092030405165779,0.0,0.0,0.0,0.0,0.0,-0.17453292519943345
1666092030493769139,0.0,0.0,0.0,0.0,0.0,-0.24649132732744278
1666092030588907046,0.0,0.0,0.0,0.0,0.0,-0.2781679713571499
1666092030595318376,0.0,0.0,0.0,0.0,0.0,-0.2709600046381911
1666092030657150675,0.0,0.0,0.0,0.0,0.0,-0.2718141899180584
1666092030798446824,0.0,0.0,0.0,0.0,0.0,-0.25965721218967974
1666092030852752528,0.0,0.0,0.0,0.0,0.0,-0.24616364587646564
1666092030854358047,0.0,0.0,0.0,0.0,0.0,-0.24247518008225882
1666092030965373355,0.0,0.0,0.0,0.0,0.0,-0.2391549112469414
1666092031053359313,0.0,0.0,0.0,0.0,0.0,-0.21585970109619526
1666092031213333621,0.0,0.0,0.0,0.0,0.0,-0.17453292519943345
1666092031221211079,0.0,0.0,0.0,0.0,0.0,-0.17453292519943345
1666092031308874358,0.0,0.0,0.0,0.0,0.0,-0.17453292519943345
1666092031397324887,0.0,0.0,0.0,0.0,0.0,-0.17453292519943345
1666092031441649297,0.0,0.0,0.0,0.0,0.0,-0.17453292519943345
1666092031516899563,0.0,0.0,0.0,0.0,0.0,-0.17453292519943345
1666092031606966710,0.0,0.0,0.0,0.0,0.0,-0.17453292519943345
1666092031693214941,0.0,0.0,0.0,0.0,0.0,-0.17453292519943345
1666092031737679590,0.0,0.0,0.0,0.0,0.0,-0.17453292519943345
1666092031814588347,0.0,0.0,0.0,0.0,0.0,-0.17453292519943345
1666092031902553225,0.0,0.0,0.0,0.0,0.0,-0.17453292519943345
1666092031946997273,0.0,0.0,0.0,0.0,0.0,-0.17453292519943345
1666092032033291048,0.0,0.0,0.0,0.0,0.0,-0.17453292519943345
1666092032121185277,0.0,0.0,0.0,0.0,0.0,-0.17453292519943345
1666092032197579942,0.0,0.0,0.0,0.0,0.0,-0.17453292519943345
1666092032241038062,0.0,0.0,0.0,0.0,0.0,-0.17453292519943345
1666092032329080992,0.0,0.0,0.0,0.0,0.0,-0.17453292519943345
1666092032417137253,0.0,0.0,0.0,0.0,0.0,-0.17453292519943345
1666092032461744484,0.0,0.0,0.0,0.0,0.0,-0.17453292519943345
1666092032585106260,0.0,0.0,0.0,0.0,0.0,-0.17453292519943345
1666092032673290543,0.0,0.0,0.0,0.0,0.0,-0.17453292519943345
1666092032760819505,0.0,0.0,0.0,0.0,0.0,-0.17453292519943345
1666092032836190391,0.0,0.0,0.0,0.0,0.0,-0.17453292519943345
1666092032925414779,0.0,0.0,0.0,0.0,0.0,-4.996003610813204e-16
1666092033061179038,0.0,0.0,0.0,0.0,0.0,-4.996003610813204e-16
1666092033096155426,0.0,0.0,0.0,0.0,0.0,-4.996003610813204e-16
1666092033185960463,0.0,0.0,0.0,0.0,0.0,-0.17453292519943345
1666092033281156024,0.0,0.0,0.0,0.0,0.0,-0.17453292519943345
1666092033356425941,0.0,0.0,0.0,0.0,0.0,-0.17453292519943345
1666092033446949883,0.0,0.0,0.0,0.0,0.0,-0.17453292519943345
1666092033542932608,0.0,0.0,0.0,0.0,0.0,-0.17453292519943345
1666092033584942830,0.0,0.0,0.0,0.0,0.0,-0.17453292519943345
1666092033616201769,0.0,0.0,0.0,0.0,0.0,-0.17453292519943345
1666092033701415716,0.0,0.0,0.0,0.0,0.0,-0.17453292519943345
1666092033795293478,0.0,0.0,0.0,0.0,0.0,-0.17453292519943345
1666092033837417344,0.0,0.0,0.0,0.0,0.0,-0.17453292519943345
1666092033962951669,0.0,0.0,0.0,0.0,0.0,-0.17453292519943345
1666092034052992118,0.0,0.0,0.0,0.0,0.0,-0.17453292519943345
1666092034144887455,0.0,0.0,0.0,0.0,0.0,-0.17453292519943345
1666092034258456794,0.0,0.0,0.0,0.0,0.0,-0.17453292519943345
1666092034301225739,0.0,0.0,0.0,0.0,0.0,-0.17453292519943345
1666092034391704919,0.0,0.0,0.0,0.0,0.0,-0.17453292519943345
1666092034432875643,0.0,0.0,0.0,0.0,0.0,-0.17453292519943345
1666092034522702953,0.0,0.0,0.0,0.0,0.0,-0.17453292519943345
1666092034624387630,0.0,0.0,0.0,0.0,0.0,-0.17453292519943345
1666092034641511161,0.0,0.0,0.0,0.0,0.0,-0.17453292519943345
1666092034733296623,0.0,0.0,0.0,0.0,0.0,-0.17453292519943345
1666092034781551965,0.0,0.0,0.0,0.0,0.0,-0.17453292519943345
