%time,field.linear.x,field.linear.y,field.linear.z,field.angular.x,field.angular.y,field.angular.z
1666091995930933774,0.015,0.0,0.0,0.0,0.0,-0.035547504395672995
1666091995980152839,0.03,0.0,0.0,0.0,0.0,-0.07109500879134599
1666091996030367715,0.045,0.0,0.0,0.0,0.0,-0.10664251318701898
1666091996080959611,0.06,0.0,0.0,0.0,0.0,-0.14257050795704923
1666091996130496054,0.075,0.0,0.0,0.0,0.0,-0.178666610704729
1666091996180170562,0.09,0.0,0.0,0.0,0.0,-0.21476271345240877
1666091996232827726,0.105,0.0,0.0,0.0,0.0,-0.25116239603646956
1666091996280623357,0.12,0.0,0.0,0.0,0.0,-0.28756207862053035
1666091996330276341,0.135,0.0,0.0,0.0,0.0,-0.3409902265562766
1666091996380642004,0.15000000000000002,0.0,0.0,0.0,0.0,-0.39436429252729255
1666091996430850796,0.16500000000000004,0.0,0.0,0.0,0.0,-0.43077964440170236
1666091996480895593,0.18000000000000005,0.0,0.0,0.0,0.0,-0.46786596985837564
1666091996530690515,0.19500000000000006,0.0,0.0,0.0,0.0,-0.5049522953150489
1666091996580288624,0.21000000000000008,0.0,0.0,0.0,0.0,-0.5334082148451444
1666091996630702715,0.2250000000000001,0.0,0.0,0.0,0.0,-0.56186413437524
1666091996680169981,0.2400000000000001,0.0,0.0,0.0,0.0,-0.6184873304642998
1666091996730825172,0.2550000000000001,0.0,0.0,0.0,0.0,-0.6751105265533597
1666091996780317844,0.27000000000000013,0.0,0.0,0.0,0.0,-0.7013670233900955
1666091996831734362,0.28500000000000014,0.0,0.0,0.0,0.0,-0.7280920148282743
1666091996880564814,0.30000000000000016,0.0,0.0,0.0,0.0,-0.7553295907599779
1666091996930286001,0.31500000000000017,0.0,0.0,0.0,0.0,-0.7825671666916814
1666091996980176722,0.3300000000000002,0.0,0.0,0.0,0.0,-0.8098047426233849
1666091997030370994,0.3450000000000002,0.0,0.0,0.0,0.0,-0.8373721236461188
1666091997080429417,0.3600000000000002,0.0,0.0,0.0,0.0,-0.8663931282984564
1666091997130370089,0.3750000000000002,0.0,0.0,0.0,0.0,-0.8954141329507941
1666091997180305618,0.39000000000000024,0.0,0.0,0.0,0.0,-0.9260597810471103
1666091997230309171,0.40500000000000025,0.0,0.0,0.0,0.0,-0.9567054291434265
1666091997280379252,0.42000000000000026,0.0,0.0,0.0,0.0,-0.9873510772397427
1666091997330284032,0.4350000000000003,0.0,0.0,0.0,0.0,-1.0414195104272397
1666091997380431064,0.43660297989845276,0.0,0.0,0.0,0.0,-1.0471975511965983
1666091997430532038,0.4289700388908386,0.0,0.0,0.0,0.0,-0.8726646259971653
1666091997480610076,0.4289700388908386,0.0,0.0,0.0,0.0,-0.8726646259971653
1666091997534123588,0.3022320568561554,0.0,0.0,0.0,0.0,-0.8726646259971653
1666091997580201644,0.3020898997783661,0.0,0.0,0.0,0.0,-0.8726646259971653
1666091997632358771,0.30059242248535156,0.0,0.0,0.0,0.0,-0.8726646259971653
1666091997680728657,0.29613348841667175,0.0,0.0,0.0,0.0,-0.6981317007977323
1666091997730451964,0.29613348841667175,0.0,0.0,0.0,0.0,-0.6981317007977323
1666091997780681353,0.29613348841667175,0.0,0.0,0.0,0.0,-0.6981317007977323
1666091997830534730,0.14613348841667173,0.0,0.0,0.0,0.0,-0.6331299179171179
1666091997880139939,0.0,0.0,0.0,0.0,0.0,-0.5309208784694494
1666091997932103903,0.0,0.0,0.0,0.0,0.0,-0.49026756855630743
1666091997980325885,0.0,0.0,0.0,0.0,0.0,-0.49026756855630743
1666091998030532931,0.0,0.0,0.0,0.0,0.0,-0.4499587246709379
1666091998080439952,0.0,0.0,0.0,0.0,0.0,-0.4471928111525876
1666091998130307243,0.0,0.0,0.0,0.0,0.0,-0.40603565524060564
1666091998180204394,0.0,0.0,0.0,0.0,0.0,-0.40603565524060564
1666091998232210957,0.0,0.0,0.0,0.0,0.0,-0.33142578919274523
1666091998280271576,0.0,0.0,0.0,0.0,0.0,-0.33142578919274523
1666091998331349654,0.0,0.0,0.0,0.0,0.0,-0.2870469809977937
1666091998380474371,0.0,0.0,0.0,0.0,0.0,-0.2870469809977937
1666091998430214834,0.0,0.0,0.0,0.0,0.0,-0.22170268923419245
1666091998480263244,0.0,0.0,0.0,0.0,0.0,-0.22170268923419245
1666091998530722961,0.0,0.0,0.0,0.0,0.0,-0.2212742832098898
1666091998580161845,0.0,0.0,0.0,0.0,0.0,-0.17453292519943345
1666091998630251013,0.0,0.0,0.0,0.0,0.0,-0.17453292519943345
1666091998680798300,0.0,0.0,0.0,0.0,0.0,-0.17453292519943345
1666091998730161540,0.0,0.0,0.0,0.0,0.0,-4.996003610813204e-16
1666091998780206688,0.0,0.0,0.0,0.0,0.0,-4.996003610813204e-16
1666091998830351560,0.0,0.0,0.0,0.0,0.0,-4.996003610813204e-16
1666091998880536946,0.0,0.0,0.0,0.0,0.0,-4.996003610813204e-16
1666091998930158543,0.0,0.0,0.0,0.0,0.0,-4.996003610813204e-16
1666091998981346585,0.0,0.0,0.0,0.0,0.0,-4.996003610813204e-16
1666091999030444822,0.0,0.0,0.0,0.0,0.0,-4.996003610813204e-16
1666091999080222642,0.0,0.0,0.0,0.0,0.0,-4.996003610813204e-16
1666091999130199418,0.0,0.0,0.0,0.0,0.0,-4.996003610813204e-16
1666091999180837985,0.0,0.0,0.0,0.0,0.0,-4.996003610813204e-16
1666091999230391171,0.0,0.0,0.0,0.0,0.0,-4.996003610813204e-16
1666091999280311524,0.0,0.0,0.0,0.0,0.0,-4.996003610813204e-16
1666091999330394374,0.0,0.0,0.0,0.0,0.0,-4.996003610813204e-16
1666091999380297719,0.0,0.0,0.0,0.0,0.0,-4.996003610813204e-16
1666091999430483977,0.0,0.0,0.0,0.0,0.0,-4.996003610813204e-16
1666091999480320753,0.0,0.0,0.0,0.0,0.0,-4.996003610813204e-16
1666091999530201601,0.0,0.0,0.0,0.0,0.0,-0.1000000000000005
1666091999580420829,0.0,0.0,0.0,0.0,0.0,-0.17453292519943345
1666091999630590602,0.0,0.0,0.0,0.0,0.0,-0.17453292519943345
1666091999680825873,0.0,0.0,0.0,0.0,0.0,-0.17453292519943345
1666091999731107283,0.0,0.0,0.0,0.0,0.0,-0.17453292519943345
1666091999780509270,0.0,0.0,0.0,0.0,0.0,-0.17453292519943345
1666091999830500284,0.0,0.0,0.0,0.0,0.0,-0.2164544254123019
1666091999880312062,0.0,0.0,0.0,0.0,0.0,-0.2164544254123019
1666091999930641880,0.0,0.0,0.0,0.0,0.0,-0.23451507510595937
1666091999980300559,0.0,0.0,0.0,0.0,0.0,-0.23451507510595937
1666092000030847318,0.0,0.0,0.0,0.0,0.0,-0.28416183227691577
1666092000080846535,0.0,0.0,0.0,0.0,0.0,-0.28416183227691577
1666092000130216899,0.0,0.0,0.0,0.0,0.0,-0.3050901429060403
1666092000180217469,0.0,0.0,0.0,0.0,0.0,-0.3050901429060403
1666092000230321237,0.0,0.0,0.0,0.0,0.0,-0.39553681584843253
1666092000280849791,0.0,0.0,0.0,0.0,0.0,-0.42709432984474144
1666092000330268636,0.0,0.0,0.0,0.0,0.0,-0.45957601358214634
1666092000380293563,0.0,0.0,0.0,0.0,0.0,-0.45957601358214634
1666092000430578189,0.0,0.0,0.0,0.0,0.0,-0.5013282078364706
1666092000480367498,0.0,0.0,0.0,0.0,0.0,-0.5013282078364706
1666092000530819393,0.0,0.0,0.0,0.0,0.0,-0.5013282078364706
1666092000580363914,0.015,0.0,0.0,0.0,0.0,-0.48870323689291234
1666092000630334589,0.03,0.0,0.0,0.0,0.0,-0.4768707272473309
1666092000680589632,0.045,0.0,0.0,0.0,0.0,-0.4655860988690327
1666092000730680015,0.06,0.0,0.0,0.0,0.0,-0.4546285223834566
1666092000780751762,0.075,0.0,0.0,0.0,0.0,-0.4436709458978805
1666092000830223307,0.09,0.0,0.0,0.0,0.0,-0.45400039779201895
1666092000880963974,0.105,0.0,0.0,0.0,0.0,-0.4643298496861574
1666092000930281564,0.12,0.0,0.0,0.0,0.0,-0.4429668912175612
1666092000980589564,0.135,0.0,0.0,0.0,0.0,-0.42393114199335646
1666092001030208114,0.15000000000000002,0.0,0.0,0.0,0.0,-0.40589986890228447
1666092001080234422,0.16500000000000004,0.0,0.0,0.0,0.0,-0.38786859581121247
1666092001130593334,0.18000000000000005,0.0,0.0,0.0,0.0,-0.36983732272014047
1666092001180184172,0.19500000000000006,0.0,0.0,0.0,0.0,-0.3626657182736112
1666092001230216450,0.21000000000000008,0.0,0.0,0.0,0.0,-0.355494113827082
1666092001280464679,0.2250000000000001,0.0,0.0,0.0,0.0,-0.3485201495443332
1666092001330166406,0.2400000000000001,0.0,0.0,0.0,0.0,-0.34154618526158437
1666092001380540592,0.2550000000000001,0.0,0.0,0.0,0.0,-0.334753470256297
1666092001430638969,0.27000000000000013,0.0,0.0,0.0,0.0,-0.3279607552510096
1666092001480367689,0.28500000000000014,0.0,0.0,0.0,0.0,-0.3077023397213137
1666092001530183944,0.30000000000000016,0.0,0.0,0.0,0.0,-0.28744392419161785
1666092001580610674,0.31500000000000017,0.0,0.0,0.0,0.0,-0.28333335609662924
1666092001630260774,0.3300000000000002,0.0,0.0,0.0,0.0,-0.27983510686104046
1666092001680570599,0.3450000000000002,0.0,0.0,0.0,0.0,-0.2763368576254517
1666092001730240504,0.3600000000000002,0.0,0.0,0.0,0.0,-0.27336092047866656
1666092001780415754,0.3750000000000002,0.0,0.0,0.0,0.0,-0.27038498333188143
1666092001830290738,0.39000000000000024,0.0,0.0,0.0,0.0,-0.2689238811483141
1666092001880305335,0.40500000000000025,0.0,0.0,0.0,0.0,-0.25559398644394965
1666092001930224847,0.42000000000000026,0.0,0.0,0.0,0.0,-0.24226409173958516
1666092001980435467,0.4350000000000003,0.0,0.0,0.0,0.0,-0.24416765024436196
1666092002030317486,0.4500000000000003,0.0,0.0,0.0,0.0,-0.24643679141171088
1666092002080266402,0.4650000000000003,0.0,0.0,0.0,0.0,-0.24870593257905982
1666092002130246926,0.4800000000000003,0.0,0.0,0.0,0.0,-0.2517910261350903
1666092002181030396,0.49500000000000033,0.0,0.0,0.0,0.0,-0.2554561816677616
1666092002230373150,0.5100000000000003,0.0,0.0,0.0,0.0,-0.2597795380702548
1666092002280845646,0.5250000000000004,0.0,0.0,0.0,0.0,-0.264102894472748
1666092002330240728,0.5400000000000004,0.0,0.0,0.0,0.0,-0.2693115584358846
1666092002380231987,0.5380785465240479,0.0,0.0,0.0,0.0,-0.24120564758777618
1666092002430215469,0.5380785465240479,0.0,0.0,0.0,0.0,-0.24120564758777618
1666092002480423297,0.5530785465240479,0.0,0.0,0.0,0.0,-0.26130739250380536
1666092002530679392,0.5680785465240479,0.0,0.0,0.0,0.0,-0.28820680691386086
1666092002580291160,0.5830785465240479,0.0,0.0,0.0,0.0,-0.31510622132391636
1666092002630292571,0.5849484347335778,0.0,0.0,0.0,0.0,-0.4151062213239164
1666092002680503312,0.581450583839455,0.0,0.0,0.0,0.0,-0.5151062213239164
1666092002730176742,0.5779527329453323,0.0,0.0,0.0,0.0,-0.6151062213239163
1666092002780468986,0.572021487010855,0.0,0.0,0.0,0.0,-0.7151062213239163
1666092002830164165,0.5676726386185094,0.0,0.0,0.0,0.0,-0.8151062213239163
1666092002880219549,0.5633237902261637,0.0,0.0,0.0,0.0,-0.9151062213239163
1666092002930475015,0.5566065922530453,0.0,0.0,0.0,0.0,-1.0151062213239164
1666092002980182994,0.5498893942799269,0.0,0.0,0.0,0.0,-1.1151062213239165
1666092003030403211,0.5431721963068085,0.0,0.0,0.0,0.0,-1.2151062213239165
1666092003080375564,0.5254939198493958,0.0,0.0,0.0,0.0,-1.2217304763960313
1666092003130259873,0.5254939198493958,0.0,0.0,0.0,0.0,-1.2217304763960313
1666092003181024177,0.5205153822898865,0.0,0.0,0.0,0.0,-1.2217304763960313
1666092003230338552,0.5205153822898865,0.0,0.0,0.0,0.0,-1.2217304763960313
1666092003281036934,0.5141699657962154,0.0,0.0,0.0,0.0,-1.3217304763960314
1666092003330233216,0.5116127729415894,0.0,0.0,0.0,0.0,-1.3962634015954642
1666092003380246864,0.5116127729415894,0.0,0.0,0.0,0.0,-1.3962634015954642
1666092003431536132,0.3965354263782501,0.0,0.0,0.0,0.0,-1.2217304763960313
1666092003480580642,0.3965354263782501,0.0,0.0,0.0,0.0,-1.2217304763960313
1666092003530300678,0.41153542637825014,0.0,0.0,0.0,0.0,-1.2217304763960313
1666092003580512826,0.42653542637825015,0.0,0.0,0.0,0.0,-1.2217304763960313
1666092003630801589,0.44153542637825016,0.0,0.0,0.0,0.0,-1.2217304763960313
1666092003680476069,0.4565354263782502,0.0,0.0,0.0,0.0,-1.2217304763960313
1666092003730263758,0.4715354263782502,0.0,0.0,0.0,0.0,-1.2217304763960313
1666092003780281481,0.4865354263782502,0.0,0.0,0.0,0.0,-1.2217304763960313
1666092003830458623,0.5015354263782502,0.0,0.0,0.0,0.0,-1.2217304763960313
1666092003880200212,0.5165354263782502,0.0,0.0,0.0,0.0,-1.1662392932165309
1666092003930247772,0.5315354263782502,0.0,0.0,0.0,0.0,-1.1336356593515948
1666092003980510927,0.5465354263782503,0.0,0.0,0.0,0.0,-1.1010320254866586
1666092004030421466,0.5615354263782503,0.0,0.0,0.0,0.0,-1.0752594910967004
1666092004080375324,0.5765354263782503,0.0,0.0,0.0,0.0,-1.0494869567067422
1666092004130174985,0.5915354263782503,0.0,0.0,0.0,0.0,-1.0299019654712098
1666092004180329328,0.6065354263782503,0.0,0.0,0.0,0.0,-1.0102706171543046
1666092004230271892,0.6215354263782503,0.0,0.0,0.0,0.0,-0.9906392688373993
1666092004281614458,0.6365354263782503,0.0,0.0,0.0,0.0,-0.9499447752861025
1666092004330176026,0.6515354263782503,0.0,0.0,0.0,0.0,-0.8635657769716553
1666092004380314101,0.6665354263782504,0.0,0.0,0.0,0.0,-0.7766635931034704
1666092004430264196,0.6815354263782504,0.0,0.0,0.0,0.0,-0.7406812458308268
1666092004480489096,0.6965354263782504,0.0,0.0,0.0,0.0,-0.7046988985581831
1666092004530278495,0.7115354263782504,0.0,0.0,0.0,0.0,-0.644601945565325
1666092004580770421,0.7265354263782504,0.0,0.0,0.0,0.0,-0.5838020122739332
1666092004630257432,0.7415354263782504,0.0,0.0,0.0,0.0,-0.5230020789825415
1666092004680891025,0.7471942901611328,0.0,0.0,0.0,0.0,-0.3490658503988664
1666092004730322175,0.7621942901611328,0.0,0.0,0.0,0.0,-0.3490658503988664
1666092004780381307,0.7733262777328491,0.0,0.0,0.0,0.0,-0.3490658503988664
1666092004830190243,0.7491953372955322,0.0,0.0,0.0,0.0,-0.17453292519943345
1666092004880853304,0.7491953372955322,0.0,0.0,0.0,0.0,-0.17453292519943345
1666092004930273108,0.7491953372955322,0.0,0.0,0.0,0.0,-0.17453292519943345
1666092004980343415,0.7166470289230347,0.0,0.0,0.0,0.0,-0.17453292519943345
1666092005030252289,0.7166470289230347,0.0,0.0,0.0,0.0,-0.17453292519943345
1666092005080416351,0.6701961755752562,0.0,0.0,0.0,0.0,-0.17453292519943345
1666092005130486538,0.6401090621948242,0.0,0.0,0.0,0.0,-4.996003610813204e-16
1666092005180249668,0.6401090621948242,0.0,0.0,0.0,0.0,-4.996003610813204e-16
1666092005230297092,0.6100922226905823,0.0,0.0,0.0,0.0,-4.996003610813204e-16
1666092005280879426,0.5824674963951111,0.0,0.0,0.0,0.0,-0.050455886870622635
1666092005330287245,0.5824674963951111,0.0,0.0,0.0,0.0,-0.050455886870622635
1666092005380272041,0.5824674963951111,0.0,0.0,0.0,0.0,-0.050455886870622635
1666092005430564052,0.5561373829841614,0.0,0.0,0.0,0.0,-0.0474473237991333
1666092005480320366,0.5318537354469299,0.0,0.0,0.0,0.0,-0.04558231309056282
1666092005530208686,0.5058013200759888,0.0,0.0,0.0,0.0,-0.04397241398692131
1666092005580179355,0.5058013200759888,0.0,0.0,0.0,0.0,-0.04397241398692131
1666092005631084075,0.479561448097229,0.0,0.0,0.0,0.0,-0.04253343492746353
1666092005680312593,0.479561448097229,0.0,0.0,0.0,0.0,-0.04253343492746353
1666092005730385391,0.46009600796706324,0.0,0.0,0.0,0.0,0.057466565072536474
1666092005780349488,0.40872559969104344,0.0,0.0,0.0,0.0,-0.04253343492746353
1666092005830353897,0.39556435812537255,0.0,0.0,0.0,0.0,0.057466565072536474
1666092005880159822,0.3927052617073059,0.0,0.0,0.0,0.0,0.07919017225503922
1666092005930332056,0.24270526170730589,0.0,0.0,0.0,0.0,0.04894223061398895
1666092005980267701,0.09270526170730586,0.0,0.0,0.0,0.0,0.018694288972938695
1666092006030419494,0.0,0.0,0.0,0.0,0.0,-4.996003610813204e-16
1666092006081854257,0.0,0.0,0.0,0.0,0.0,-4.996003610813204e-16
1666092006130182666,0.0,0.0,0.0,0.0,0.0,-4.996003610813204e-16
1666092006180744324,0.0,0.0,0.0,0.0,0.0,-4.996003610813204e-16
1666092006230289928,0.0,0.0,0.0,0.0,0.0,-4.996003610813204e-16
1666092006280241324,0.0,0.0,0.0,0.0,0.0,-4.996003610813204e-16
1666092006330248055,0.0,0.0,0.0,0.0,0.0,-4.996003610813204e-16
1666092006380732235,0.0,0.0,0.0,0.0,0.0,-4.996003610813204e-16
1666092006430409230,0.0,0.0,0.0,0.0,0.0,-4.996003610813204e-16
1666092006480524414,0.0,0.0,0.0,0.0,0.0,-4.996003610813204e-16
1666092006530227062,0.0,0.0,0.0,0.0,0.0,-4.996003610813204e-16
1666092006580480126,0.0,0.0,0.0,0.0,0.0,-4.996003610813204e-16
1666092006630180053,0.0,0.0,0.0,0.0,0.0,-4.996003610813204e-16
1666092006680546844,0.0,0.0,0.0,0.0,0.0,-4.996003610813204e-16
1666092006730418639,0.0,0.0,0.0,0.0,0.0,-4.996003610813204e-16
1666092006780177593,0.0,0.0,0.0,0.0,0.0,-4.996003610813204e-16
1666092006831167228,0.0,0.0,0.0,0.0,0.0,-4.996003610813204e-16
1666092006881288026,0.0,0.0,0.0,0.0,0.0,0.0999999999999995
1666092006930379648,0.0,0.0,0.0,0.0,0.0,0.17453292519943245
1666092006980375522,0.0,0.0,0.0,0.0,0.0,0.17453292519943245
1666092007030115199,0.015,0.0,0.0,0.0,0.0,0.167170512033868
1666092007080978845,0.03,0.0,0.0,0.0,0.0,0.15980809886830358
1666092007130594280,0.045,0.0,0.0,0.0,0.0,0.15244708665394957
1666092007180565350,0.06,0.0,0.0,0.0,0.0,0.1506208947265256
1666092007230780948,0.075,0.0,0.0,0.0,0.0,0.14433592083385102
1666092007280279495,0.09,0.0,0.0,0.0,0.0,0.13805094694117645
1666092007330984173,0.105,0.0,0.0,0.0,0.0,0.132579521684384
1666092007380210689,0.12,0.0,0.0,0.0,0.0,0.12710809642759155
1666092007430201793,0.135,0.0,0.0,0.0,0.0,0.1227865106461155
1666092007480285679,0.15000000000000002,0.0,0.0,0.0,0.0,0.11846444479465396
1666092007531265665,0.16500000000000004,0.0,0.0,0.0,0.0,0.11462826029730819
1666092007580266288,0.18000000000000005,0.0,0.0,0.0,0.0,0.11079207579996242
1666092007630405235,0.19500000000000006,0.0,0.0,0.0,0.0,0.11187475609455427
1666092007680270519,0.21000000000000008,0.0,0.0,0.0,0.0,0.10879190869070154
1666092007730107448,0.2250000000000001,0.0,0.0,0.0,0.0,0.10609184611931821
1666092007780393066,0.2400000000000001,0.0,0.0,0.0,0.0,0.10339178354793488
1666092007830238484,0.2550000000000001,0.0,0.0,0.0,0.0,0.1011212425784743
1666092007880332664,0.27000000000000013,0.0,0.0,0.0,0.0,0.09885070160901371
1666092007930586564,0.28500000000000014,0.0,0.0,0.0,0.0,0.10171383920090411
1666092007980573264,0.30000000000000016,0.0,0.0,0.0,0.0,0.10002479743596457
1666092008030239933,0.31500000000000017,0.0,0.0,0.0,0.0,0.09833575567102502
1666092008080805734,0.3300000000000002,0.0,0.0,0.0,0.0,0.09701280121903269
1666092008131201022,0.3450000000000002,0.0,0.0,0.0,0.0,0.09568984676704036
1666092008180251798,0.3600000000000002,0.0,0.0,0.0,0.0,0.09475565226388787
1666092008230220747,0.3750000000000002,0.0,0.0,0.0,0.0,0.09412721765164099
1666092008280376848,0.39000000000000024,0.0,0.0,0.0,0.0,0.09349878303939411
1666092008330169978,0.40500000000000025,0.0,0.0,0.0,0.0,0.09341207092972732
1666092008380599229,0.42000000000000026,0.0,0.0,0.0,0.0,0.09409253096253113
1666092008431277279,0.4350000000000003,0.0,0.0,0.0,0.0,0.09477299099533494
1666092008480369931,0.4500000000000003,0.0,0.0,0.0,0.0,0.09666856686639556
1666092008530558382,0.4650000000000003,0.0,0.0,0.0,0.0,0.09978229338077538
1666092008580338704,0.4800000000000003,0.0,0.0,0.0,0.0,0.1044456944020592
1666092008631168577,0.49500000000000033,0.0,0.0,0.0,0.0,0.11113848387818341
1666092008680278847,0.5100000000000003,0.0,0.0,0.0,0.0,0.11783127335430763
1666092008730313890,0.5250000000000004,0.0,0.0,0.0,0.0,0.13230626034862983
1666092008782899068,0.5400000000000004,0.0,0.0,0.0,0.0,0.150872975407573
1666092008831258238,0.5472399592399597,0.0,0.0,0.0,0.0,0.15983445942401886
1666092008880395361,0.5339493155479431,0.0,0.0,0.0,0.0,0.16962642967700958
1666092008930322494,0.5339493155479431,0.0,0.0,0.0,0.0,0.16962642967700958
1666092008980583441,0.522983968257904,0.0,0.0,0.0,0.0,0.18048138916492462
1666092009030911899,0.522983968257904,0.0,0.0,0.0,0.0,0.18048138916492462
1666092009080276691,0.4996174871921539,0.0,0.0,0.0,0.0,0.20628571510314941
1666092009130443027,0.5001860857009888,0.0,0.0,0.0,0.0,0.20633457601070404
1666092009180808906,0.48647174239158625,0.0,0.0,0.0,0.0,0.21633730828762054
1666092009230167209,0.48647174239158625,0.0,0.0,0.0,0.0,0.21633730828762054
1666092009280229373,0.5014717423915862,0.0,0.0,0.0,0.0,0.23039074549006355
1666092009330208916,0.5164717423915862,0.0,0.0,0.0,0.0,0.24783365797972617
1666092009380601764,0.5314717423915862,0.0,0.0,0.0,0.0,0.27331437583950763
1666092009430649650,0.5464717423915862,0.0,0.0,0.0,0.0,0.2987950936992891
1666092009480516380,0.433906614780426,0.0,0.0,0.0,0.0,0.2483663111925125
1666092009530695766,0.4282598197460174,0.0,0.0,0.0,0.0,0.2558063566684723
1666092009580569591,0.4432598197460174,0.0,0.0,0.0,0.0,0.2663486822123545
1666092009630645324,0.4582598197460174,0.0,0.0,0.0,0.0,0.2768910077562368
1666092009680432612,0.3936858475208282,0.0,0.0,0.0,0.0,0.2560952305793762
1666092009730446384,0.39199722920141283,0.0,0.0,0.0,0.0,0.3560952305793762
1666092009781806787,0.3886004041567481,0.0,0.0,0.0,0.0,0.4560952305793762
1666092009830262483,0.38520357911208347,0.0,0.0,0.0,0.0,0.5560952305793762
1666092009880423274,0.3803040551161237,0.0,0.0,0.0,0.0,0.6560952305793761
1666092009930422036,0.3733298633979637,0.0,0.0,0.0,0.0,0.7560952305793761
1666092009981075576,0.36466646361307864,0.0,0.0,0.0,0.0,0.8560952305793761
1666092010030236558,0.3560030638281935,0.0,0.0,0.0,0.0,0.9560952305793761
1666092010080826441,0.37100306382819354,0.0,0.0,0.0,0.0,0.9951883258042173
1666092010130416730,0.38600306382819355,0.0,0.0,0.0,0.0,1.0342814210290587
1666092010180487685,0.35284372219338145,0.0,0.0,0.0,0.0,1.1342814210290588
1666092010230516281,0.3238461911678314,0.0,0.0,0.0,0.0,1.2217304763960302
1666092010280212614,0.3257824182510376,0.0,0.0,0.0,0.0,1.2217304763960302
1666092010330316948,0.33764123916625977,0.0,0.0,0.0,0.0,1.2217304763960302
1666092010380408445,0.33764123916625977,0.0,0.0,0.0,0.0,1.2217304763960302
1666092010430647280,0.34984588623046875,0.0,0.0,0.0,0.0,1.2217304763960302
1666092010485934978,0.364529550075531,0.0,0.0,0.0,0.0,1.2217304763960302
1666092010530220944,0.364529550075531,0.0,0.0,0.0,0.0,1.2217304763960302
1666092010580449797,0.37367549538612366,0.0,0.0,0.0,0.0,1.0471975511965972
1666092010630715378,0.37367549538612366,0.0,0.0,0.0,0.0,1.0471975511965972
1666092010680603163,0.37367549538612366,0.0,0.0,0.0,0.0,1.0471975511965972
1666092010730263207,0.38867549538612367,0.0,0.0,0.0,0.0,1.0471975511965972
1666092010780400538,0.4036754953861237,0.0,0.0,0.0,0.0,1.0471975511965972
1666092010830299705,0.4186754953861237,0.0,0.0,0.0,0.0,1.0471975511965972
1666092010880345197,0.4336754953861237,0.0,0.0,0.0,0.0,1.0471975511965972
1666092010930198673,0.4486754953861237,0.0,0.0,0.0,0.0,1.0471975511965972
1666092010980444933,0.46158406138420105,0.0,0.0,0.0,0.0,1.0471975511965972
1666092011030239090,0.47658406138420106,0.0,0.0,0.0,0.0,0.9260326262780698
1666092011080974235,0.4831909239292145,0.0,0.0,0.0,0.0,0.8726646259971643
1666092011130277256,0.4981909239292145,0.0,0.0,0.0,0.0,0.8091616187100251
1666092011180450664,0.5131909239292145,0.0,0.0,0.0,0.0,0.785946588045124
1666092011230232273,0.5281909239292145,0.0,0.0,0.0,0.0,0.7627315573802228
1666092011280948325,0.5431909239292145,0.0,0.0,0.0,0.0,0.7186685592653167
1666092011330207447,0.5581909239292145,0.0,0.0,0.0,0.0,0.6746055611504106
1666092011380323356,0.5731909239292146,0.0,0.0,0.0,0.0,0.6511136466633576
1666092011430264076,0.5881909239292146,0.0,0.0,0.0,0.0,0.6098978029649839
1666092011480278758,0.6031909239292146,0.0,0.0,0.0,0.0,0.580950199158994
1666092011530902747,0.6181909239292146,0.0,0.0,0.0,0.0,0.5387937223030014
1666092011580671676,0.6331909239292146,0.0,0.0,0.0,0.0,0.4966372454470087
1666092011630594544,0.6481909239292146,0.0,0.0,0.0,0.0,0.4386555231862694
1666092011680494293,0.6631909239292146,0.0,0.0,0.0,0.0,0.38067380092553005
1666092011730254901,0.6781909239292147,0.0,0.0,0.0,0.0,0.3181088113177971
1666092011781051658,0.6931909239292147,0.0,0.0,0.0,0.0,0.2553941546288451
1666092011830221019,0.7081909239292147,0.0,0.0,0.0,0.0,0.17084200108527658
1666092011880390794,0.7231909239292147,0.0,0.0,0.0,0.0,0.086289847541708
1666092011930167102,0.7381909239292147,0.0,0.0,0.0,0.0,0.001737693998139389
1666092011980702936,0.7417603925287932,0.0,0.0,0.0,0.0,-0.09826230600186062
1666092012030708437,0.7368857860565184,0.0,0.0,0.0,0.0,-0.17014160752296448
1666092012080517875,0.7368857860565184,0.0,0.0,0.0,0.0,-0.17014160752296448
1666092012130694132,0.7331357327606863,0.0,0.0,0.0,0.0,-0.27014160752296446
1666092012180446077,0.7301760315895081,0.0,0.0,0.0,0.0,-0.3490658503988664
1666092012230724466,0.7301760315895081,0.0,0.0,0.0,0.0,-0.3490658503988664
1666092012280482035,0.7050752639770507,0.0,0.0,0.0,0.0,-0.3490658503988664
1666092012330165679,0.6883119989989801,0.0,0.0,0.0,0.0,-0.4490658503988664
1666092012381085211,0.5783751010894775,0.0,0.0,0.0,0.0,-0.3490658503988664
1666092012431193805,0.5783751010894775,0.0,0.0,0.0,0.0,-0.3490658503988664
1666092012481170407,0.5880875105609252,0.0,0.0,0.0,0.0,-0.4490658503988664
1666092012530224095,0.5844991036980802,0.0,0.0,0.0,0.0,-0.5490658503988664
1666092012580271990,0.5809106968352351,0.0,0.0,0.0,0.0,-0.6490658503988663
1666092012631549014,0.5606597416091461,0.0,0.0,0.0,0.0,-0.7490658503988663
1666092012680589307,0.5404087863830572,0.0,0.0,0.0,0.0,-0.8490658503988663
1666092012730630378,0.405111700296402,0.0,0.0,0.0,0.0,-0.8726646259971653
1666092012780605697,0.405111700296402,0.0,0.0,0.0,0.0,-0.8726646259971653
1666092012830429061,0.405111700296402,0.0,0.0,0.0,0.0,-0.8726646259971653
1666092012880282360,0.3745574355125427,0.0,0.0,0.0,0.0,-0.8726646259971653
1666092012930152497,0.3745574355125427,0.0,0.0,0.0,0.0,-0.8726646259971653
1666092012982124265,0.38955743551254274,0.0,0.0,0.0,0.0,-0.918905588553131
1666092013030248786,0.40455743551254275,0.0,0.0,0.0,0.0,-0.9651465511090966
1666092013080458533,0.41955743551254276,0.0,0.0,0.0,0.0,-1.0113875136650623
1666092013130368749,0.4181486070156097,0.0,0.0,0.0,0.0,-1.0471975511965983
1666092013180685189,0.4079206883907318,0.0,0.0,0.0,0.0,-1.0471975511965983
1666092013230353794,0.39492782950401306,0.0,0.0,0.0,0.0,-1.0471975511965983
1666092013280847897,0.39492782950401306,0.0,0.0,0.0,0.0,-1.0471975511965983
1666092013330804163,0.39492782950401306,0.0,0.0,0.0,0.0,-1.0471975511965983
1666092013382086494,0.3846475481986999,0.0,0.0,0.0,0.0,-1.0471975511965983
1666092013430491422,0.3846475481986999,0.0,0.0,0.0,0.0,-1.0471975511965983
1666092013481042955,0.37634339928627014,0.0,0.0,0.0,0.0,-1.0471975511965983
1666092013530561931,0.37177106738090515,0.0,0.0,0.0,0.0,-1.0471975511965983
1666092013580276448,0.37177106738090515,0.0,0.0,0.0,0.0,-1.0471975511965983
1666092013630993756,0.37177106738090515,0.0,0.0,0.0,0.0,-1.0471975511965983
1666092013681701774,0.3649207055568695,0.0,0.0,0.0,0.0,-1.0471975511965983
1666092013731863977,0.3649207055568695,0.0,0.0,0.0,0.0,-1.0471975511965983
1666092013780705514,0.22872766852378845,0.0,0.0,0.0,0.0,-1.0471975511965983
1666092013830420020,0.07872766852378843,0.0,0.0,0.0,0.0,-0.9327385574557857
1666092013880403349,0.0,0.0,0.0,0.0,0.0,-0.8726646259971653
1666092013930465756,0.0,0.0,0.0,0.0,0.0,-0.8062804686545317
1666092013980380851,0.0,0.0,0.0,0.0,0.0,-0.7990264228062512
1666092014030604057,0.0,0.0,0.0,0.0,0.0,-0.7703527313479107
1666092014080533112,0.0,0.0,0.0,0.0,0.0,-0.7703527313479107
1666092014130227498,0.015,0.0,0.0,0.0,0.0,-0.7743176043214812
1666092014180857416,0.03,0.0,0.0,0.0,0.0,-0.7781193733147538
1666092014230324601,0.045,0.0,0.0,0.0,0.0,-0.7819211423080263
1666092014281073381,0.06,0.0,0.0,0.0,0.0,-0.7857229113012989
1666092014331022480,0.075,0.0,0.0,0.0,0.0,-0.7821000208039762
1666092014380471269,0.09,0.0,0.0,0.0,0.0,-0.7784771303066534
1666092014430383506,0.105,0.0,0.0,0.0,0.0,-0.7749589744752535
1666092014480199828,0.12,0.0,0.0,0.0,0.0,-0.7714408186438536
1666092014530289433,0.135,0.0,0.0,0.0,0.0,-0.7570463185639926
1666092014580186086,0.15000000000000002,0.0,0.0,0.0,0.0,-0.7426518184841316
1666092014631158566,0.16500000000000004,0.0,0.0,0.0,0.0,-0.7302966871083925
1666092014680937226,0.18000000000000005,0.0,0.0,0.0,0.0,-0.7179415557326533
1666092014730208148,0.19500000000000006,0.0,0.0,0.0,0.0,-0.7006437940931783
1666092014780477789,0.21000000000000008,0.0,0.0,0.0,0.0,-0.6833460324537034
1666092014830507098,0.2250000000000001,0.0,0.0,0.0,0.0,-0.6695396690791237
1666092014880582415,0.2400000000000001,0.0,0.0,0.0,0.0,-0.6498711181066066
1666092014930421421,0.2550000000000001,0.0,0.0,0.0,0.0,-0.6302025671340895
1666092014980403183,0.27000000000000013,0.0,0.0,0.0,0.0,-0.6117384415182521
1666092015031040368,0.28500000000000014,0.0,0.0,0.0,0.0,-0.5936303826400795
1666092015080545930,0.30000000000000016,0.0,0.0,0.0,0.0,-0.5735652555255825
1666092015130694004,0.31500000000000017,0.0,0.0,0.0,0.0,-0.5535001284110854
1666092015180276627,0.3300000000000002,0.0,0.0,0.0,0.0,-0.5334350012965884
1666092015230252314,0.3450000000000002,0.0,0.0,0.0,0.0,-0.5101844728137769
1666092015280189585,0.3600000000000002,0.0,0.0,0.0,0.0,-0.4869339443309654
1666092015331333525,0.3750000000000002,0.0,0.0,0.0,0.0,-0.46444168889687176
1666092015380353237,0.39000000000000024,0.0,0.0,0.0,0.0,-0.432935373008866
1666092015430385122,0.40500000000000025,0.0,0.0,0.0,0.0,-0.40034523401721694
1666092015480384487,0.42000000000000026,0.0,0.0,0.0,0.0,-0.3677550950255679
1666092015530221449,0.4350000000000003,0.0,0.0,0.0,0.0,-0.3337379250185087
1666092015580336052,0.4500000000000003,0.0,0.0,0.0,0.0,-0.301489848002829
1666092015630759567,0.4650000000000003,0.0,0.0,0.0,0.0,-0.26924177098714935
1666092015681046729,0.4800000000000003,0.0,0.0,0.0,0.0,-0.23399141628573022
1666092015730312141,0.49500000000000033,0.0,0.0,0.0,0.0,-0.1987410615843111
1666092015780318685,0.5100000000000003,0.0,0.0,0.0,0.0,-0.1296512670782441
1666092015830425794,0.5250000000000004,0.0,0.0,0.0,0.0,-0.06056147257217709
1666092015880420825,0.5386288890602149,0.0,0.0,0.0,0.0,0.03943852742782292
1666092015931804689,0.5520511630690716,0.0,0.0,0.0,0.0,0.13943852742782292
1666092015980425823,0.5564522443301729,0.0,0.0,0.0,0.0,0.23943852742782293
1666092016030331854,0.5608533255912743,0.0,0.0,0.0,0.0,0.33943852742782293
1666092016080990046,0.5406164526939392,0.0,0.0,0.0,0.0,0.3490658503988654
1666092016130354310,0.5406164526939392,0.0,0.0,0.0,0.0,0.3490658503988654
1666092016181791791,0.5068830847740173,0.0,0.0,0.0,0.0,0.3490658503988654
1666092016230468881,0.5073095560073853,0.0,0.0,0.0,0.0,0.3490658503988654
1666092016280308990,0.48308128118515015,0.0,0.0,0.0,0.0,0.3490658503988654
1666092016330316661,0.47152537107467646,0.0,0.0,0.0,0.0,0.3490658503988654
1666092016380269471,0.47152537107467646,0.0,0.0,0.0,0.0,0.3490658503988654
1666092016430536376,0.4551197588443756,0.0,0.0,0.0,0.0,0.3490658503988654
1666092016480520532,0.4551197588443756,0.0,0.0,0.0,0.0,0.3490658503988654
1666092016530472623,0.4460563361644745,0.0,0.0,0.0,0.0,0.3490658503988654
1666092016581740500,0.4430440962314605,0.0,0.0,0.0,0.0,0.3490658503988654
1666092016630398562,0.2930440962314605,0.0,0.0,0.0,0.0,0.2727493095590234
1666092016680423361,0.14304409623146047,0.0,0.0,0.0,0.0,0.1964327687191814
1666092016730301255,0.1,0.0,0.0,0.0,0.0,0.17453292519943245
1666092016780285518,0.1,0.0,0.0,0.0,0.0,0.17453292519943245
1666092016830913666,0.115,0.0,0.0,0.0,0.0,0.18888154726032402
1666092016880356920,0.1,0.0,0.0,0.0,0.0,0.17453292519943245
1666092016930227861,0.1,0.0,0.0,0.0,0.0,0.17453292519943245
1666092016980599828,0.1,0.0,0.0,0.0,0.0,0.17453292519943245
1666092017030426527,0.1,0.0,0.0,0.0,0.0,0.17453292519943245
1666092017081133075,0.1,0.0,0.0,0.0,0.0,0.17453292519943245
1666092017130191243,0.1,0.0,0.0,0.0,0.0,0.17453292519943245
1666092017180252657,0.1,0.0,0.0,0.0,0.0,0.17453292519943245
1666092017230242617,0.1,0.0,0.0,0.0,0.0,0.17453292519943245
1666092017280829839,0.1,0.0,0.0,0.0,0.0,0.17453292519943245
1666092017331415281,0.1,0.0,0.0,0.0,0.0,0.17453292519943245
1666092017380428236,0.1,0.0,0.0,0.0,0.0,0.07453292519943244
1666092017430221219,0.1,0.0,0.0,0.0,0.0,-4.996003610813204e-16
1666092017480568758,0.1,0.0,0.0,0.0,0.0,-4.996003610813204e-16
1666092017534918928,0.1,0.0,0.0,0.0,0.0,-4.996003610813204e-16
1666092017580205378,0.1,0.0,0.0,0.0,0.0,-4.996003610813204e-16
1666092017630997039,0.0,0.0,0.0,0.0,0.0,0.0
1666092017680343607,0.015,0.0,0.0,0.0,0.0,0.026179938779914865
1666092017730137516,0.03,0.0,0.0,0.0,0.0,0.05235987755982973
1666092017780296378,0.045,0.0,0.0,0.0,0.0,0.07853981633974459
1666092017830728561,0.06,0.0,0.0,0.0,0.0,0.10471975511965946
1666092017880398704,0.075,0.0,0.0,0.0,0.0,0.13089969389957432
1666092017930280924,0.09,0.0,0.0,0.0,0.0,0.15707963267948918
1666092017980579255,0.1,0.0,0.0,0.0,0.0,0.17453292519943245
1666092018030267851,0.1,0.0,0.0,0.0,0.0,0.17453292519943245
1666092018080461146,0.1,0.0,0.0,0.0,0.0,0.17453292519943245
1666092018130122313,0.1,0.0,0.0,0.0,0.0,0.17453292519943245
1666092018180356297,0.1,0.0,0.0,0.0,0.0,0.27453292519943245
1666092018230334630,0.1,0.0,0.0,0.0,0.0,0.3490658503988654
1666092018280217790,0.1,0.0,0.0,0.0,0.0,0.3490658503988654
1666092018330212105,0.1,0.0,0.0,0.0,0.0,0.3490658503988654
1666092018380322059,0.1,0.0,0.0,0.0,0.0,0.3490658503988654
1666092018430468263,0.1,0.0,0.0,0.0,0.0,0.3490658503988654
1666092018480354120,0.1,0.0,0.0,0.0,0.0,0.3490658503988654
1666092018530447971,0.1,0.0,0.0,0.0,0.0,0.3490658503988654
1666092018580417828,0.1,0.0,0.0,0.0,0.0,0.3490658503988654
1666092018630486831,0.1,0.0,0.0,0.0,0.0,0.3490658503988654
1666092018680352352,0.1,0.0,0.0,0.0,0.0,0.3490658503988654
1666092018730436365,0.1,0.0,0.0,0.0,0.0,0.3490658503988654
1666092018780994869,0.1,0.0,0.0,0.0,0.0,0.3490658503988654
1666092018830295551,0.1,0.0,0.0,0.0,0.0,0.3490658503988654
1666092018881167558,0.1,0.0,0.0,0.0,0.0,0.3490658503988654
1666092018930319917,0.1,0.0,0.0,0.0,0.0,0.3490658503988654
1666092018980413165,0.1,0.0,0.0,0.0,0.0,0.3490658503988654
1666092019030261114,0.1,0.0,0.0,0.0,0.0,0.4490658503988654
1666092019080471840,0.1,0.0,0.0,0.0,0.0,0.5490658503988654
1666092019130439735,0.1,0.0,0.0,0.0,0.0,0.6490658503988653
1666092019180188093,0.1,0.0,0.0,0.0,0.0,0.7490658503988653
1666092019230383681,0.11216944033018988,0.0,0.0,0.0,0.0,0.8490658503988653
1666092019280230673,0.10602734379480841,0.0,0.0,0.0,0.0,0.9490658503988653
1666092019330302645,0.1,0.0,0.0,0.0,0.0,1.0471975511965972
1666092019380467937,0.1,0.0,0.0,0.0,0.0,1.0471975511965972
1666092019430776381,0.1,0.0,0.0,0.0,0.0,1.0471975511965972
1666092019481702713,0.1,0.0,0.0,0.0,0.0,1.0471975511965972
1666092019530578654,0.1,0.0,0.0,0.0,0.0,1.1471975511965973
1666092019580181938,0.1,0.0,0.0,0.0,0.0,1.2217304763960302
1666092019630364375,0.1,0.0,0.0,0.0,0.0,1.2217304763960302
1666092019680237192,0.1,0.0,0.0,0.0,0.0,1.2217304763960302
1666092019731805347,0.1,0.0,0.0,0.0,0.0,1.2217304763960302
1666092019780353690,0.1,0.0,0.0,0.0,0.0,1.2217304763960302
1666092019830294364,0.1,0.0,0.0,0.0,0.0,1.3217304763960303
1666092019880325250,0.1,0.0,0.0,0.0,0.0,1.3962634015954631
1666092019930560289,0.115,0.0,0.0,0.0,0.0,1.3685098384577337
1666092019980211144,0.13,0.0,0.0,0.0,0.0,1.3407562753200042
1666092020030187791,0.14500000000000002,0.0,0.0,0.0,0.0,1.310739343782989
1666092020080217930,0.16000000000000003,0.0,0.0,0.0,0.0,1.280722412245974
1666092020130178334,0.17500000000000004,0.0,0.0,0.0,0.0,1.2507054807089588
1666092020180251733,0.19000000000000006,0.0,0.0,0.0,0.0,1.2164997589671573
1666092020230510904,0.20500000000000007,0.0,0.0,0.0,0.0,1.1822940372253559
1666092020280289566,0.22000000000000008,0.0,0.0,0.0,0.0,1.1480883154835544
1666092020330349032,0.2350000000000001,0.0,0.0,0.0,0.0,1.1093688111934918
1666092020381347292,0.2500000000000001,0.0,0.0,0.0,0.0,1.0706493069034293
1666092020430529871,0.2650000000000001,0.0,0.0,0.0,0.0,1.0271698137442913
1666092020480153160,0.28000000000000014,0.0,0.0,0.0,0.0,0.9836903205851533
1666092020530755776,0.29500000000000015,0.0,0.0,0.0,0.0,0.9402108274260152
1666092020580199497,0.31000000000000016,0.0,0.0,0.0,0.0,0.8967313342668772
1666092020632017176,0.3250000000000002,0.0,0.0,0.0,0.0,0.8532518411077391
1666092020680539242,0.3400000000000002,0.0,0.0,0.0,0.0,0.809772347948601
1666092020730270384,0.3550000000000002,0.0,0.0,0.0,0.0,0.7662928547894629
1666092020780668757,0.3700000000000002,0.0,0.0,0.0,0.0,0.7228133616303247
1666092020830307102,0.38500000000000023,0.0,0.0,0.0,0.0,0.6793338684711866
1666092020880325706,0.40000000000000024,0.0,0.0,0.0,0.0,0.6358543753120485
1666092020930265768,0.41500000000000026,0.0,0.0,0.0,0.0,0.5923748821529105
1666092020980279653,0.43000000000000027,0.0,0.0,0.0,0.0,0.5488953889937723
1666092021030503997,0.4450000000000003,0.0,0.0,0.0,0.0,0.5054158958346342
1666092021080473758,0.4600000000000003,0.0,0.0,0.0,0.0,0.4619364026754961
1666092021130258048,0.4750000000000003,0.0,0.0,0.0,0.0,0.4107569275222654
1666092021180221734,0.4900000000000003,0.0,0.0,0.0,0.0,0.34350786810240375
1666092021230148382,0.5050000000000003,0.0,0.0,0.0,0.0,0.2760524452004306
1666092021280181415,0.5200000000000004,0.0,0.0,0.0,0.0,0.21467739484274828
1666092021330629854,0.5350000000000004,0.0,0.0,0.0,0.0,0.15330234448506597
1666092021380947512,0.5500000000000004,0.0,0.0,0.0,0.0,0.09192729412738364
1666092021430204401,0.5650000000000004,0.0,0.0,0.0,0.0,0.0009838603120063821
1666092021480334644,0.5777898762432238,0.0,0.0,0.0,0.0,-0.09901613968799362
1666092021531962623,0.5745931029210867,0.0,0.0,0.0,0.0,-0.19901613968799364
1666092021580583144,0.5713963295989496,0.0,0.0,0.0,0.0,-0.2990161396879937
1666092021630438845,0.5631692770126961,0.0,0.0,0.0,0.0,-0.39901613968799365
1666092021680655079,0.5648310859349307,0.0,0.0,0.0,0.0,-0.49901613968799363
1666092021731684979,0.5664928948571654,0.0,0.0,0.0,0.0,-0.5990161396879936
1666092021780621398,0.5612555590260433,0.0,0.0,0.0,0.0,-0.6990161396879936
1666092021830196199,0.5560182231949212,0.0,0.0,0.0,0.0,-0.7990161396879936
1666092021880232154,0.4909681898680667,0.0,0.0,0.0,0.0,-0.8990161396879935
1666092021930967494,0.48704716768140466,0.0,0.0,0.0,0.0,-0.9990161396879935
1666092021980244894,0.4831261454947427,0.0,0.0,0.0,0.0,-1.0990161396879936
1666092022031178597,0.455413068408185,0.0,0.0,0.0,0.0,-1.1990161396879937
1666092022080217825,0.4491182267665863,0.0,0.0,0.0,0.0,-1.2217304763960313
1666092022130723654,0.4199979901313781,0.0,0.0,0.0,0.0,-1.2217304763960313
1666092022180219865,0.4199979901313781,0.0,0.0,0.0,0.0,-1.2217304763960313
1666092022235960195,0.39335429668426514,0.0,0.0,0.0,0.0,-1.2217304763960313
1666092022280237515,0.39335429668426514,0.0,0.0,0.0,0.0,-1.2217304763960313
1666092022330789527,0.34921738505363464,0.0,0.0,0.0,0.0,-1.2217304763960313
1666092022380198439,0.3497149348258972,0.0,0.0,0.0,0.0,-1.2217304763960313
1666092022430380865,0.3347202539443969,0.0,0.0,0.0,0.0,-1.2217304763960313
1666092022480200046,0.1847202539443969,0.0,0.0,0.0,0.0,-1.1435160914838356
1666092022530278318,0.03472025394439687,0.0,0.0,0.0,0.0,-1.06530170657164
1666092022580222647,0.0,0.0,0.0,0.0,0.0,-1.0471975511965983
1666092022630179336,0.0,0.0,0.0,0.0,0.0,-0.9880323500956725
1666092022680219711,0.0,0.0,0.0,0.0,0.0,-0.9485294985642149
1666092022730534508,0.0,0.0,0.0,0.0,0.0,-0.9485294985642149
1666092022780428491,0.0,0.0,0.0,0.0,0.0,-0.9111283628971828
1666092022830331489,0.0,0.0,0.0,0.0,0.0,-0.9111283628971828
1666092022880251778,0.0,0.0,0.0,0.0,0.0,-0.8726646259971653
1666092022930470690,0.0,0.0,0.0,0.0,0.0,-0.8067404945710256
1666092022980236131,0.0,0.0,0.0,0.0,0.0,-0.8067404945710256
1666092023030459744,0.0,0.0,0.0,0.0,0.0,-0.6981317007977323
1666092023080214249,0.0,0.0,0.0,0.0,0.0,-0.6981317007977323
1666092023130503164,0.0,0.0,0.0,0.0,0.0,-0.5993135189802575
1666092023180852509,0.0,0.0,0.0,0.0,0.0,-0.5993135189802575
1666092023230478725,0.0,0.0,0.0,0.0,0.0,-0.5266847365113787
1666092023280334083,0.0,0.0,0.0,0.0,0.0,-0.5266847365113787
1666092023330811578,0.0,0.0,0.0,0.0,0.0,-0.44492111451413124
1666092023380823417,0.0,0.0,0.0,0.0,0.0,-0.3759512628655964
1666092023430215914,0.0,0.0,0.0,0.0,0.0,-0.3759512628655964
1666092023480176087,0.0,0.0,0.0,0.0,0.0,-0.3149571201163828
1666092023530938228,0.0,0.0,0.0,0.0,0.0,-0.3149571201163828
1666092023580292281,0.0,0.0,0.0,0.0,0.0,-0.17453292519943345
1666092023630310057,0.0,0.0,0.0,0.0,0.0,-0.17453292519943345
1666092023680269376,0.0,0.0,0.0,0.0,0.0,-0.17453292519943345
1666092023731397614,0.0,0.0,0.0,0.0,0.0,-0.17453292519943345
1666092023780859903,0.0,0.0,0.0,0.0,0.0,-0.17453292519943345
1666092023830573784,0.0,0.0,0.0,0.0,0.0,-4.996003610813204e-16
1666092023880235380,0.0,0.0,0.0,0.0,0.0,-4.996003610813204e-16
1666092023930325191,0.0,0.0,0.0,0.0,0.0,-4.996003610813204e-16
1666092023980518548,0.0,0.0,0.0,0.0,0.0,-4.996003610813204e-16
1666092024030709596,0.0,0.0,0.0,0.0,0.0,-4.996003610813204e-16
1666092024080849360,0.0,0.0,0.0,0.0,0.0,-4.996003610813204e-16
1666092024130519413,0.0,0.0,0.0,0.0,0.0,-4.996003610813204e-16
1666092024180840247,0.0,0.0,0.0,0.0,0.0,-4.996003610813204e-16
1666092024230398067,0.0,0.0,0.0,0.0,0.0,-4.996003610813204e-16
1666092024280299684,0.0,0.0,0.0,0.0,0.0,-4.996003610813204e-16
1666092024331014822,0.0,0.0,0.0,0.0,0.0,-4.996003610813204e-16
1666092024381138476,0.0,0.0,0.0,0.0,0.0,-4.996003610813204e-16
1666092024430246640,0.0,0.0,0.0,0.0,0.0,-4.996003610813204e-16
1666092024480353638,0.0,0.0,0.0,0.0,0.0,-4.996003610813204e-16
1666092024530225830,0.0,0.0,0.0,0.0,0.0,-4.996003610813204e-16
1666092024580176958,0.0,0.0,0.0,0.0,0.0,-4.996003610813204e-16
1666092024630487230,0.0,0.0,0.0,0.0,0.0,-4.996003610813204e-16
1666092024680162085,0.0,0.0,0.0,0.0,0.0,-4.996003610813204e-16
1666092024730580588,0.0,0.0,0.0,0.0,0.0,-4.996003610813204e-16
1666092024780728055,0.0,0.0,0.0,0.0,0.0,-4.996003610813204e-16
1666092024831202702,0.0,0.0,0.0,0.0,0.0,-4.996003610813204e-16
1666092024881033470,0.0,0.0,0.0,0.0,0.0,-4.996003610813204e-16
1666092024930351452,0.0,0.0,0.0,0.0,0.0,-4.996003610813204e-16
1666092024980195350,0.0,0.0,0.0,0.0,0.0,-4.996003610813204e-16
1666092025030514124,0.0,0.0,0.0,0.0,0.0,-4.996003610813204e-16
1666092025080309986,0.0,0.0,0.0,0.0,0.0,-4.996003610813204e-16
1666092025130505022,0.0,0.0,0.0,0.0,0.0,-4.996003610813204e-16
1666092025180586395,0.0,0.0,0.0,0.0,0.0,-0.1000000000000005
1666092025231463364,0.0,0.0,0.0,0.0,0.0,-0.17453292519943345
1666092025280241164,0.0,0.0,0.0,0.0,0.0,-0.17453292519943345
1666092025331538200,0.0,0.0,0.0,0.0,0.0,-0.17453292519943345
1666092025380268362,0.0,0.0,0.0,0.0,0.0,-0.17453292519943345
1666092025431215586,0.0,0.0,0.0,0.0,0.0,-0.17453292519943345
1666092025480259299,0.0,0.0,0.0,0.0,0.0,-0.17453292519943345
1666092025531129999,0.0,0.0,0.0,0.0,0.0,-0.17453292519943345
1666092025580634395,0.0,0.0,0.0,0.0,0.0,-0.17453292519943345
1666092025630627748,0.0,0.0,0.0,0.0,0.0,-0.17453292519943345
1666092025680338063,0.0,0.0,0.0,0.0,0.0,-0.17453292519943345
1666092025730419593,0.0,0.0,0.0,0.0,0.0,-0.17453292519943345
1666092025780824332,0.0,0.0,0.0,0.0,0.0,-0.17453292519943345
1666092025830583982,0.0,0.0,0.0,0.0,0.0,-0.17453292519943345
1666092025880227692,0.0,0.0,0.0,0.0,0.0,-0.17453292519943345
1666092025931286720,0.0,0.0,0.0,0.0,0.0,-0.17453292519943345
1666092025980288597,0.0,0.0,0.0,0.0,0.0,-0.17453292519943345
1666092026031197686,0.0,0.0,0.0,0.0,0.0,-0.17453292519943345
1666092026080684331,0.0,0.0,0.0,0.0,0.0,-0.17453292519943345
1666092026130533040,0.0,0.0,0.0,0.0,0.0,-0.17453292519943345
1666092026180515084,0.0,0.0,0.0,0.0,0.0,-0.17453292519943345
1666092026231463728,0.0,0.0,0.0,0.0,0.0,-0.17453292519943345
1666092026280431298,0.0,0.0,0.0,0.0,0.0,-0.17453292519943345
1666092026330518305,0.0,0.0,0.0,0.0,0.0,-0.17453292519943345
1666092026380302263,0.0,0.0,0.0,0.0,0.0,-0.17453292519943345
1666092026430353486,0.0,0.0,0.0,0.0,0.0,-0.17453292519943345
1666092026480306897,0.0,0.0,0.0,0.0,0.0,-0.17453292519943345
1666092026530597601,0.0,0.0,0.0,0.0,0.0,-0.17453292519943345
1666092026580190841,0.0,0.0,0.0,0.0,0.0,-0.17453292519943345
1666092026630683826,0.0,0.0,0.0,0.0,0.0,-0.17453292519943345
1666092026680514245,0.0,0.0,0.0,0.0,0.0,-0.17453292519943345
1666092026730707353,0.0,0.0,0.0,0.0,0.0,-0.17453292519943345
1666092026780204708,0.0,0.0,0.0,0.0,0.0,-0.17453292519943345
1666092026830667552,0.0,0.0,0.0,0.0,0.0,-0.17453292519943345
1666092026880345453,0.0,0.0,0.0,0.0,0.0,-0.17453292519943345
1666092026931004729,0.0,0.0,0.0,0.0,0.0,-0.17453292519943345
1666092026980937924,0.0,0.0,0.0,0.0,0.0,-0.17453292519943345
1666092027030850874,0.0,0.0,0.0,0.0,0.0,-0.17453292519943345
1666092027080297150,0.0,0.0,0.0,0.0,0.0,-0.17453292519943345
1666092027130280484,0.0,0.0,0.0,0.0,0.0,-0.17453292519943345
1666092027180715555,0.0,0.0,0.0,0.0,0.0,-0.17453292519943345
1666092027230291135,0.0,0.0,0.0,0.0,0.0,-0.17453292519943345
1666092027280201700,0.0,0.0,0.0,0.0,0.0,-0.17453292519943345
1666092027330409489,0.0,0.0,0.0,0.0,0.0,-0.17453292519943345
1666092027380543804,0.0,0.0,0.0,0.0,0.0,-0.17453292519943345
1666092027430358319,0.0,0.0,0.0,0.0,0.0,-0.17453292519943345
1666092027480998790,0.0,0.0,0.0,0.0,0.0,-0.17453292519943345
1666092027530397643,0.0,0.0,0.0,0.0,0.0,-0.17453292519943345
1666092027580260592,0.0,0.0,0.0,0.0,0.0,-0.17453292519943345
1666092027631175619,0.0,0.0,0.0,0.0,0.0,-0.17453292519943345
1666092027680272828,0.0,0.0,0.0,0.0,0.0,-0.17453292519943345
1666092027730543897,0.0,0.0,0.0,0.0,0.0,-0.17453292519943345
1666092027781141660,0.0,0.0,0.0,0.0,0.0,-0.17453292519943345
1666092027832430218,0.0,0.0,0.0,0.0,0.0,-0.17453292519943345
1666092027880161700,0.0,0.0,0.0,0.0,0.0,-0.17453292519943345
1666092027930569692,0.0,0.0,0.0,0.0,0.0,-0.17453292519943345
1666092027980257592,0.0,0.0,0.0,0.0,0.0,-0.17453292519943345
1666092028030371773,0.0,0.0,0.0,0.0,0.0,-0.17453292519943345
1666092028080210490,0.0,0.0,0.0,0.0,0.0,-0.17453292519943345
1666092028130409691,0.0,0.0,0.0,0.0,0.0,-0.17453292519943345
1666092028180270587,0.0,0.0,0.0,0.0,0.0,-0.17453292519943345
1666092028230404241,0.0,0.0,0.0,0.0,0.0,-0.17453292519943345
1666092028280299734,0.0,0.0,0.0,0.0,0.0,-0.17453292519943345
1666092028330309507,0.0,0.0,0.0,0.0,0.0,-0.17453292519943345
1666092028380375237,0.0,0.0,0.0,0.0,0.0,-0.17453292519943345
1666092028430313232,0.0,0.0,0.0,0.0,0.0,-0.17453292519943345
1666092028480206487,0.0,0.0,0.0,0.0,0.0,-0.17453292519943345
1666092028530402921,0.0,0.0,0.0,0.0,0.0,-0.17453292519943345
1666092028580319175,0.0,0.0,0.0,0.0,0.0,-0.17453292519943345
1666092028631003707,0.0,0.0,0.0,0.0,0.0,-0.17453292519943345
1666092028680168675,0.0,0.0,0.0,0.0,0.0,-0.17453292519943345
1666092028731042842,0.0,0.0,0.0,0.0,0.0,-0.17453292519943345
1666092028781048008,0.0,0.0,0.0,0.0,0.0,-0.17453292519943345
1666092028830526759,0.0,0.0,0.0,0.0,0.0,-0.17453292519943345
1666092028880368678,0.0,0.0,0.0,0.0,0.0,-0.17453292519943345
1666092028930696461,0.0,0.0,0.0,0.0,0.0,-0.17453292519943345
1666092028980269879,0.0,0.0,0.0,0.0,0.0,-0.17453292519943345
1666092029030255715,0.0,0.0,0.0,0.0,0.0,-0.17453292519943345
1666092029080373413,0.0,0.0,0.0,0.0,0.0,-0.17453292519943345
1666092029130376804,0.0,0.0,0.0,0.0,0.0,-0.17453292519943345
1666092029180267172,0.0,0.0,0.0,0.0,0.0,-0.17453292519943345
1666092029231138370,0.0,0.0,0.0,0.0,0.0,-0.17453292519943345
1666092029280230522,0.0,0.0,0.0,0.0,0.0,-0.17453292519943345
1666092029330293710,0.0,0.0,0.0,0.0,0.0,-0.17453292519943345
1666092029380197081,0.0,0.0,0.0,0.0,0.0,-0.17453292519943345
1666092029430340974,0.0,0.0,0.0,0.0,0.0,-0.17453292519943345
1666092029480315316,0.0,0.0,0.0,0.0,0.0,-0.17453292519943345
1666092029530393992,0.0,0.0,0.0,0.0,0.0,-0.17453292519943345
1666092029580565411,0.0,0.0,0.0,0.0,0.0,-0.17453292519943345
1666092029630422816,0.0,0.0,0.0,0.0,0.0,-0.17453292519943345
1666092029680174101,0.0,0.0,0.0,0.0,0.0,-0.17453292519943345
1666092029730876776,0.0,0.0,0.0,0.0,0.0,-0.17453292519943345
1666092029780581913,0.0,0.0,0.0,0.0,0.0,-0.17453292519943345
1666092029830481772,0.0,0.0,0.0,0.0,0.0,-0.17453292519943345
1666092029880494224,0.0,0.0,0.0,0.0,0.0,-0.17453292519943345
1666092029932922443,0.0,0.0,0.0,0.0,0.0,-0.17453292519943345
1666092029980305895,0.0,0.0,0.0,0.0,0.0,-0.17453292519943345
1666092030030641466,0.0,0.0,0.0,0.0,0.0,-0.17453292519943345
1666092030080309481,0.0,0.0,0.0,0.0,0.0,-0.17453292519943345
1666092030130185385,0.0,0.0,0.0,0.0,0.0,-0.17453292519943345
1666092030180238205,0.0,0.0,0.0,0.0,0.0,-0.17453292519943345
1666092030232064983,0.0,0.0,0.0,0.0,0.0,-0.17453292519943345
1666092030280336431,0.0,0.0,0.0,0.0,0.0,-0.17453292519943345
1666092030330268085,0.0,0.0,0.0,0.0,0.0,-0.17453292519943345
1666092030380215346,0.0,0.0,0.0,0.0,0.0,-0.17453292519943345
1666092030430891719,0.0,0.0,0.0,0.0,0.0,-0.17453292519943345
1666092030480442585,0.0,0.0,0.0,0.0,0.0,-0.17453292519943345
1666092030530606964,0.0,0.0,0.0,0.0,0.0,-0.24649132732744278
1666092030580402165,0.0,0.0,0.0,0.0,0.0,-0.24649132732744278
1666092030630467123,0.0,0.0,0.0,0.0,0.0,-0.2709600046381911
1666092030680180477,0.0,0.0,0.0,0.0,0.0,-0.2718141899180584
1666092030730317107,0.0,0.0,0.0,0.0,0.0,-0.2718141899180584
1666092030780186644,0.0,0.0,0.0,0.0,0.0,-0.2718141899180584
1666092030830706033,0.0,0.0,0.0,0.0,0.0,-0.25965721218967974
1666092030880194910,0.0,0.0,0.0,0.0,0.0,-0.24247518008225882
1666092030930570036,0.0,0.0,0.0,0.0,0.0,-0.24247518008225882
1666092030980307718,0.0,0.0,0.0,0.0,0.0,-0.2391549112469414
1666092031030671305,0.0,0.0,0.0,0.0,0.0,-0.2391549112469414
1666092031080996165,0.0,0.0,0.0,0.0,0.0,-0.21585970109619526
1666092031130708904,0.0,0.0,0.0,0.0,0.0,-0.21585970109619526
1666092031180583186,0.0,0.0,0.0,0.0,0.0,-0.21585970109619526
1666092031230570261,0.0,0.0,0.0,0.0,0.0,-0.17453292519943345
1666092031280486145,0.0,0.0,0.0,0.0,0.0,-0.17453292519943345
1666092031330763538,0.0,0.0,0.0,0.0,0.0,-0.17453292519943345
1666092031381865365,0.0,0.0,0.0,0.0,0.0,-0.17453292519943345
1666092031430191381,0.0,0.0,0.0,0.0,0.0,-0.17453292519943345
1666092031480663199,0.0,0.0,0.0,0.0,0.0,-0.17453292519943345
1666092031530558914,0.0,0.0,0.0,0.0,0.0,-0.17453292519943345
1666092031580264500,0.0,0.0,0.0,0.0,0.0,-0.17453292519943345
1666092031630265435,0.0,0.0,0.0,0.0,0.0,-0.17453292519943345
1666092031680841211,0.0,0.0,0.0,0.0,0.0,-0.17453292519943345
1666092031730164776,0.0,0.0,0.0,0.0,0.0,-0.17453292519943345
1666092031780357730,0.0,0.0,0.0,0.0,0.0,-0.17453292519943345
1666092031833484142,0.0,0.0,0.0,0.0,0.0,-0.17453292519943345
1666092031880691746,0.0,0.0,0.0,0.0,0.0,-0.17453292519943345
1666092031930422499,0.0,0.0,0.0,0.0,0.0,-0.17453292519943345
1666092031980443875,0.0,0.0,0.0,0.0,0.0,-0.17453292519943345
1666092032030725317,0.0,0.0,0.0,0.0,0.0,-0.17453292519943345
1666092032080319228,0.0,0.0,0.0,0.0,0.0,-0.17453292519943345
1666092032130920027,0.0,0.0,0.0,0.0,0.0,-0.17453292519943345
1666092032180303427,0.0,0.0,0.0,0.0,0.0,-0.17453292519943345
1666092032230324817,0.0,0.0,0.0,0.0,0.0,-0.17453292519943345
1666092032281053410,0.0,0.0,0.0,0.0,0.0,-0.17453292519943345
1666092032330370149,0.0,0.0,0.0,0.0,0.0,-0.17453292519943345
1666092032380285525,0.0,0.0,0.0,0.0,0.0,-0.17453292519943345
1666092032431085326,0.0,0.0,0.0,0.0,0.0,-0.17453292519943345
1666092032480245554,0.0,0.0,0.0,0.0,0.0,-0.17453292519943345
1666092032530254654,0.0,0.0,0.0,0.0,0.0,-0.17453292519943345
1666092032580376873,0.0,0.0,0.0,0.0,0.0,-0.17453292519943345
1666092032630515955,0.0,0.0,0.0,0.0,0.0,-0.17453292519943345
1666092032680265152,0.0,0.0,0.0,0.0,0.0,-0.17453292519943345
1666092032730915165,0.0,0.0,0.0,0.0,0.0,-0.17453292519943345
1666092032780253190,0.0,0.0,0.0,0.0,0.0,-0.17453292519943345
1666092032830133762,0.0,0.0,0.0,0.0,0.0,-0.17453292519943345
1666092032880299092,0.0,0.0,0.0,0.0,0.0,-0.17453292519943345
1666092032930363064,0.0,0.0,0.0,0.0,0.0,-4.996003610813204e-16
1666092032980261908,0.0,0.0,0.0,0.0,0.0,-4.996003610813204e-16
1666092033030915096,0.0,0.0,0.0,0.0,0.0,-4.996003610813204e-16
1666092033080248513,0.0,0.0,0.0,0.0,0.0,-4.996003610813204e-16
1666092033130202542,0.0,0.0,0.0,0.0,0.0,-4.996003610813204e-16
1666092033180696013,0.0,0.0,0.0,0.0,0.0,-4.996003610813204e-16
1666092033230334713,0.0,0.0,0.0,0.0,0.0,-0.1000000000000005
1666092033280301277,0.0,0.0,0.0,0.0,0.0,-0.17453292519943345
1666092033330316068,0.0,0.0,0.0,0.0,0.0,-0.17453292519943345
1666092033381165759,0.0,0.0,0.0,0.0,0.0,-0.17453292519943345
1666092033430417888,0.0,0.0,0.0,0.0,0.0,-0.17453292519943345
1666092033480369018,0.0,0.0,0.0,0.0,0.0,-0.17453292519943345
1666092033530341642,0.0,0.0,0.0,0.0,0.0,-0.17453292519943345
1666092033580384302,0.0,0.0,0.0,0.0,0.0,-0.17453292519943345
1666092033630701251,0.0,0.0,0.0,0.0,0.0,-0.17453292519943345
1666092033680322717,0.0,0.0,0.0,0.0,0.0,-0.17453292519943345
1666092033730297440,0.0,0.0,0.0,0.0,0.0,-0.17453292519943345
1666092033780766455,0.0,0.0,0.0,0.0,0.0,-0.17453292519943345
1666092033830507170,0.0,0.0,0.0,0.0,0.0,-0.17453292519943345
1666092033880212720,0.0,0.0,0.0,0.0,0.0,-0.17453292519943345
1666092033930250374,0.0,0.0,0.0,0.0,0.0,-0.17453292519943345
1666092033980194125,0.0,0.0,0.0,0.0,0.0,-0.17453292519943345
1666092034030627441,0.0,0.0,0.0,0.0,0.0,-0.17453292519943345
1666092034080196145,0.0,0.0,0.0,0.0,0.0,-0.17453292519943345
1666092034130227768,0.0,0.0,0.0,0.0,0.0,-0.17453292519943345
1666092034181171552,0.0,0.0,0.0,0.0,0.0,-0.17453292519943345
1666092034230194884,0.0,0.0,0.0,0.0,0.0,-0.17453292519943345
1666092034280413964,0.0,0.0,0.0,0.0,0.0,-0.17453292519943345
1666092034330281655,0.0,0.0,0.0,0.0,0.0,-0.17453292519943345
1666092034380527234,0.0,0.0,0.0,0.0,0.0,-0.17453292519943345
1666092034430191929,0.0,0.0,0.0,0.0,0.0,-0.17453292519943345
1666092034480233469,0.0,0.0,0.0,0.0,0.0,-0.17453292519943345
1666092034530293147,0.0,0.0,0.0,0.0,0.0,-0.17453292519943345
1666092034580523147,0.0,0.0,0.0,0.0,0.0,-0.17453292519943345
1666092034630285237,0.0,0.0,0.0,0.0,0.0,-0.17453292519943345
1666092034680288055,0.0,0.0,0.0,0.0,0.0,-0.17453292519943345
1666092034730265675,0.0,0.0,0.0,0.0,0.0,-0.17453292519943345
1666092034780678368,0.0,0.0,0.0,0.0,0.0,-0.17453292519943345
