%time,field.linear.x,field.linear.y,field.linear.z,field.angular.x,field.angular.y,field.angular.z
1666091097147346879,0.0,0.0,0.0,0.0,0.0,0.0
1666091097166796737,0.0,0.0,0.0,0.0,0.0,0.0
1666091097187795101,0.0,0.0,0.0,0.0,0.0,0.0
1666091097206825654,0.0,0.0,0.0,0.0,0.0,0.0
1666091097226749082,0.0,0.0,0.0,0.0,0.0,0.0
1666091097246940658,0.0,0.0,0.0,0.0,0.0,0.0
1666091097266765563,0.004264604416675866,0.0,0.0,0.0,0.0,0.0
1666091097286751943,0.006396906625013799,0.0,0.0,0.0,0.0,0.0
1666091097306757474,0.002132302208337933,0.0,0.0,0.0,0.0,0.0
1666091097352026397,0.0,0.0,0.0,0.0,0.0,0.0
1666091097352035220,0.0,0.0,0.0,0.0,0.0,0.0
1666091097396029857,0.0,0.0,0.0,0.0,0.0,0.0
1666091097396041443,0.0,0.0,0.0,0.0,0.0,0.0
1666091097440028399,0.0,0.0,0.0,0.0,0.0,0.0
1666091097440043875,0.0,0.0,0.0,0.0,0.0,0.0
1666091097488029090,0.0,0.0,0.0,0.0,0.0,0.0
1666091097488041361,-0.004264604416675866,0.0,0.0,0.0,0.0,0.0
1666091097488048052,-0.004264604416675866,0.0,0.0,0.0,0.0,0.0
1666091097532024005,-0.002132302208337933,0.0,0.0,0.0,0.0,0.0
1666091097532034989,0.0,0.0,0.0,0.0,0.0,0.0
1666091097546693115,0.0,0.0,0.0,0.0,0.0,0.0
1666091097566669644,0.0,0.0,0.0,0.0,0.0,0.0
1666091097608025221,0.0,0.0,0.0,0.0,0.0,0.0
1666091097608039489,0.0,0.0,0.0,0.0,0.0,0.0
1666091097652064098,0.0,0.0,0.0,0.0,0.0,0.0
1666091097652073099,0.0,0.0,0.0,0.0,0.0,0.0
1666091097700023284,0.0,0.0,0.0,0.0,0.0,0.0
1666091097700028486,0.0,0.0,0.0,0.0,0.0,0.0
1666091097744032157,0.0,0.0,0.0,0.0,0.0,0.0
1666091097744044584,0.0,0.0,0.0,0.0,0.0,0.0
1666091097788020933,0.0,0.0,0.0,0.0,0.0,0.0
1666091097788028026,0.0,0.0,0.0,0.0,0.0,0.0
1666091097788034887,0.0,0.0,0.0,0.0,0.0,0.0
1666091097832072183,0.0,0.0,0.0,0.0,0.0,0.0
1666091097832082734,0.0,0.0,0.0,0.0,0.0,0.0
1666091097846669729,0.0,0.0,0.0,0.0,0.0,0.0
1666091097866596250,0.0,0.0,0.0,0.0,0.0,0.0
1666091097908036586,0.0,0.0,0.0,0.0,0.0,0.0
1666091097908045208,0.0,0.0,0.0,0.0,0.0,0.0
1666091097956023562,0.0,0.0,0.0,0.0,0.0,0.0
1666091097956032489,0.0,0.0,0.0,0.0,0.0,0.0
1666091098004032002,0.0,0.0,0.0,0.0,0.0,0.0
1666091098004039880,0.002132302208337933,0.0,0.0,0.0,0.0,0.0
1666091098048029267,0.0,0.0,0.0,0.0,0.0,0.0
1666091098048039401,0.0,0.0,0.0,0.0,0.0,0.0
1666091098048046742,0.0,0.0,0.0,0.0,0.0,0.0
1666091098092094301,0.0,0.0,0.0,0.0,0.0,0.0
1666091098092113751,0.0,0.0,0.0,0.0,0.0,0.0
1666091098107487738,0.0,0.0,0.0,0.0,0.0,0.0
1666091098127477250,0.0,0.0,0.0,0.0,0.0,0.0
1666091098168074039,0.0,0.0,0.0,0.0,0.0,0.0
1666091098168089243,0.0,0.0,0.0,0.0,0.0,0.0
1666091098216079159,0.0,0.0,0.0,0.0,0.0,0.0
1666091098216091642,0.0,0.0,0.0,0.0,0.0,0.0
1666091098264056015,0.0,0.0,0.0,0.0,0.0,0.0
1666091098264066439,0.0,0.0,0.0,0.0,0.0,0.0
1666091098308049633,0.0,0.0,0.0,0.0,0.0,0.0
1666091098308064809,0.0,0.0,0.0,0.0,0.0,0.0
1666091098308071914,0.0,0.0,0.0,0.0,0.0,0.0
1666091098352046093,0.0,0.0,0.0,0.0,0.0,0.0
1666091098352059073,0.0,0.0,0.0,0.0,0.0,0.0
1666091098367422813,0.0,0.0,0.0,0.0,0.0,0.0
1666091098387366364,0.0,0.0,0.0,0.0,0.0,0.0
1666091098428034655,0.0,0.0,0.0,0.0,0.0,0.0
1666091098428043119,0.0,0.0,0.0,0.0,0.0,0.0
1666091098472043458,0.0,0.0,0.0,0.0,0.0,0.0
1666091098472052800,0.0,0.0,0.0,0.0,0.0,0.0
1666091098516049366,0.0,0.0,0.0,0.0,0.0,0.0
1666091098516060163,0.0,0.0,0.0,0.0,0.0,0.0
1666091098560037115,0.0,0.0,0.0,0.0,0.0,0.0
1666091098560047481,0.0,0.0,0.0,0.0,0.0,0.0
1666091098604419044,0.0,0.0,0.0,0.0,0.0,0.0
1666091098604464974,0.0,0.0,0.0,0.0,0.0,0.0
1666091098648069439,0.0,0.0,0.0,0.0,0.0,0.0
1666091098648080645,0.0,0.0,0.0,0.0,0.0,0.0
1666091098648087005,0.0,0.0,0.0,0.0,0.0,0.0
1666091098692058277,0.0,0.0,0.0,0.0,0.0,0.0
1666091098692069150,0.0,0.0,0.0,0.0,0.0,0.0
1666091098708194366,0.0,0.0,0.0,0.0,0.0,0.0
1666091098727188917,0.0,0.0,0.0,0.0,0.0,0.0
1666091098772064456,0.0,0.0,0.0,0.0,0.0,0.0
1666091098772091563,0.0,0.0,0.0,0.0,0.0,0.0
1666091098816055373,0.0,0.0,0.0,0.0,0.0,0.0
1666091098816062744,0.0,0.0,0.0,0.0,0.0,0.0
1666091098856029071,0.0,0.0,0.0,0.0,0.0,0.0
1666091098856037993,0.0,0.0,0.0,0.0,0.0,0.0
1666091098904039032,0.0,0.0,0.0,0.0,0.0,0.0
1666091098904049131,0.0,0.0,0.0,0.0,0.0,0.0
1666091098948036542,0.0,0.0,0.0,0.0,0.0,0.0
1666091098948045499,0.0,0.0,0.0,0.0,0.0,0.0
1666091098948053239,0.0,0.0,0.0,0.0,0.0,0.0
1666091098992048162,0.0,0.0,0.0,0.0,0.0,0.0
1666091098992058349,0.0,0.0,0.0,0.0,0.0,0.0
1666091099007575174,0.0,0.0,0.0,0.0,0.0,0.0
1666091099028153636,0.0,0.0,0.0,0.0,0.0,0.0
1666091099072041888,0.0,0.0,0.0,0.0,0.0,0.0
1666091099072052827,0.0,0.0,0.0,0.0,0.0,0.0
1666091099116030379,0.0,0.0,0.0,0.0,0.0,0.0
1666091099116038844,0.0,0.0,0.0,0.0,0.0,0.0
1666091099160038427,0.0,0.0,0.0,0.0,0.0,0.0
1666091099160047632,0.0,0.0,0.0,0.0,0.0,0.0
1666091099208180763,0.0,0.0,0.0,0.0,0.0,0.0
1666091099208209214,0.0,0.0,0.0,0.0,0.0,0.0
1666091099252499264,0.0,0.0,0.0,0.0,0.0,0.0
1666091099252570132,0.0,0.0,0.0,0.0,0.0,0.0
1666091099252620978,0.0,0.0,0.0,0.0,0.0,0.0
1666091099296188219,0.0,0.0,0.0,0.0,0.0,0.0
1666091099296207269,0.0,0.0,0.0,0.0,0.0,0.0
1666091099308709862,0.0,0.0,0.0,0.0,0.0,0.0
1666091099328109217,0.0,0.0,0.0,0.0,0.0,0.0
1666091099372076959,0.0,0.0,0.0,0.0,0.0,0.0
1666091099372088706,0.0,0.0,0.0,0.0,0.0,0.0
1666091099416095914,0.0,0.0,0.0,0.0,0.0,0.0
1666091099416109280,0.0,0.0,0.0,0.0,0.0,0.0
1666091099460078382,0.0,0.0,0.0,0.0,0.0,0.0
1666091099460093518,0.0,0.0,0.0,0.0,0.0,0.0
1666091099504195141,0.0,0.0,0.0,0.0,0.0,0.0
1666091099504241246,0.0,0.0,0.0,0.0,0.0,0.0
1666091099560427173,0.0,0.0,0.0,0.0,0.0,0.0
1666091099560556806,0.0,0.0,0.0,0.0,0.0,0.0
1666091099560613445,0.0,0.0,0.0,0.0,0.0,0.0
1666091099608085679,0.0,0.0,0.0,0.0,0.0,0.0
1666091099629821381,0.0,0.0,0.0,0.0,0.0,0.0
1666091099676081861,0.0,0.0,0.0,0.0,0.0,0.0
1666091099676098514,0.0,0.0,0.0,0.0,0.0,0.0
1666091099720220149,0.0,0.0,0.0,0.0,0.0,0.0
1666091099720282157,0.0,0.0,0.0,0.0,0.0,0.0
1666091099764213465,0.0,0.0,0.0,0.0,0.0,0.0
1666091099764241682,0.0,0.0,0.0,0.0,0.0,0.0
1666091099812608847,0.0,0.0,0.0,0.0,0.0,0.0
1666091099812635756,0.0,0.0,0.0,0.0,0.0,0.0
1666091099812659202,0.0,0.0,0.0,0.0,0.0,0.0
1666091099856064154,0.0,0.0,0.0,0.0,0.0,0.0
1666091099856082994,0.0,0.0,0.0,0.0,0.0,0.0
1666091099868041336,0.0,0.0,0.0,0.0,0.0,0.0
1666091099888215321,0.0,0.0,0.0,0.0,0.0,0.0
1666091099932046022,0.0,0.0,0.0,0.0,0.0,0.0
1666091099932058334,0.0,0.0,0.0,0.0,0.0,0.0
1666091099976053130,0.0,0.0,0.0,0.0,0.0,0.0
1666091099976081221,0.0,0.0,0.0,0.0,0.0,0.0
1666091100020053991,0.002132302208337933,0.0,0.0,0.0,0.0,0.0
1666091100020065434,0.0,0.0,0.0,0.0,0.0,0.0
1666091100064088904,0.0,0.0,0.0,0.0,0.0,0.0
1666091100064099113,0.0,0.0,0.0,0.0,0.0,0.0
1666091100108059998,0.0,0.0,0.0,0.0,0.0,0.0
1666091100108075689,0.0,0.0,0.0,0.0,0.0,0.0
1666091100108082863,-0.002132302208337933,0.0,0.0,0.0,0.0,-0.0010471975511965976
1666091100152046866,-0.002132302208337933,0.0,0.0,0.0,0.0,0.0
1666091100152057839,0.0,0.0,0.0,0.0,0.0,0.0
1666091100167705086,0.0,0.0,0.0,0.0,0.0,0.0
1666091100187695208,0.0,0.0,0.0,0.0,0.0,0.0
1666091100232046106,0.0,0.0,0.0,0.0,0.0,0.0
1666091100232059849,0.0,0.0,0.0,0.0,0.0,0.0
1666091100276047248,0.0,0.0,0.0,0.0,0.0,0.0
1666091100276060843,0.0,0.0,0.0,0.0,0.0,0.0
1666091100320083159,0.0,0.0,0.0,0.0,0.0,0.0
1666091100320115104,0.0,0.0,0.0,0.0,0.0,0.0
1666091100364124461,0.0,0.0,0.0,0.0,0.0,0.0
1666091100364141548,0.002132302208337933,0.0,0.0,0.0,0.0,-0.00017453292519943296
1666091100408372583,0.002132302208337933,0.0,0.0,0.0,0.0,-0.002967059728390361
1666091100408520337,0.002132302208337933,0.0,0.0,0.0,0.0,0.0
1666091100452092525,0.0,0.0,0.0,0.0,0.0,0.0
1666091100452109878,0.0,0.0,0.0,0.0,0.0,0.0
1666091100452119270,0.0,0.0,0.0,0.0,0.0,0.0
1666091100500048955,0.0,0.0,0.0,0.0,0.0,0.0
1666091100500060636,-0.004264604416675866,0.0,0.0,0.0,0.0,0.0
1666091100508607622,-0.004264604416675866,0.0,0.0,0.0,0.0,-0.00034906585039886593
1666091100529176561,0.0,0.0,0.0,0.0,0.0,0.0
1666091100572080054,0.0,0.0,0.0,0.0,0.0,0.0
1666091100572098616,0.0,0.0,0.0,0.0,0.0,0.0
1666091100616081448,0.0,0.0,0.0,0.0,0.0,0.0
1666091100616093937,0.0,0.0,0.0,0.0,0.0,0.0
1666091100660402836,0.0,0.0,0.0,0.0,0.0,0.0
1666091100660444817,0.0,0.0,0.0,0.0,0.0,0.0
1666091100708110004,0.0,0.0,0.0,0.0,0.0,0.0
1666091100708121048,0.0,0.0,0.0,0.0,0.0,0.0
1666091100756133618,0.0,0.0,0.0,0.0,0.0,0.0
1666091100756155078,0.0,0.0,0.0,0.0,0.0,0.0
1666091100756166217,0.0,0.0,0.0,0.0,0.0,0.0
1666091100804323945,0.0,0.0,0.0,0.0,0.0,0.0
1666091100804349845,0.0,0.0,0.0,0.0,0.0,0.0
1666091100808769461,0.0,0.0,0.0,0.0,0.0,0.0
1666091100829122938,0.0,0.0,0.0,0.0,0.0,0.0
1666091100872136712,0.0,0.0,0.0,0.0,0.0,0.0
1666091100872159458,0.0,0.0,0.0,0.0,0.0,0.0
1666091100916051222,0.0,0.0,0.0,0.0,0.0,0.0
1666091100916066026,0.0,0.0,0.0,0.0,0.0,0.0
1666091100960114483,0.0,0.0,0.0,0.0,0.0,0.0
1666091100960141485,0.0,0.0,0.0,0.0,0.0,0.0
1666091101004141742,0.0,0.0,0.0,0.0,0.0,0.0
1666091101004162185,0.0,0.0,0.0,0.0,0.0,0.0
1666091101048063667,0.0,0.0,0.0,0.0,0.0,0.0
1666091101048082374,0.0,0.0,0.0,0.0,0.0,0.0
1666091101092128244,0.0,0.0,0.0,0.0,0.0,0.0
1666091101092150558,0.0,0.0,0.0,0.0,0.0,0.0
1666091101092162791,0.0,0.0,0.0,0.0,0.0,0.0
1666091101136146885,0.0,0.0,0.0,0.0,0.0,0.0
1666091101136160839,0.0,0.0,0.0,0.0,0.0,0.0
1666091101148639119,0.0,0.0,0.0,0.0,0.0,0.0
1666091101169743553,0.0,0.0,0.0,0.0,0.0,0.0
1666091101216048644,0.0,0.0,0.0,0.0,0.0,0.0
1666091101216060404,0.0,0.0,0.0,0.0,0.0,0.0
1666091101260082988,0.0,0.0,0.0,0.0,0.0,0.0
1666091101260101186,0.0,0.0,0.0,0.0,0.0,0.0
1666091101304403973,0.0,0.0,0.0,0.0,0.0,0.0
1666091101304457518,0.0,0.0,0.0,0.0,0.0,0.0
1666091101348073809,0.0,0.0,0.0,0.0,0.0,0.0
1666091101348085339,0.0,0.0,0.0,0.0,0.0,0.0
1666091101396162462,0.0,0.0,0.0,0.0,0.0,0.0
1666091101396189307,0.0,0.0,0.0,0.0,0.0,0.0
1666091101396207124,0.0,0.0,0.0,0.0,0.0,0.0
1666091101440143380,0.0,0.0,0.0,0.0,0.0,0.0
1666091101440159459,0.0,0.0,0.0,0.0,0.0,0.0
1666091101448399152,0.0,0.0,0.0,0.0,0.0,0.0
1666091101469470829,0.0,0.0,0.0,0.0,0.0,0.0
1666091101512081634,0.0,0.0,0.0,0.0,0.0,0.0
1666091101512091617,0.0,0.0,0.0,0.0,0.0,0.0
1666091101560150844,0.0,0.0,0.0,0.0,0.0,0.0
1666091101560174365,0.0,0.0,0.0,0.0,0.0,0.0
1666091101604111773,0.0,0.0,0.0,0.0,0.0,0.0
1666091101604127711,0.0,0.0,0.0,0.0,0.0,0.0
1666091101648070044,0.0,0.0,0.0,0.0,0.0,0.0
1666091101648086772,0.0,0.0,0.0,0.0,0.0,0.0
1666091101692085681,0.0,0.0,0.0,0.0,0.0,0.0
1666091101692103494,0.0,0.0,0.0,0.0,0.0,0.0
1666091101692118032,0.0,0.0,0.0,0.0,0.0,0.0
1666091101736059114,0.0,0.0,0.0,0.0,0.0,0.0
1666091101736073217,0.0,0.0,0.0,0.0,0.0,0.0
1666091101749216978,0.0,0.0,0.0,0.0,0.0,0.0
1666091101770346225,0.0,0.0,0.0,0.0,0.0,0.0
1666091101816041564,0.0,0.0,0.0,0.0,0.0,0.0
1666091101816051933,0.0,0.0,0.0,0.0,0.0,0.0
1666091101860184780,0.0,0.0,0.0,0.0,0.0,0.0
1666091101860205413,0.0,0.0,0.0,0.0,0.0,0.0
1666091101904099742,0.0,0.0,0.0,0.0,0.0,0.0
1666091101904116881,0.0,0.0,0.0,0.0,0.0,0.0
1666091101948071290,0.0,0.0,0.0,0.0,0.0,0.0
1666091101948083575,0.0,0.0,0.0,0.0,0.0,0.0
1666091101992056892,0.0,0.0,0.0,0.0,0.0,0.0
1666091101992070890,0.0,0.0,0.0,0.0,0.0,0.0
1666091101992081046,0.0,0.0,0.0,0.0,0.0,0.0
1666091102036098880,0.0,0.0,0.0,0.0,0.0,0.0
1666091102036117755,0.0,0.0,0.0,0.0,0.0,0.0
1666091102049035859,0.0,0.0,0.0,0.0,0.0,0.0
1666091102069337818,0.0,0.0,0.0,0.0,0.0,0.0
1666091102112350447,0.0,0.0,0.0,0.0,0.0,0.0
1666091102112380036,0.0,0.0,0.0,0.0,0.0,0.0
1666091102156065044,0.0,0.0,0.0,0.0,0.0,0.0
1666091102156078688,0.0,0.0,0.0,0.0,0.0,0.0
1666091102200072948,0.0,0.0,0.0,0.0,0.0,0.0
1666091102200082115,0.0,0.0,0.0,0.0,0.0,0.0
1666091102244082556,0.0,0.0,0.0,0.0,0.0,0.0
1666091102244097710,0.0,0.0,0.0,0.0,0.0,0.0
1666091102292044552,0.0,0.0,0.0,0.0,0.0,0.0
1666091102292055740,0.0,0.0,0.0,0.0,0.0,0.0
1666091102336138314,0.0,0.0,0.0,0.0,0.0,0.0
1666091102336159640,0.0,0.0,0.0,0.0,0.0,0.0
1666091102336184741,0.0,0.0,0.0,0.0,0.0,0.0
1666091102380085611,0.0,0.0,0.0,0.0,0.0,0.0
1666091102380098311,0.0,0.0,0.0,0.0,0.0,0.0
1666091102389934603,0.0,0.0,0.0,0.0,0.0,0.0
1666091102410925140,0.0,0.0,0.0,0.0,0.0,0.0
1666091102452056952,0.0,0.0,0.0,0.0,0.0,0.0
1666091102452069468,0.0,0.0,0.0,0.0,0.0,0.0
1666091102496254736,0.0,0.0,0.0,0.0,0.0,0.0
1666091102496277901,0.0,0.0,0.0,0.0,0.0,0.0
1666091102544471390,0.0,0.0,0.0,0.0,0.0,0.0
1666091102544498037,0.0,0.0,0.0,0.0,0.0,0.0
1666091102592067212,0.0,0.0,0.0,0.0,0.0,0.0
1666091102592080482,0.0,0.0,0.0,0.0,0.0,0.0
1666091102592085358,0.0,0.0,0.0,0.0,0.0,0.0
1666091102636069631,0.0,0.0,0.0,0.0,0.0,0.0
1666091102636087737,0.0,0.0,0.0,0.0,0.0,0.0
1666091102648856176,0.0,0.0,0.0,0.0,0.0,0.0
1666091102668957798,0.0,0.0,0.0,0.0,0.0,0.0
1666091102712069857,0.0,0.0,0.0,0.0,0.0,0.0
1666091102712083463,0.0,0.0,0.0,0.0,0.0,0.0
1666091102756063801,0.0,0.0,0.0,0.0,0.0,0.0
1666091102756075466,0.0,0.0,0.0,0.0,0.0,0.0
1666091102800185899,0.0,0.0,0.0,0.0,0.0,0.0
1666091102800216708,0.0,0.0,0.0,0.0,0.0,0.0
1666091102844107825,0.0,0.0,0.0,0.0,0.0,0.0
1666091102844133471,0.0,0.0,0.0,0.0,0.0,0.0
1666091102888144742,0.0,0.0,0.0,0.0,0.0,0.0
1666091102888156955,0.0,0.0,0.0,0.0,0.0,0.0
1666091102936112781,0.0,0.0,0.0,0.0,0.0,0.0
1666091102936144616,0.0,0.0,0.0,0.0,0.0,0.0
1666091102936170135,0.0,0.0,0.0,0.0,0.0,0.0
1666091102980097700,0.0,0.0,0.0,0.0,0.0,0.0
1666091102980113156,0.0,0.0,0.0,0.0,0.0,0.0
1666091102990743775,0.0,0.0,0.0,0.0,0.0,0.0
1666091103010644549,0.0,0.0,0.0,0.0,0.0,0.0
1666091103052052449,0.0,0.0,0.0,0.0,0.0,0.0
1666091103052063083,0.0,0.0,0.0,0.0,0.0,0.0
1666091103096654221,0.0,0.0,0.0,0.0,0.0,0.0
1666091103096668463,0.0,0.0,0.0,0.0,0.0,0.0
1666091103140088863,0.0,0.0,0.0,0.0,0.0,0.0
1666091103140108565,0.0,0.0,0.0,0.0,0.0,0.0
1666091103188068271,0.0,0.0,0.0,0.0,0.0,0.0
1666091103188084956,0.0,0.0,0.0,0.0,0.0,0.0
1666091103232649982,0.0,0.0,0.0,0.0,0.0,0.0
1666091103232666106,0.0,0.0,0.0,0.0,0.0,0.0
1666091103232673035,0.0,0.0,0.0,0.0,0.0,0.0
1666091103280125466,0.0,0.0,0.0,0.0,0.0,0.0
1666091103280148627,0.0,0.0,0.0,0.0,0.0,0.0
1666091103290008790,0.0,0.0,0.0,0.0,0.0,0.0
1666091103310867812,0.0,0.0,0.0,0.0,0.0,0.0
1666091103352311459,0.0,0.0,0.0,0.0,0.0,0.0
1666091103352353065,0.0,0.0,0.0,0.0,0.0,0.0
1666091103396155273,0.0,0.0,0.0,0.0,0.0,0.0
1666091103396186950,0.0,0.0,0.0,0.0,0.0,0.0
1666091103440086945,0.0,0.0,0.0,0.0,0.0,0.0
1666091103440104457,0.0,0.0,0.0,0.0,0.0,0.0
1666091103488056698,0.0,0.0,0.0,0.0,0.0,0.0
1666091103488067482,0.0,0.0,0.0,0.0,0.0,0.0
1666091103532153391,0.0,0.0,0.0,0.0,0.0,0.0
1666091103532179843,0.0,0.0,0.0,0.0,0.0,0.0
1666091103532192028,0.0,0.0,0.0,0.0,0.0,0.0
1666091103580054109,0.0,0.0,0.0,0.0,0.0,0.0
1666091103580065171,0.0,0.0,0.0,0.0,0.0,0.0
1666091103589615144,0.0,0.0,0.0,0.0,0.0,0.0
1666091103611167492,0.0,0.0,0.0,0.0,0.0,0.0
1666091103652088154,0.0,0.0,0.0,0.0,0.0,0.0
1666091103652102706,0.0,0.0,0.0,0.0,0.0,0.0
1666091103696246138,0.0,0.0,0.0,0.0,0.0,0.0
1666091103696272563,0.0,0.0,0.0,0.0,0.0,0.0
1666091103740177387,0.0,0.0,0.0,0.0,0.0,0.0
1666091103740208202,0.0,0.0,0.0,0.0,0.0,0.0
1666091103784082082,0.0,0.0,0.0,0.0,0.0,0.0
1666091103784096413,0.0,0.0,0.0,0.0,0.0,0.0
1666091103828113397,0.0,0.0,0.0,0.0,0.0,0.0
1666091103828126958,0.0,0.0,0.0,0.0,0.0,0.0
1666091103872153265,0.0,0.0,0.0,0.0,0.0,0.0
1666091103872176572,0.0,0.0,0.0,0.0,0.0,0.0
1666091103872184807,0.0,0.0,0.0,0.0,0.0,0.0
1666091103916043809,0.0,0.0,0.0,0.0,0.0,0.0
1666091103916055184,0.0,0.0,0.0,0.0,0.0,0.0
1666091103930869226,0.0,0.0,0.0,0.0,0.0,0.0
1666091103950525009,0.0,0.0,0.0,0.0,0.0,0.0
1666091103992075652,0.0,0.0,0.0,0.0,0.0,0.0
1666091103992093474,0.0,0.0,0.0,0.0,0.0,0.0
1666091104036055600,0.0,0.0,0.0,0.0,0.0,0.0
1666091104036067356,0.0,0.0,0.0,0.0,0.0,0.0
1666091104080424701,0.0,0.0,0.0,0.0,0.0,0.0
1666091104080444788,0.0,0.0,0.0,0.0,0.0,0.0
1666091104128207992,0.0,0.0,0.0,0.0,0.0,0.0
1666091104128232267,0.0,0.0,0.0,0.0,0.0,0.0
1666091104176147238,0.0,0.0,0.0,0.0,0.0,0.0
1666091104176171774,0.0,0.0,0.0,0.0,0.0,0.0
1666091104176186352,0.0,0.0,0.0,0.0,0.0,0.0
1666091104224047819,0.0,0.0,0.0,0.0,0.0,0.0
1666091104224061020,0.0,0.0,0.0,0.0,0.0,0.0
1666091104231567038,0.0,0.0,0.0,0.0,0.0,0.0
1666091104250834937,0.0,0.0,0.0,0.0,0.0,0.0
1666091104292055875,0.0,0.0,0.0,0.0,0.0,0.0
1666091104292068047,0.0,0.0,0.0,0.0,0.0,0.0
1666091104336101424,0.0,0.0,0.0,0.0,0.0,0.0
1666091104336116700,0.0,0.0,0.0,0.0,0.0,0.0
1666091104380099216,0.0,0.0,0.0,0.0,0.0,0.0
1666091104380125065,0.0,0.0,0.0,0.0,0.0,0.0
1666091104424680018,0.0,0.0,0.0,0.0,0.0,0.0
1666091104424717169,0.0,0.0,0.0,0.0,0.0,0.0
1666091104468094369,0.0,0.0,0.0,0.0,0.0,0.0
1666091104468115244,0.0,0.0,0.0,0.0,0.0,0.0
1666091104512192780,0.0,0.0,0.0,0.0,0.0,0.0
1666091104512227418,0.0,0.0,0.0,0.0,0.0,0.0
1666091104512241647,0.0,0.0,0.0,0.0,0.0,0.0
1666091104556157972,0.0,0.0,0.0,0.0,0.0,0.0
1666091104556182586,0.0,0.0,0.0,0.0,0.0,0.0
1666091104571120184,0.0,0.0,0.0,0.0,0.0,0.0
1666091104591397901,0.0,0.0,0.0,0.0,0.0,0.0
1666091104632174445,0.0,0.0,0.0,0.0,0.0,0.0
1666091104632191895,0.0,0.0,0.0,0.0,0.0,0.0
1666091104676186757,0.0,0.0,0.0,0.0,0.0,0.0
1666091104676217889,0.0,0.0,0.0,0.0,0.0,0.0
1666091104724089580,0.0,0.0,0.0,0.0,0.0,0.0
1666091104724104720,0.0,0.0,0.0,0.0,0.0,0.0
1666091104768126987,0.0,0.0,0.0,0.0,0.0,0.0
1666091104768151681,0.0,0.0,0.0,0.0,0.0,0.0
1666091104812170191,0.0,0.0,0.0,0.0,0.0,0.0
1666091104812200726,0.0,0.0,0.0,0.0,0.0,0.0
1666091104812215413,0.0,0.0,0.0,0.0,0.0,0.0
1666091104856106144,0.0,0.0,0.0,0.0,0.0,0.0
1666091104856122589,0.0,0.0,0.0,0.0,0.0,0.0
1666091104872561698,0.0,0.0,0.0,0.0,0.0,0.0
1666091104891169519,0.0,0.0,0.0,0.0,0.0,0.0
1666091104936127750,0.0,0.0,0.0,0.0,0.0,0.0
1666091104936151075,0.0,0.0,0.0,0.0,0.0,0.0
1666091104980062462,0.0,0.0,0.0,0.0,0.0,0.0
1666091104980079512,0.0,0.0,0.0,0.0,0.0,0.0
1666091105024098186,0.0,0.0,0.0,0.0,0.0,0.0
1666091105024119421,0.0,0.0,0.0,0.0,0.0,0.0
1666091105068179946,0.0,0.0,0.0,0.0,0.0,0.0
1666091105068209530,0.0,0.0,0.0,0.0,0.0,0.0
1666091105112303904,0.0,0.0,0.0,0.0,0.0,0.0
1666091105112345162,0.0,0.0,0.0,0.0,0.0,0.0
1666091105156352134,0.0,0.0,0.0,0.0,0.0,0.0
1666091105156420824,0.0,0.0,0.0,0.0,0.0,0.0
1666091105156436913,0.0,0.0,0.0,0.0,0.0,0.0
1666091105200246182,0.0,0.0,0.0,0.0,0.0,0.0
1666091105200287617,0.0,0.0,0.0,0.0,0.0,0.0
1666091105211292278,0.0,0.0,0.0,0.0,0.0,0.0
1666091105231836963,0.0,0.0,0.0,0.0,0.0,0.0
1666091105272094720,0.0,0.0,0.0,0.0,0.0,0.0
1666091105272110590,0.0,0.0,0.0,0.0,0.0,0.0
1666091105320187491,0.0,0.0,0.0,0.0,0.0,0.0
1666091105320207110,0.0,0.0,0.0,0.0,0.0,0.0
1666091105364165104,0.0,0.0,0.0,0.0,0.0,0.0
1666091105364221328,0.0,0.0,0.0,0.0,0.0,0.0
1666091105412047923,0.0,0.0,0.0,0.0,0.0,0.0
1666091105412062648,0.0,0.0,0.0,0.0,0.0,0.0
1666091105412066626,0.0,0.0,0.0,0.0,0.0,0.0
1666091105456125565,0.0,0.0,0.0,0.0,0.0,0.0
1666091105456142808,0.0,0.0,0.0,0.0,0.0,0.0
1666091105471022344,0.0,0.0,0.0,0.0,0.0,0.0
1666091105491140783,0.0,0.0,0.0,0.0,0.0,0.0
1666091105536153656,0.0,0.0,0.0,0.0,0.0,0.0
1666091105536181257,0.0,0.0,0.0,0.0,0.0,0.0
1666091105584114224,0.0,0.0,0.0,0.0,0.0,0.0
1666091105584134688,0.0,0.0,0.0,0.0,0.0,0.0
1666091105628177624,0.0,0.0,0.0,0.0,0.0,0.0
1666091105628205534,0.0,0.0,0.0,0.0,0.0,0.0
1666091105676230763,0.0,0.0,0.0,0.0,0.0,0.0
1666091105676262410,0.0,0.0,0.0,0.0,0.0,0.0
1666091105676272913,0.0,0.0,0.0,0.0,0.0,0.0
1666091105724162065,0.0,0.0,0.0,0.0,0.0,0.0
1666091105724182007,0.0,0.0,0.0,0.0,0.0,0.0
1666091105732117777,0.0,0.0,0.0,0.0,0.0,0.0
1666091105751793397,0.0,0.0,0.0,0.0,0.0,0.0
1666091105796478606,0.0,0.0,0.0,0.0,0.0,0.0
1666091105796546668,0.0,0.0,0.0,0.0,0.0,0.0
1666091105844108115,0.0,0.0,0.0,0.0,0.0,0.0
1666091105844120503,0.0,0.0,0.0,0.0,0.0,0.0
1666091105892181156,0.0,0.0,0.0,0.0,0.0,0.0
1666091105892208841,0.0,0.0,0.0,0.0,0.0,0.0
1666091105892273200,0.0,0.0,0.0,0.0,0.0,0.0
1666091105936158621,0.0,0.0,0.0,0.0,0.0,0.0
1666091105936189733,0.0,0.0,0.0,0.0,0.0,0.0
1666091105951932084,0.0,0.0,0.0,0.0,0.0,0.0
1666091105971767905,0.0,0.0,0.0,0.0,0.0,0.0
1666091106012100171,0.0,0.0,0.0,0.0,0.0,0.0
1666091106012131102,0.0,0.0,0.0,0.0,0.0,0.0
1666091106056084405,0.0,0.0,0.0,0.0,0.0,0.0
1666091106056102626,0.0,0.0,0.0,0.0,0.0,0.0
1666091106100167609,0.0,0.0,0.0,0.0,0.0,0.0
1666091106100192288,0.0,0.0,0.0,0.0,0.0,0.0
1666091106144120004,0.0,0.0,0.0,0.0,0.0,0.0
1666091106144145290,0.0,0.0,0.0,0.0,0.0,0.0
1666091106188052377,0.0,0.0,0.0,0.0,0.0,0.0
1666091106188065184,0.0,0.0,0.0,0.0,0.0,0.0
1666091106232292958,0.0,0.0,0.0,0.0,0.0,0.0
1666091106232333296,0.0,0.0,0.0,0.0,0.0,0.0
1666091106276132505,0.0,0.0,0.0,0.0,0.0,0.0
1666091106276152686,0.0,0.0,0.0,0.0,0.0,0.0
1666091106276166310,0.0,0.0,0.0,0.0,0.0,0.0
1666091106320058023,0.0,0.0,0.0,0.0,0.0,0.0
1666091106320069889,0.0,0.0,0.0,0.0,0.0,0.0
1666091106332594282,0.0,0.0,0.0,0.0,0.0,0.0
1666091106351430723,0.0,0.0,0.0,0.0,0.0,0.0
1666091106392061436,0.0,0.0,0.0,0.0,0.0,0.0
1666091106392074710,0.0,0.0,0.0,0.0,0.0,0.0
1666091106436064499,0.0,0.0,0.0,0.0,0.0,0.0
1666091106436079952,0.0,0.0,0.0,0.0,0.0,0.0
1666091106480094032,0.0,0.0,0.0,0.0,0.0,0.0
1666091106480110777,0.0,0.0,0.0,0.0,0.0,0.0
1666091106524085340,0.0,0.0,0.0,0.0,0.0,0.0
1666091106524096066,0.0,0.0,0.0,0.0,0.0,0.0
1666091106568125163,0.0,0.0,0.0,0.0,0.0,0.0
1666091106568139421,0.0,0.0,0.0,0.0,0.0,0.0
1666091106612298636,0.0,0.0,0.0,0.0,0.0,0.0
1666091106612313897,0.0,0.0,0.0,0.0,0.0,0.0
1666091106612318669,0.0,0.0,0.0,0.0,0.0,0.0
1666091106656171003,0.0,0.0,0.0,0.0,0.0,0.0
1666091106656201871,0.0,0.0,0.0,0.0,0.0,0.0
1666091106672662564,0.0,0.0,0.0,0.0,0.0,0.0
1666091106696233765,0.0,0.0,0.0,0.0,0.0,0.0
1666091106744056954,0.0,0.0,0.0,0.0,0.0,0.0
1666091106744068008,0.0,0.0,0.0,0.0,0.0,0.0
1666091106788060400,0.0,0.0,0.0,0.0,0.0,0.0
1666091106788073192,0.0,0.0,0.0,0.0,0.0,0.0
1666091106832271225,0.0,0.0,0.0,0.0,0.0,0.0
1666091106832296078,0.0,0.0,0.0,0.0,0.0,0.0
1666091106876260603,0.0,0.0,0.0,0.0,0.0,0.0
1666091106876305491,0.0,0.0,0.0,0.0,0.0,0.0
1666091106876315902,0.0,0.0,0.0,0.0,0.0,0.0
1666091106920059247,0.0,0.0,0.0,0.0,0.0,0.0
1666091106920071173,0.0,0.0,0.0,0.0,0.0,0.0
1666091106931899622,0.0,0.0,0.0,0.0,0.0,0.0
1666091106951493495,0.0,0.0,0.0,0.0,0.0,0.0
1666091106992087001,0.0,0.0,0.0,0.0,0.0,0.0
1666091107036175166,0.0,0.0,0.0,0.0,0.0,0.0
1666091107036199640,0.0,0.0,0.0,0.0,0.0,0.0
1666091107036206543,0.0,0.0,0.0,0.0,0.0,0.0
1666091107080088215,0.0,0.0,0.0,0.0,0.0,0.0
1666091107080102809,0.0,0.0,0.0,0.0,0.0,0.0
1666091107091596225,0.0,0.0,0.0,0.0,0.0,0.0
1666091107111159568,0.0,0.0,0.0,0.0,0.0,0.0
1666091107152198112,0.0,0.0,0.0,0.0,0.0,0.0
1666091107196123647,0.0,0.0,0.0,0.0,0.0,0.0
1666091107196146305,0.0,0.0,0.0,0.0,0.0,0.0
1666091107196180086,0.0,0.0,0.0,0.0,0.0,0.0
1666091107244119215,0.0,0.0,0.0,0.0,0.0,0.0
1666091107244144298,0.0,0.0,0.0,0.0,0.0,0.0
1666091107252224926,0.0,0.0,0.0,0.0,0.0,0.0
1666091107272997371,0.0,0.0,0.0,0.0,0.0,0.0
1666091107316185672,0.0,0.0,0.0,0.0,0.0,0.0
1666091107316201410,0.0,0.0,0.0,0.0,0.0,0.0
1666091107360113122,0.0,0.0,0.0,0.0,0.0,0.0
1666091107360132739,0.0,0.0,0.0,0.0,0.0,0.0
1666091107404069924,0.0,0.0,0.0,0.0,0.0,0.0
1666091107404083075,0.0,0.0,0.0,0.0,0.0,0.0
1666091107448108853,0.0,0.0,0.0,0.0,0.0,0.0
1666091107448147939,0.0,0.0,0.0,0.0,0.0,0.0
1666091107492205428,0.0,0.0,0.0,0.0,0.0,0.0
1666091107492235482,0.0,0.0,0.0,0.0,0.0,0.0
1666091107536330263,0.0,0.0,0.0,0.0,0.0,0.0
1666091107536363147,0.0,0.0,0.0,0.0,0.0,0.0
1666091107536369870,0.0,0.0,0.0,0.0,0.0,0.0
1666091107580088211,0.0,0.0,0.0,0.0,0.0,0.0
1666091107580103952,0.0,0.0,0.0,0.0,0.0,0.0
1666091107593032165,0.0,0.0,0.0,0.0,0.0,0.0
1666091107612433527,0.0,0.0,0.0,0.0,0.0,0.0
1666091107656053546,0.0,0.0,0.0,0.0,0.0,0.0
1666091107656060199,0.0,0.0,0.0,0.0,0.0,0.0
1666091107700459161,0.0,0.0,0.0,0.0,0.0,0.0
1666091107700506765,0.0,0.0,0.0,0.0,0.0,0.0
1666091107744131897,0.0,0.0,0.0,0.0,0.0,0.0
1666091107744162282,0.0,0.0,0.0,0.0,0.0,0.0
1666091107788118906,0.0,0.0,0.0,0.0,0.0,0.0
1666091107788141494,0.0,0.0,0.0,0.0,0.0,0.0
1666091107832242776,0.0,0.0,0.0,0.0,0.0,0.0
1666091107832265594,0.0,0.0,0.0,0.0,0.0,0.0
1666091107832301290,0.0,0.0,0.0,0.0,0.0,0.0
1666091107876123895,0.0,0.0,0.0,0.0,0.0,0.0
1666091107876159456,0.0,0.0,0.0,0.0,0.0,0.0
1666091107893180206,0.0,0.0,0.0,0.0,0.0,0.0
1666091107912128281,0.0,0.0,0.0,0.0,0.0,-0.00034906585039886593
1666091107952225614,0.0,0.0,0.0,0.0,0.0,0.0006981317007977319
1666091107996177955,0.0,0.0,0.0,0.0,0.0,0.00017453292519943296
1666091107996201210,0.0,0.0,0.0,0.0,0.0,0.00034906585039886593
1666091107996209431,0.0,0.0,0.0,0.0,0.0,-0.00034906585039886593
1666091108040769433,0.0,0.0,0.0,0.0,0.0,0.0
1666091108040797250,0.025587626500055197,0.0,0.0,0.0,0.0,0.0010471975511965976
1666091108054036116,0.012793813250027599,0.0,0.0,0.0,0.0,0.004537856055185257
1666091108072827524,0.014926115458365532,0.0,0.0,0.0,0.0,0.00017453292519943296
1666091108116352457,0.02345532429171726,0.0,0.0,0.0,0.0,-0.0041887902047863905
1666091108116391052,0.02345532429171726,0.0,0.0,0.0,0.0,-0.003316125578789226
1666091108164043975,0.03838143975008279,0.0,0.0,0.0,0.0,-0.0015707963267948967
1666091108164055565,0.025587626500055197,0.0,0.0,0.0,0.0,-0.005585053606381855
1666091108208146918,0.044778346375096596,0.0,0.0,0.0,0.0,-0.00890117918517108
1666091108208168680,0.04691064858343452,0.0,0.0,0.0,0.0,-0.008203047484373348
1666091108256475154,0.04691064858343452,0.0,0.0,0.0,0.0,-0.0017453292519943296
1666091108256604518,0.05543985741678625,0.0,0.0,0.0,0.0,-0.010122909661567111
1666091108256709454,0.06396906625013798,0.0,0.0,0.0,0.0,-0.01361356816555577
1666091108304081498,0.07463057729182765,0.0,0.0,0.0,0.0,-0.01117010721276371
1666091108304101146,0.08315978612517938,0.0,0.0,0.0,0.0,-0.00645771823237902
1666091108313304310,0.08742439054185526,0.0,0.0,0.0,0.0,-0.01658062789394613
1666091108332038025,0.08955669275019319,0.0,0.0,0.0,0.0,-0.03490658503988659
1666091108376269763,0.08529208833351731,0.0,0.0,0.0,0.0,-0.035255650890285456
1666091108376296541,0.10661511041689664,0.0,0.0,0.0,0.0,-0.04223696789826277
1666091108420385399,0.11940892366692425,0.0,0.0,0.0,0.0,-0.07068583470577033
1666091108420429768,0.12154122587526218,0.0,0.0,0.0,0.0,-0.09477137838329208
1666091108468213664,0.11514431925024839,0.0,0.0,0.0,0.0,-0.08691739674931762
1666091108468241545,0.12154122587526218,0.0,0.0,0.0,0.0,-0.0973893722612836
1666091108512051435,0.1364673413336277,0.0,0.0,0.0,0.0,-0.11955505376161156
1666091108512060325,0.13859964354196566,0.0,0.0,0.0,0.0,-0.11362093430483085
1666091108556406519,0.15139345679199323,0.0,0.0,0.0,0.0,-0.12566370614359174
1666091108556470662,0.1407319457503036,0.0,0.0,0.0,0.0,-0.1583013631558857
1666091108556508048,0.1407319457503036,0.0,0.0,0.0,0.0,-0.15969762655748115
1666091108600137449,0.16631957225035876,0.0,0.0,0.0,0.0,-0.16388641676226756
1666091108600160969,0.15779036341700706,0.0,0.0,0.0,0.0,-0.1795943800302165
1666091108612556272,0.16205496783368292,0.0,0.0,0.0,0.0,-0.20071286397934787
1666091108632889273,0.16631957225035876,0.0,0.0,0.0,0.0,-0.23439771854283847
1666091108676249159,0.17698108329204845,0.0,0.0,0.0,0.0,-0.2197369528260861
1666091108676330096,0.1876425943337381,0.0,0.0,0.0,0.0,-0.2150245638457014
1666091108720368473,0.18337798991706222,0.0,0.0,0.0,0.0,-0.2565634000431664
1666091108720406054,0.19190719875041395,0.0,0.0,0.0,0.0,-0.2644173816771409
1666091108764046148,0.19617180316708985,0.0,0.0,0.0,0.0,-0.2792526803190927
1666091108764059143,0.19403950095875191,0.0,0.0,0.0,0.0,-0.28309240467348024
1666091108808180801,0.20683331420877948,0.0,0.0,0.0,0.0,-0.31625366046137254
1666091108808213985,0.20256870979210362,0.0,0.0,0.0,0.0,-0.3363249468593073
1666091108856114653,0.22389173187548297,0.0,0.0,0.0,0.0,-0.3326597554301192
1666091108856138886,0.2196271274588071,0.0,0.0,0.0,0.0,-0.36267941856442165
1666091108856147586,0.2196271274588071,0.0,0.0,0.0,0.0,-0.37716565135597463
1666091108900223055,0.23028863850049677,0.0,0.0,0.0,0.0,-0.39025562074593206
1666091108900250156,0.23242094070883468,0.0,0.0,0.0,0.0,-0.42027528388023455
1666091108913934170,0.1364673413336277,0.0,0.0,0.0,0.0,-0.42830379843940847
1666091108932568283,0.06183676404180006,0.0,0.0,0.0,0.0,-0.4403465702781693
1666091108980186912,0.13859964354196566,0.0,0.0,0.0,0.0,-0.47123889803846897
1666091108980210334,0.20470101200044158,0.0,0.0,0.0,0.0,-0.43737951054977897
1666091109024150208,0.17698108329204845,0.0,0.0,0.0,0.0,-0.37908551353316833
1666091109024166493,0.11727662145858632,0.0,0.0,0.0,0.0,-0.32079151651655774
1666091109068306503,0.12367352808360012,0.0,0.0,0.0,0.0,-0.31223940318178556
1666091109068340759,0.15352575900033116,0.0,0.0,0.0,0.0,-0.29496064358704166
1666091109112117848,0.18337798991706222,0.0,0.0,0.0,0.0,-0.2556907354171693
1666091109112136170,0.15139345679199323,0.0,0.0,0.0,0.0,-0.20036379812894903
1666091109156161637,0.14499655016697943,0.0,0.0,0.0,0.0,-0.1647590813882647
1666091109156189434,0.15139345679199323,0.0,0.0,0.0,0.0,-0.2488839513343914
1666091109156202484,0.16418727004202083,0.0,0.0,0.0,0.0,-0.251152879361984
1666091109200378195,0.16205496783368292,0.0,0.0,0.0,0.0,-0.24626595745639987
1666091109200434555,0.17271647887537256,0.0,0.0,0.0,0.0,-0.2579596634447619
1666091109212771510,0.1556580612086691,0.0,0.0,0.0,0.0,-0.29216811678385074
1666091109232704552,0.16205496783368292,0.0,0.0,0.0,0.0,-0.31485739705977706
1666091109276251935,0.16631957225035876,0.0,0.0,0.0,0.0,-0.3118903373313867
1666091109276277608,0.19190719875041395,0.0,0.0,0.0,0.0,-0.3551745027808461
1666091109320233589,0.19403950095875191,0.0,0.0,0.0,0.0,-0.3794345793835672
1666091109320266002,0.2004364075837657,0.0,0.0,0.0,0.0,-0.4078834461910748
1666091109364198169,0.1876425943337381,0.0,0.0,0.0,0.0,-0.4382521751757761
1666091109364219530,0.19617180316708985,0.0,0.0,0.0,0.0,-0.48589966375522137
1666091109408284794,0.2004364075837657,0.0,0.0,0.0,0.0,-0.505098285527159
1666091109408352757,0.19830410537542775,0.0,0.0,0.0,0.0,-0.518013721991917
1666091109452129013,0.20470101200044158,0.0,0.0,0.0,0.0,-0.5457644570986269
1666091109452153167,0.2004364075837657,0.0,0.0,0.0,0.0,-0.59096848472528
1666091109500176461,0.20683331420877948,0.0,0.0,0.0,0.0,-0.6110397711232147
1666091109500199487,0.2196271274588071,0.0,0.0,0.0,0.0,-0.6129596333004085
1666091109500208852,0.21323022083379328,0.0,0.0,0.0,0.0,-0.6438519610607082
1666091109548202773,0.21749482525046915,0.0,0.0,0.0,0.0,-0.6843435997069766
1666091109548233009,0.21749482525046915,0.0,0.0,0.0,0.0,-0.7010987605261222
1666091109553261120,0.21536252304213124,0.0,0.0,0.0,0.0,-0.7024950239277176
1666091109573452424,0.11940892366692425,0.0,0.0,0.0,0.0,-0.692197581340951
1666091109620073868,0.0703659728751518,0.0,0.0,0.0,0.0,-0.7129669994396837
1666091109620091562,0.025587626500055197,0.0,0.0,0.0,0.0,-0.7087782092348972
1666091109664143481,0.05757215962512419,0.0,0.0,0.0,0.0,-0.7047639519553103
1666091109664170294,0.059704461833462126,0.0,0.0,0.0,0.0,-0.7204719152232593
1666091109712696215,0.042646044166758657,0.0,0.0,0.0,0.0,-0.6688101693642271
1666091109712812893,0.03198453312506899,0.0,0.0,0.0,0.0,-0.5855579640440975
1666091109756097607,0.03838143975008279,0.0,0.0,0.0,0.0,-0.5672320068981571
1666091109756124707,0.03624913754174486,0.0,0.0,0.0,0.0,-0.5159193268895238
1666091109756144092,0.03838143975008279,0.0,0.0,0.0,0.0,-0.4476769531365455
1666091109800218907,0.04051374195842073,0.0,0.0,0.0,0.0,-0.3679154063204046
1666091109800242781,0.03198453312506899,0.0,0.0,0.0,0.0,-0.32585297134734137
1666091109816265788,0.004264604416675866,0.0,0.0,0.0,0.0,-0.34732052114687156
1666091109833677392,-0.014926115458365532,0.0,0.0,0.0,0.0,-0.3460987906704755
1666091109876561521,-0.006396906625013799,0.0,0.0,0.0,0.0,-0.29530970943744056
1666091109876654654,0.002132302208337933,0.0,0.0,0.0,0.0,-0.27803094984269666
1666091109924101185,-0.012793813250027599,0.0,0.0,0.0,0.0,-0.28361600344907856
1666091109924118987,-0.027719928708393127,0.0,0.0,0.0,0.0,-0.28291787174828087
1666091109968095331,-0.025587626500055197,0.0,0.0,0.0,0.0,-0.24644049038159932
1666091109968113019,-0.014926115458365532,0.0,0.0,0.0,0.0,-0.2059488517353309
1666091110016065821,-0.004264604416675866,0.0,0.0,0.0,0.0,-0.1970476725501598
1666091110016079720,-0.002132302208337933,0.0,0.0,0.0,0.0,-0.2059488517353309
1666091110016084891,0.0,0.0,0.0,0.0,0.0,-0.2071705822117269
1666091110060096715,0.006396906625013799,0.0,0.0,0.0,0.0,-0.19809487010135637
1666091110060114450,0.014926115458365532,0.0,0.0,0.0,0.0,-0.21415189921970423
1666091110073285056,0.021323022083379328,0.0,0.0,0.0,0.0,-0.22759093446006054
1666091110094887723,0.017058417666703463,0.0,0.0,0.0,0.0,-0.23212879051524585
1666091110136476985,0.014926115458365532,0.0,0.0,0.0,0.0,-0.22287854547967584
1666091110136510257,0.019190719875041395,0.0,0.0,0.0,0.0,-0.19617500792416262
1666091110180468755,0.017058417666703463,0.0,0.0,0.0,0.0,-0.1726130630222392
1666091110180499070,0.012793813250027599,0.0,0.0,0.0,0.0,-0.16615534478986016
1666091110224068190,0.010661511041689664,0.0,0.0,0.0,0.0,-0.170518667919846
1666091110224086008,0.004264604416675866,0.0,0.0,0.0,0.0,-0.15463617172669758
1666091110272295545,-0.004264604416675866,0.0,0.0,0.0,0.0,-0.1335176877775662
1666091110272317226,-0.004264604416675866,0.0,0.0,0.0,0.0,-0.12130038301360589
1666091110316138706,0.002132302208337933,0.0,0.0,0.0,0.0,-0.11728612573401893
1666091110316163457,-0.002132302208337933,0.0,0.0,0.0,0.0,-0.11711159280881951
1666091110316185726,-0.002132302208337933,0.0,0.0,0.0,0.0,-0.1096066770252439
1666091110360078077,-0.006396906625013799,0.0,0.0,0.0,0.0,-0.10279989294246601
1666091110360096199,0.008529208833351731,0.0,0.0,0.0,0.0,-0.09023352232810683
1666091110373384875,0.004264604416675866,0.0,0.0,0.0,0.0,-0.09389871375729493
1666091110394255461,0.004264604416675866,0.0,0.0,0.0,0.0,-0.08831366015091306
1666091110436355778,0.0,0.0,0.0,0.0,0.0,-0.07452555906015787
1666091110436386410,0.004264604416675866,0.0,0.0,0.0,0.0,-0.04747295565424577
1666091110480166364,0.006396906625013799,0.0,0.0,0.0,0.0,-0.02809980095710871
1666091110480189155,0.002132302208337933,0.0,0.0,0.0,0.0,-0.01815142422074103
1666091110524055950,0.0,0.0,0.0,0.0,0.0,-0.01780235837034216
1666091110524070200,0.002132302208337933,0.0,0.0,0.0,0.0,-0.01815142422074103
1666091110568074514,0.0,0.0,0.0,0.0,0.0,-0.011868238913561443
1666091110568088464,0.0,0.0,0.0,0.0,0.0,-0.009599310885968814
1666091110612164791,0.0,0.0,0.0,0.0,0.0,-0.016406094968746697
1666091110612192591,0.0,0.0,0.0,0.0,0.0,-0.013788101090755204
1666091110656133191,0.0,0.0,0.0,0.0,0.0,-0.002967059728390361
1666091110656161443,0.0,0.0,0.0,0.0,0.0,-0.0024434609527920616
1666091110700055486,0.0,0.0,0.0,0.0,0.0,-0.010122909661567111
1666091110700067756,0.002132302208337933,0.0,0.0,0.0,0.0,-0.01117010721276371
1666091110700075410,0.0,0.0,0.0,0.0,0.0,-0.015358897417550098
1666091110744482548,-0.002132302208337933,0.0,0.0,0.0,0.0,-0.015009831567151233
1666091110744519158,0.0,0.0,0.0,0.0,0.0,-0.0143116998663535
1666091110754330731,0.0,0.0,0.0,0.0,0.0,-0.013264502315156903
1666091110775648799,0.0,0.0,0.0,0.0,0.0,0.0
1666091110820519833,0.0,0.0,0.0,0.0,0.0,0.0
1666091110820550863,0.0,0.0,0.0,0.0,0.0,0.0
1666091110868040090,0.0,0.0,0.0,0.0,0.0,0.0
1666091110868052280,0.0,0.0,0.0,0.0,0.0,0.0
1666091110912198611,0.0,0.0,0.0,0.0,0.0,0.0
1666091110912235736,0.0,0.0,0.0,0.0,0.0,0.0
1666091110956125383,0.0,0.0,0.0,0.0,0.0,0.0
1666091110956147247,0.0,0.0,0.0,0.0,0.0,0.0
1666091110956167176,0.0,0.0,0.0,0.0,0.0,0.0017453292519943296
1666091111000643288,0.002132302208337933,0.0,0.0,0.0,0.0,-0.003316125578789226
1666091111000705256,0.0,0.0,0.0,0.0,0.0,0.0
1666091111014327309,0.008529208833351731,0.0,0.0,0.0,0.0,0.002617993877991494
1666091111035003472,0.008529208833351731,0.0,0.0,0.0,0.0,-0.0013962634015954637
1666091111080135565,0.010661511041689664,0.0,0.0,0.0,0.0,0.0005235987755982988
1666091111080162252,0.012793813250027599,0.0,0.0,0.0,0.0,0.0024434609527920616
1666091111128343961,0.014926115458365532,0.0,0.0,0.0,0.0,-0.0013962634015954637
1666091111128375293,0.03198453312506899,0.0,0.0,0.0,0.0,-0.0008726646259971648
1666091111176065070,0.021323022083379328,0.0,0.0,0.0,0.0,0.0012217304763960308
1666091111176080858,0.02345532429171726,0.0,0.0,0.0,0.0,-0.0017453292519943296
1666091111176091558,0.03838143975008279,0.0,0.0,0.0,0.0,-0.0031415926535897933
1666091111224281146,0.03838143975008279,0.0,0.0,0.0,0.0,0.002967059728390361
1666091111224314285,0.04691064858343452,0.0,0.0,0.0,0.0,0.0010471975511965976
1666091111233509682,0.042646044166758657,0.0,0.0,0.0,0.0,-0.0012217304763960308
1666091111254103693,0.04691064858343452,0.0,0.0,0.0,0.0,0.00017453292519943296
1666091111300483520,0.06396906625013798,0.0,0.0,0.0,0.0,-0.0024434609527920616
1666091111300534156,0.05757215962512419,0.0,0.0,0.0,0.0,-0.0005235987755982988
1666091111348074020,0.07249827508348972,0.0,0.0,0.0,0.0,-0.00034906585039886593
1666091111348091155,0.07463057729182765,0.0,0.0,0.0,0.0,-0.0006981317007977319
1666091111396111681,0.07889518170850353,0.0,0.0,0.0,0.0,0.0
1666091111396129269,0.09382129716686904,0.0,0.0,0.0,0.0,-0.0008726646259971648
1666091111396142969,0.09382129716686904,0.0,0.0,0.0,0.0,0.0006981317007977319
1666091111444089125,0.10661511041689664,0.0,0.0,0.0,0.0,-0.0019198621771937623
1666091111444106625,0.09808590158354492,0.0,0.0,0.0,0.0,0.00034906585039886593
1666091111453617286,0.10235050600022079,0.0,0.0,0.0,0.0,0.00645771823237902
1666091111474233406,0.11940892366692425,0.0,0.0,0.0,0.0,0.005934119456780722
1666091111520232683,0.12154122587526218,0.0,0.0,0.0,0.0,0.0013962634015954637
1666091111520271358,0.11514431925024839,0.0,0.0,0.0,0.0,-0.0027925268031909274
1666091111564091074,0.1300704347086139,0.0,0.0,0.0,0.0,0.0020943951023931952
1666091111564106261,0.1300704347086139,0.0,0.0,0.0,0.0,0.0036651914291880917
1666091111612587462,0.1492611545836553,0.0,0.0,0.0,0.0,-0.0017453292519943296
1666091111612769816,0.1407319457503036,0.0,0.0,0.0,0.0,-0.0010471975511965976
1666091111660176320,0.1556580612086691,0.0,0.0,0.0,0.0,0.004363323129985824
1666091111660198954,0.1556580612086691,0.0,0.0,0.0,0.0,-0.0022689280275926286
1666091111660213633,0.15352575900033116,0.0,0.0,0.0,0.0,-0.00471238898038469
1666091111708451120,0.17058417666703463,0.0,0.0,0.0,0.0,0.0012217304763960308
1666091111708505837,0.16418727004202083,0.0,0.0,0.0,0.0,0.0012217304763960308
1666091111713772329,0.06823367066681385,0.0,0.0,0.0,0.0,0.0
1666091111735568069,0.044778346375096596,0.0,0.0,0.0,0.0,-0.00017453292519943296
1666091111776062350,0.11727662145858632,0.0,0.0,0.0,0.0,0.0024434609527920616
1666091111776076511,0.07249827508348972,0.0,0.0,0.0,0.0,-0.0036651914291880917
1666091111820043458,0.010661511041689664,0.0,0.0,0.0,0.0,-0.02076941809873252
1666091111820074305,0.004264604416675866,0.0,0.0,0.0,0.0,-0.022165681500327987
1666091111864112328,0.014926115458365532,0.0,0.0,0.0,0.0,-0.03159045946109736
1666091111864125314,0.012793813250027599,0.0,0.0,0.0,0.0,-0.06841690667817771
1666091111910130945,0.014926115458365532,0.0,0.0,0.0,0.0,-0.07696902001294993
1666091111910179388,0.008529208833351731,0.0,0.0,0.0,0.0,-0.05061454830783556
1666091111952309219,0.006396906625013799,0.0,0.0,0.0,0.0,-0.05253441048502932
1666091111952330338,0.006396906625013799,0.0,0.0,0.0,0.0,-0.07452555906015787
1666091111996122226,0.002132302208337933,0.0,0.0,0.0,0.0,-0.06824237375297829
1666091111996149529,-0.008529208833351731,0.0,0.0,0.0,0.0,-0.04031710572106901
1666091111996156875,-0.006396906625013799,0.0,0.0,0.0,0.0,-0.017627825445142728
1666091112040160406,-0.010661511041689664,0.0,0.0,0.0,0.0,-0.014137166941154071
1666091112040190628,-0.014926115458365532,0.0,0.0,0.0,0.0,-0.030543261909900768
1666091112054647491,-0.012793813250027599,0.0,0.0,0.0,0.0,-0.028274333882308142
1666091112074561175,-0.006396906625013799,0.0,0.0,0.0,0.0,-0.023387411976724018
1666091112120108562,-0.006396906625013799,0.0,0.0,0.0,0.0,-0.031241393610698498
1666091112120132706,-0.010661511041689664,0.0,0.0,0.0,0.0,-0.048520153205442354
1666091112169351868,-0.004264604416675866,0.0,0.0,0.0,0.0,-0.05358160803622591
1666091112169434499,0.0,0.0,0.0,0.0,0.0,-0.05567600313861911
1666091112216128546,0.008529208833351731,0.0,0.0,0.0,0.0,-0.06440264939859076
1666091112216160285,0.014926115458365532,0.0,0.0,0.0,0.0,-0.06021385919380437
1666091112216185998,0.006396906625013799,0.0,0.0,0.0,0.0,-0.03700098014227979
1666091112260218981,0.006396906625013799,0.0,0.0,0.0,0.0,-0.03089232776029963
1666091112260246222,0.008529208833351731,0.0,0.0,0.0,0.0,-0.05166174585903216
1666091112275541526,0.010661511041689664,0.0,0.0,0.0,0.0,-0.061435589670200394
1666091112295019286,0.002132302208337933,0.0,0.0,0.0,0.0,-0.06387905062299247
1666091112342580881,-0.002132302208337933,0.0,0.0,0.0,0.0,-0.06824237375297829
1666091112342606109,-0.004264604416675866,0.0,0.0,0.0,0.0,-0.08115781021773633
1666091112388290756,-0.002132302208337933,0.0,0.0,0.0,0.0,-0.07958701389094142
1666091112388332220,-0.002132302208337933,0.0,0.0,0.0,0.0,-0.07696902001294993
1666091112436093326,-0.010661511041689664,0.0,0.0,0.0,0.0,-0.08168140899333462
1666091112436110279,-0.012793813250027599,0.0,0.0,0.0,0.0,-0.07888888219014369
1666091112436124591,-0.010661511041689664,0.0,0.0,0.0,0.0,-0.08307767239493008
1666091112484300624,-0.004264604416675866,0.0,0.0,0.0,0.0,-0.10297442586766545
1666091112484327402,-0.002132302208337933,0.0,0.0,0.0,0.0,-0.12269664641520137
1666091112495337662,0.006396906625013799,0.0,0.0,0.0,0.0,-0.12199851471440365
1666091112514918083,0.017058417666703463,0.0,0.0,0.0,0.0,-0.12932889757277982
1666091112560299151,0.021323022083379328,0.0,0.0,0.0,0.0,-0.14852751934471745
1666091112560331487,0.012793813250027599,0.0,0.0,0.0,0.0,-0.14695672301792254
1666091112608113363,0.017058417666703463,0.0,0.0,0.0,0.0,-0.14049900478554353
1666091112608134864,0.02345532429171726,0.0,0.0,0.0,0.0,-0.1349139511791617
1666091112652579887,0.027719928708393127,0.0,0.0,0.0,0.0,-0.1408480706359424
1666091112652623668,0.02345532429171726,0.0,0.0,0.0,0.0,-0.1478293876439197
1666091112696187277,0.027719928708393127,0.0,0.0,0.0,0.0,-0.15655603390389136
1666091112696239051,0.04051374195842073,0.0,0.0,0.0,0.0,-0.1663298777150596
1666091112696246837,0.034116835333406925,0.0,0.0,0.0,0.0,-0.17819811662862106
1666091112744120049,0.044778346375096596,0.0,0.0,0.0,0.0,-0.18849555921538758
1666091112744145441,0.03838143975008279,0.0,0.0,0.0,0.0,-0.20228366030614278
1666091112754130982,0.044778346375096596,0.0,0.0,0.0,0.0,-0.21101030656611444
1666091112777121216,0.06396906625013798,0.0,0.0,0.0,0.0,-0.21764255772369293
1666091112824175452,0.05330755520844832,0.0,0.0,0.0,0.0,-0.21799162357409177
1666091112824210976,0.06610136845847592,0.0,0.0,0.0,0.0,-0.21537362969610024
1666091112872288483,0.06823367066681385,0.0,0.0,0.0,0.0,-0.21537362969610024
1666091112872318738,0.07249827508348972,0.0,0.0,0.0,0.0,-0.22165681500327983
1666091112920660290,0.08315978612517938,0.0,0.0,0.0,0.0,-0.2241002759560719
1666091112920725347,0.08742439054185526,0.0,0.0,0.0,0.0,-0.21589722847169854
1666091112920760749,0.10021820379188286,0.0,0.0,0.0,0.0,-0.20804324683772407
1666091112968176975,0.09382129716686904,0.0,0.0,0.0,0.0,-0.204378055408536
1666091112968232274,0.09595359937520698,0.0,0.0,0.0,0.0,-0.20734511513692636
1666091112975388673,0.10874741262523457,0.0,0.0,0.0,0.0,-0.20315632493213995
1666091112994894906,0.1108797148335725,0.0,0.0,0.0,0.0,-0.18832102629018815
1666091113040151732,0.12793813250027597,0.0,0.0,0.0,0.0,-0.18151424220741028
1666091113040179963,0.12154122587526218,0.0,0.0,0.0,0.0,-0.18151424220741028
1666091113088142292,0.11727662145858632,0.0,0.0,0.0,0.0,-0.1733111947230369
1666091113088160234,0.13433503912528977,0.0,0.0,0.0,0.0,-0.16022122533307945
1666091113136568919,0.1407319457503036,0.0,0.0,0.0,0.0,-0.15376350710070044
1666091113136624880,0.14712885237531736,0.0,0.0,0.0,0.0,-0.1408480706359424
1666091113136637046,0.14286424795864153,0.0,0.0,0.0,0.0,-0.13980087308474579
1666091113180507055,0.14499655016697943,0.0,0.0,0.0,0.0,-0.14870205226991687
1666091113180559117,0.159922665625345,0.0,0.0,0.0,0.0,-0.14364059743913332
1666091113195107966,0.1684518744586967,0.0,0.0,0.0,0.0,-0.12618730491919003
1666091113215160722,0.17271647887537256,0.0,0.0,0.0,0.0,-0.13456488532876282
1666091113260091161,0.17271647887537256,0.0,0.0,0.0,0.0,-0.1466076571675237
1666091113260110606,0.17484878108371052,0.0,0.0,0.0,0.0,-0.14137166941154067
1666091113304142788,0.18551029212540016,0.0,0.0,0.0,0.0,-0.14224433403753786
1666091113304153844,0.19190719875041395,0.0,0.0,0.0,0.0,-0.1303760951239764
1666091113352147723,0.19830410537542775,0.0,0.0,0.0,0.0,-0.14521139376592823
1666091113352174025,0.19830410537542775,0.0,0.0,0.0,0.0,-0.13072516097437528
1666091113396079808,0.19403950095875191,0.0,0.0,0.0,0.0,-0.1223475805648025
1666091113396098034,0.2196271274588071,0.0,0.0,0.0,0.0,-0.12566370614359174
1666091113396102866,0.20896561641711744,0.0,0.0,0.0,0.0,-0.09442231253289324
1666091113440110939,0.22389173187548297,0.0,0.0,0.0,0.0,-0.09896016858807849
1666091113440131229,0.221759429667145,0.0,0.0,0.0,0.0,-0.1038470904936626
1666091113457400881,0.22602403408382088,0.0,0.0,0.0,0.0,-0.10803588069844901
1666091113475438378,0.23455324291717264,0.0,0.0,0.0,0.0,-0.10803588069844901
1666091113517813014,0.2409501495421864,0.0,0.0,0.0,0.0,-0.11379546723003027
1666091113517905363,0.2516116605838761,0.0,0.0,0.0,0.0,-0.12164944886400476
1666091113564156385,0.24947935837553817,0.0,0.0,0.0,0.0,-0.11571532940722405
1666091113564190102,0.24521475395886227,0.0,0.0,0.0,0.0,-0.11135200627723822
1666091113612147677,0.2622731716255658,0.0,0.0,0.0,0.0,-0.10978120995044333
1666091113612170884,0.2729346826672554,0.0,0.0,0.0,0.0,-0.10471975511965977
1666091113660456167,0.2793315892922692,0.0,0.0,0.0,0.0,-0.10157816246606997
1666091113660518146,0.2771992870839313,0.0,0.0,0.0,0.0,-0.10122909661567112
1666091113660567866,0.2729346826672554,0.0,0.0,0.0,0.0,-0.10855947947404729
1666091113708924987,0.28786079812562093,0.0,0.0,0.0,0.0,-0.10576695267085637
1666091113708991572,0.2963900069589727,0.0,0.0,0.0,0.0,-0.10698868314725239
1666091113717008143,0.3113161224173382,0.0,0.0,0.0,0.0,-0.10419615634406146
1666091113736133251,0.30278691358398646,0.0,0.0,0.0,0.0,-0.1038470904936626
1666091113780222749,0.2985223091673106,0.0,0.0,0.0,0.0,-0.09616764178488756
1666091113780273741,0.32197763345902786,0.0,0.0,0.0,0.0,-0.10157816246606997
1666091113828133220,0.31984533125069,0.0,0.0,0.0,0.0,-0.1075122819228507
1666091113828152779,0.317713029042352,0.0,0.0,0.0,0.0,-0.09145525280450287
1666091113876283188,0.32410993566736584,0.0,0.0,0.0,0.0,-0.08883725892651137
1666091113880172927,0.33050684229237964,0.0,0.0,0.0,0.0,-0.09529497715889039
1666091113924208375,0.34969756216742104,0.0,0.0,0.0,0.0,-0.09564404300928928
1666091113924237401,0.3518298643757589,0.0,0.0,0.0,0.0,-0.07976154681614087
1666091113924245058,0.3539621665840969,0.0,0.0,0.0,0.0,-0.07801621756414652
1666091113972141482,0.3518298643757589,0.0,0.0,0.0,0.0,-0.08360127117052839
1666091113972170890,0.3560944687924348,0.0,0.0,0.0,0.0,-0.0736528944341607
1666091113975619286,0.36888828204246243,0.0,0.0,0.0,0.0,-0.06230825429619756
1666091113995611428,0.37954979308415204,0.0,0.0,0.0,0.0,-0.05777039824101231
1666091114040181992,0.3923436063341797,0.0,0.0,0.0,0.0,-0.05951572749300663
1666091114040204689,0.3902113041258417,0.0,0.0,0.0,0.0,-0.04293509959906051
1666091114088133274,0.38168209529249003,0.0,0.0,0.0,0.0,-0.03665191429188092
1666091114088160187,0.39447590854251763,0.0,0.0,0.0,0.0,-0.03822271061867582
1666091114136097373,0.39874051295919344,0.0,0.0,0.0,0.0,-0.04153883619746504
1666091114136115430,0.40940202400088316,0.0,0.0,0.0,0.0,-0.04014257279586957
1666091114136122201,0.41153432620922104,0.0,0.0,0.0,0.0,-0.03560471674068432
1666091114184350624,0.4072697217925452,0.0,0.0,0.0,0.0,-0.04782202150464464
1666091114184376514,0.42219583725091075,0.0,0.0,0.0,0.0,-0.05323254218582704
1666091114195737869,0.4243281394592487,0.0,0.0,0.0,0.0,-0.05323254218582704
1666091114215872513,0.445651161542628,0.0,0.0,0.0,0.0,-0.03892084231947355
1666091114260536132,0.44351885933429,0.0,0.0,0.0,0.0,-0.03769911184307752
1666091114260578906,0.4307250460842625,0.0,0.0,0.0,0.0,-0.04223696789826277
1666091114304358573,0.4499157659593038,0.0,0.0,0.0,0.0,-0.04328416544945937
1666091114304485698,0.45844497479265556,0.0,0.0,0.0,0.0,-0.033859387488689996
1666091114348247738,0.4733710902510211,0.0,0.0,0.0,0.0,-0.019896753472735354
1666091114348280768,0.4691064858343453,0.0,0.0,0.0,0.0,-0.030543261909900768
1666091114392586796,0.45204806816764176,0.0,0.0,0.0,0.0,-0.04066617157146788
1666091114392641099,0.4691064858343453,0.0,0.0,0.0,0.0,-0.03804817769347638
1666091114436233359,0.4819002990843728,0.0,0.0,0.0,0.0,-0.031939525311496235
1666091114436275353,0.49682641454273835,0.0,0.0,0.0,0.0,-0.03316125578789226
1666091114436288267,0.49895871675107634,0.0,0.0,0.0,0.0,-0.04782202150464464
1666091114484144395,0.48616490350104874,0.0,0.0,0.0,0.0,-0.045553093477052
1666091114484162911,0.49895871675107634,0.0,0.0,0.0,0.0,-0.031939525311496235
1666091114496648445,0.5160171344177797,0.0,0.0,0.0,0.0,-0.030194196059501903
1666091114515567995,0.5352078542928211,0.0,0.0,0.0,0.0,-0.024434609527920613
1666091114556159112,0.5202817388344556,0.0,0.0,0.0,0.0,-0.01117010721276371
1666091114556183851,0.5138848322094418,0.0,0.0,0.0,0.0,-0.02548180707911721
1666091114600176531,0.5245463432511316,0.0,0.0,0.0,0.0,-0.029321531433504733
1666091114600200027,0.5352078542928211,0.0,0.0,0.0,0.0,-0.02234021442552742
1666091114644291328,0.5458693653345108,0.0,0.0,0.0,0.0,-0.012391837689159739
1666091114644342481,0.5480016675428488,0.0,0.0,0.0,0.0,-0.01815142422074103
1666091114688126158,0.5373401565011591,0.0,0.0,0.0,0.0,-0.028623399732707
1666091114688146642,0.5480016675428488,0.0,0.0,0.0,0.0,-0.028274333882308142
1666091114732194299,0.5586631785845384,0.0,0.0,0.0,0.0,-0.023212879051524585
1666091114732231080,0.5650600852095522,0.0,0.0,0.0,0.0,-0.022863813201125717
1666091114776108614,0.5693246896262281,0.0,0.0,0.0,0.0,-0.027925268031909273
1666091114776129691,0.5629277830012144,0.0,0.0,0.0,0.0,-0.03089232776029963
1666091114776135944,0.5671923874178901,0.0,0.0,0.0,0.0,-0.030543261909900768
1666091114820037945,0.5821185028762557,0.0,0.0,0.0,0.0,-0.025132741228718346
1666091114820049531,0.5863831072929316,0.0,0.0,0.0,0.0,-0.024085543677521744
1666091114836361792,0.5863831072929316,0.0,0.0,0.0,0.0,-0.009075712110370514
1666091114856213059,0.5799862006679177,0.0,0.0,0.0,0.0,0.020420352248333655
1666091114900053889,0.5821185028762557,0.0,0.0,0.0,0.0,-0.008552113334772213
1666091114900065338,0.5927800139179454,0.0,0.0,0.0,0.0,-0.023212879051524585
1666091114944451901,0.5906477117096074,0.0,0.0,0.0,0.0,0.0031415926535897933
1666091114944491164,0.5970446183346212,0.0,0.0,0.0,0.0,0.013264502315156903
1666091114988240298,0.5927800139179454,0.0,0.0,0.0,0.0,-0.023736477827122886
1666091114988272226,0.5906477117096074,0.0,0.0,0.0,0.0,-0.02530727415391778
1666091115036111394,0.5842508050845936,0.0,0.0,0.0,0.0,-0.03665191429188092
1666091115036144718,0.5970446183346212,0.0,0.0,0.0,0.0,-0.03612831551628262
1666091115036169861,0.5799862006679177,0.0,0.0,0.0,0.0,-0.023387411976724018
1666091115084099165,0.5842508050845936,0.0,0.0,0.0,0.0,-0.02757620218151041
1666091115084111831,0.5821185028762557,0.0,0.0,0.0,0.0,-0.01815142422074103
1666091115096152541,0.5927800139179454,0.0,0.0,0.0,0.0,-0.05375614096142535
1666091115116524054,0.5714569918345661,0.0,0.0,0.0,0.0,-0.06335545184739416
1666091115160180638,0.5671923874178901,0.0,0.0,0.0,0.0,-0.04939281783143952
1666091115160222156,0.5714569918345661,0.0,0.0,0.0,0.0,-0.04520402762665313
1666091115208196024,0.5565308763762006,0.0,0.0,0.0,0.0,-0.03577924966588375
1666091115208208488,0.5543985741678626,0.0,0.0,0.0,0.0,-0.05811946409141117
1666091115252429506,0.5629277830012144,0.0,0.0,0.0,0.0,-0.06387905062299247
1666091115252496262,0.5650600852095522,0.0,0.0,0.0,0.0,-0.10000736613927509
1666091115296376701,0.5778538984595799,0.0,0.0,0.0,0.0,-0.14590952546672592
1666091115296417105,0.5671923874178901,0.0,0.0,0.0,0.0,-0.14800392056911915
1666091115340488871,0.5735892940429039,0.0,0.0,0.0,0.0,-0.12374384396639797
1666091115340517364,0.5437370631261729,0.0,0.0,0.0,0.0,-0.12322024519079966
1666091115340523949,0.5288109476678073,0.0,0.0,0.0,0.0,-0.12985249634837814
1666091115388155471,0.5437370631261729,0.0,0.0,0.0,0.0,-0.11711159280881951
1666091115388176969,0.5501339697511867,0.0,0.0,0.0,0.0,-0.12723450247038662
1666091115396242648,0.5416047609178349,0.0,0.0,0.0,0.0,-0.1790707812546182
1666091115416530673,0.5352078542928211,0.0,0.0,0.0,0.0,-0.20315632493213995
1666091115464060908,0.5416047609178349,0.0,0.0,0.0,0.0,-0.19792033717615698
1666091115464070904,0.5480016675428488,0.0,0.0,0.0,0.0,-0.23212879051524585
1666091115508210774,0.5394724587094971,0.0,0.0,0.0,0.0,-0.2663372438543347
1666091115508245981,0.5373401565011591,0.0,0.0,0.0,0.0,-0.2734930937875114
1666091115552271149,0.5522662719595246,0.0,0.0,0.0,0.0,-0.2001892652037496
1666091115552319250,0.5565308763762006,0.0,0.0,0.0,0.0,-0.17086773377024486
1666091115600239682,0.5565308763762006,0.0,0.0,0.0,0.0,-0.17453292519943295
1666091115600266698,0.5543985741678626,0.0,0.0,0.0,0.0,-0.1706932008450454
1666091115600279062,0.5607954807928763,0.0,0.0,0.0,0.0,-0.14905111812031574
1666091115648382019,0.5543985741678626,0.0,0.0,0.0,0.0,-0.14817845349431857
1666091115648405804,0.5437370631261729,0.0,0.0,0.0,0.0,-0.14206980111233844
1666091115657275397,0.5543985741678626,0.0,0.0,0.0,0.0,-0.14154620233674012
1666091115676087601,0.5607954807928763,0.0,0.0,0.0,0.0,-0.1494001839707146
1666091115720064782,0.5607954807928763,0.0,0.0,0.0,0.0,-0.1387536755335492
1666091115720078905,0.5671923874178901,0.0,0.0,0.0,0.0,-0.10349802464326374
1666091115764390293,0.5629277830012144,0.0,0.0,0.0,0.0,-0.08185594191853407
1666091115764441602,0.5650600852095522,0.0,0.0,0.0,0.0,-0.10681415022205297
1666091115808282631,0.5607954807928763,0.0,0.0,0.0,0.0,-0.11606439525762292
1666091115808366962,0.5586631785845384,0.0,0.0,0.0,0.0,-0.09791297103688189
1666091115852131045,0.5607954807928763,0.0,0.0,0.0,0.0,-0.10035643198967394
1666091115852155861,0.5565308763762006,0.0,0.0,0.0,0.0,-0.08674286382411817
1666091115896501290,0.5586631785845384,0.0,0.0,0.0,0.0,-0.10349802464326374
1666091115896525984,0.5629277830012144,0.0,0.0,0.0,0.0,-0.12391837689159739
1666091115896633683,0.5501339697511867,0.0,0.0,0.0,0.0,-0.1663298777150596
1666091115940599953,0.507487925584428,0.0,0.0,0.0,0.0,-0.17889624832941875
1666091115940711500,0.507487925584428,0.0,0.0,0.0,0.0,-0.18901915799098587
1666091115957831745,0.5416047609178349,0.0,0.0,0.0,0.0,-0.20874137853852182
1666091115976312695,0.5416047609178349,0.0,0.0,0.0,0.0,-0.26912977065752564
1666091116020178649,0.5288109476678073,0.0,0.0,0.0,0.0,-0.3480186528476693
1666091116020203982,0.5309432498761453,0.0,0.0,0.0,0.0,-0.3556981015564444
1666091116068591264,0.5416047609178349,0.0,0.0,0.0,0.0,-0.40107666210829696
1666091116068624152,0.5373401565011591,0.0,0.0,0.0,0.0,-0.4876449930072157
1666091116118818325,0.5394724587094971,0.0,0.0,0.0,0.0,-0.5057964172279567
1666091116118844042,0.5266786454594694,0.0,0.0,0.0,0.0,-0.5262167694762903
1666091116164121730,0.5437370631261729,0.0,0.0,0.0,0.0,-0.5028293574995664
1666091116164134802,0.5394724587094971,0.0,0.0,0.0,0.0,-0.4822344723260332
1666091116164155245,0.5394724587094971,0.0,0.0,0.0,0.0,-0.49131018443640373
1666091116208347410,0.5437370631261729,0.0,0.0,0.0,0.0,-0.5234242426730994
1666091116208385898,0.5437370631261729,0.0,0.0,0.0,0.0,-0.5099852074327431
1666091116216918956,0.5416047609178349,0.0,0.0,0.0,0.0,-0.438601241026175
1666091116236599069,0.5480016675428488,0.0,0.0,0.0,0.0,-0.4249876728606192
1666091116280293866,0.5373401565011591,0.0,0.0,0.0,0.0,-0.37891098060796896
1666091116280332611,0.5565308763762006,0.0,0.0,0.0,0.0,-0.3412118687648914
1666091116324477999,0.5543985741678626,0.0,0.0,0.0,0.0,-0.3420845333908886
1666091116324562481,0.5586631785845384,0.0,0.0,0.0,0.0,-0.3028146252210162
1666091116368165936,0.5501339697511867,0.0,0.0,0.0,0.0,-0.2925171826342497
1666091116368181705,0.5480016675428488,0.0,0.0,0.0,0.0,-0.2405063709248186
1666091116412059924,0.445651161542628,0.0,0.0,0.0,0.0,-0.23369958684204073
1666091116412075454,0.44351885933429,0.0,0.0,0.0,0.0,-0.2790781473938933
1666091116456122556,0.34330065554240724,0.0,0.0,0.0,0.0,-0.26197392072434883
1666091116456146378,0.3326391445007175,0.0,0.0,0.0,0.0,-0.3352777493081107
1666091116456150569,0.37741749087581417,0.0,0.0,0.0,0.0,-0.4401720373529699
1666091116500376636,0.23668554512551054,0.0,0.0,0.0,0.0,-0.5277875658030852
1666091116500400078,0.1876425943337381,0.0,0.0,0.0,0.0,-0.5201081170943103
1666091116517589806,0.12793813250027597,0.0,0.0,0.0,0.0,-0.5120796025351363
1666091116538482987,0.10448280820855872,0.0,0.0,0.0,0.0,-0.5171410573659198
1666091116580381598,0.16631957225035876,0.0,0.0,0.0,0.0,-0.5017821599483697
1666091116580441034,0.20896561641711744,0.0,0.0,0.0,0.0,-0.4399975044277705
1666091116628065078,0.18337798991706222,0.0,0.0,0.0,0.0,-0.3899065548955332
1666091116628079878,0.1492611545836553,0.0,0.0,0.0,0.0,-0.3619812868636239
1666091116676214465,0.14286424795864153,0.0,0.0,0.0,0.0,-0.34295719801688573
1666091116676250435,0.15139345679199323,0.0,0.0,0.0,0.0,-0.3284709652253328
1666091116720228566,0.15139345679199323,0.0,0.0,0.0,0.0,-0.3153809958353754
1666091116720264821,0.13433503912528977,0.0,0.0,0.0,0.0,-0.3218387140677544
1666091116720297799,0.10021820379188286,0.0,0.0,0.0,0.0,-0.36075955638722795
1666091116764294514,0.08955669275019319,0.0,0.0,0.0,0.0,-0.40055306333269863
1666091116764338185,0.09808590158354492,0.0,0.0,0.0,0.0,-0.425685804561417
1666091116776734632,0.10661511041689664,0.0,0.0,0.0,0.0,-0.49096111858600483
1666091116796585381,0.10021820379188286,0.0,0.0,0.0,0.0,-0.5113814708343386
1666091116840179118,0.09595359937520698,0.0,0.0,0.0,0.0,-0.5614724203665757
1666091116840212325,0.09808590158354492,0.0,0.0,0.0,0.0,-0.5981243346584567
1666091116888518973,0.1108797148335725,0.0,0.0,0.0,0.0,-0.6190682856823887
1666091116888599227,0.11301201704191044,0.0,0.0,0.0,0.0,-0.6293657282691553
1666091116932455183,0.12154122587526218,0.0,0.0,0.0,0.0,-0.6052801845916335
1666091116932497293,0.11301201704191044,0.0,0.0,0.0,0.0,-0.606676447993229
1666091116976209124,0.1108797148335725,0.0,0.0,0.0,0.0,-0.5564109655357922
1666091116976235414,0.11940892366692425,0.0,0.0,0.0,0.0,-0.5105088062083414
1666091117020215500,0.11727662145858632,0.0,0.0,0.0,0.0,-0.4879940588576146
1666091117020241219,0.12793813250027597,0.0,0.0,0.0,0.0,-0.45169121041613247
1666091117020268411,0.12367352808360012,0.0,0.0,0.0,0.0,-0.43353978619539146
1666091117068140367,0.11514431925024839,0.0,0.0,0.0,0.0,-0.3989822670059037
1666091117068153583,0.11727662145858632,0.0,0.0,0.0,0.0,-0.3651228795172138
1666091117077120340,0.11727662145858632,0.0,0.0,0.0,0.0,-0.3747221904031825
1666091117097271644,0.11514431925024839,0.0,0.0,0.0,0.0,-0.3654719453676126
1666091117140264713,0.10874741262523457,0.0,0.0,0.0,0.0,-0.3815289744859604
1666091117140325877,0.10874741262523457,0.0,0.0,0.0,0.0,-0.3810053757103621
1666091117188233995,0.11301201704191044,0.0,0.0,0.0,0.0,-0.3728023282259888
1666091117188284035,0.12154122587526218,0.0,0.0,0.0,0.0,-0.3551745027808461
1666091117232277017,0.11301201704191044,0.0,0.0,0.0,0.0,-0.3295181627765294
1666091117232311386,0.10874741262523457,0.0,0.0,0.0,0.0,-0.33143802495372315
1666091117276362009,0.11727662145858632,0.0,0.0,0.0,0.0,-0.334579617607313
1666091117276391620,0.11727662145858632,0.0,0.0,0.0,0.0,-0.2996730325674264
1666091117320138063,0.12367352808360012,0.0,0.0,0.0,0.0,-0.27139869868511823
1666091117320154185,0.11940892366692425,0.0,0.0,0.0,0.0,-0.2707005669843205
1666091117320159097,0.1108797148335725,0.0,0.0,0.0,0.0,-0.26424284875194154
1666091117364197946,0.12154122587526218,0.0,0.0,0.0,0.0,-0.24329889772800953
1666091117364222732,0.11940892366692425,0.0,0.0,0.0,0.0,-0.22444934180647075
1666091117377557532,0.11727662145858632,0.0,0.0,0.0,0.0,-0.17505652397503124
1666091117399362272,0.11514431925024839,0.0,0.0,0.0,0.0,-0.11239920382843484
1666091117440348011,0.11514431925024839,0.0,0.0,0.0,0.0,-0.11728612573401893
1666091117440392986,0.11727662145858632,0.0,0.0,0.0,0.0,-0.10698868314725239
