%time,field.linear.x,field.linear.y,field.linear.z,field.angular.x,field.angular.y,field.angular.z
1666091107873336733,0.015,0.0,0.0,0.0,0.0,-0.042555475108290504
1666091107921909150,0.03,0.0,0.0,0.0,0.0,-0.08511095021658101
1666091107972100094,0.045,0.0,0.0,0.0,0.0,-0.12766642532487152
1666091108022015660,0.06,0.0,0.0,0.0,0.0,-0.1770046222973932
1666091108071971285,0.075,0.0,0.0,0.0,0.0,-0.2278658561899929
1666091108121838192,0.09,0.0,0.0,0.0,0.0,-0.27872709008259255
1666091108172153071,0.105,0.0,0.0,0.0,0.0,-0.3311778390423422
1666091108221932205,0.12,0.0,0.0,0.0,0.0,-0.3836408304278477
1666091108272199514,0.135,0.0,0.0,0.0,0.0,-0.43665756790622223
1666091108322148487,0.15000000000000002,0.0,0.0,0.0,0.0,-0.4896743053845968
1666091108371954054,0.16500000000000004,0.0,0.0,0.0,0.0,-0.5426910428629713
1666091108421904998,0.18000000000000005,0.0,0.0,0.0,0.0,-0.5828202405242049
1666091108471979028,0.19500000000000006,0.0,0.0,0.0,0.0,-0.6229494381854385
1666091108521881193,0.21000000000000008,0.0,0.0,0.0,0.0,-0.6630707132569784
1666091108575852371,0.2250000000000001,0.0,0.0,0.0,0.0,-0.7033978441487041
1666091108621997471,0.2400000000000001,0.0,0.0,0.0,0.0,-0.7437249750404298
1666091108672724631,0.2550000000000001,0.0,0.0,0.0,0.0,-0.7861079378626604
1666091108722262331,0.27000000000000013,0.0,0.0,0.0,0.0,-0.8284909006848911
1666091108772570999,0.28500000000000014,0.0,0.0,0.0,0.0,-0.8728227926222658
1666091108822391814,0.30000000000000016,0.0,0.0,0.0,0.0,-0.9173154015301314
1666091108873292217,0.15000000000000013,0.0,0.0,0.0,0.0,-0.4586577007650658
1666091108922137868,0.16500000000000015,0.0,0.0,0.0,0.0,-0.504657941291643
1666091108972283495,0.18000000000000016,0.0,0.0,0.0,0.0,-0.5506581818182201
1666091109022137119,0.19500000000000017,0.0,0.0,0.0,0.0,-0.5975476454837169
1666091109071982340,0.2100000000000002,0.0,0.0,0.0,0.0,-0.6444371091492136
1666091109121873988,0.2250000000000002,0.0,0.0,0.0,0.0,-0.6913265728147103
1666091109172432727,0.2322132425955903,0.0,0.0,0.0,0.0,-0.7913265728147103
1666091109222300456,0.23697252310538022,0.0,0.0,0.0,0.0,-0.8913265728147103
1666091109272081325,0.24173180361517016,0.0,0.0,0.0,0.0,-0.9913265728147103
1666091109321854145,0.24439086019992828,0.0,0.0,0.0,0.0,-1.0471975511965983
1666091109373637587,0.2593908601999283,0.0,0.0,0.0,0.0,-1.0471975511965983
1666091109422047243,0.2743908601999283,0.0,0.0,0.0,0.0,-1.0471975511965983
1666091109472492202,0.2893908601999283,0.0,0.0,0.0,0.0,-1.0471975511965983
1666091109522139691,0.1393908601999283,0.0,0.0,0.0,0.0,-0.9567318787084337
1666091109572147917,0.0,0.0,0.0,0.0,0.0,-0.8726646259971653
1666091109622011413,0.0,0.0,0.0,0.0,0.0,-0.787969760175616
1666091109673102835,0.0,0.0,0.0,0.0,0.0,-0.7412295000275749
1666091109722174117,0.0,0.0,0.0,0.0,0.0,-0.740745943602975
1666091109771792567,0.0,0.0,0.0,0.0,0.0,-0.740745943602975
1666091109821925790,0.0,0.0,0.0,0.0,0.0,-0.6399558541964526
1666091109872641911,0.0,0.0,0.0,0.0,0.0,-0.569619458404498
1666091109921927648,0.0,0.0,0.0,0.0,0.0,-0.5687034782637568
1666091109972024428,0.0,0.0,0.0,0.0,0.0,-0.5687034782637568
1666091110022039813,0.0,0.0,0.0,0.0,0.0,-0.45780357855037757
1666091110072375246,0.0,0.0,0.0,0.0,0.0,-0.45780357855037757
1666091110121930742,0.0,0.0,0.0,0.0,0.0,-0.39301422823724025
1666091110172375451,0.0,0.0,0.0,0.0,0.0,-0.39301422823724025
1666091110221999560,0.0,0.0,0.0,0.0,0.0,-0.3490658503988664
1666091110272065467,0.0,0.0,0.0,0.0,0.0,-0.3490658503988664
1666091110322123007,0.0,0.0,0.0,0.0,0.0,-0.25103573861090495
1666091110372013283,0.0,0.0,0.0,0.0,0.0,-0.25103573861090495
1666091110422302081,0.0,0.0,0.0,0.0,0.0,-0.21070322352360182
1666091110471879713,0.0,0.0,0.0,0.0,0.0,-0.21070322352360182
1666091110521869417,0.0,0.0,0.0,0.0,0.0,-0.21070322352360182
1666091110572901060,0.0,0.0,0.0,0.0,0.0,-0.17453292519943345
1666091110622502752,0.0,0.0,0.0,0.0,0.0,-0.17453292519943345
1666091110672536291,0.0,0.0,0.0,0.0,0.0,-4.996003610813204e-16
1666091110721868310,0.0,0.0,0.0,0.0,0.0,-4.996003610813204e-16
1666091110772129638,0.0,0.0,0.0,0.0,0.0,-4.996003610813204e-16
1666091110821901865,0.0,0.0,0.0,0.0,0.0,-4.996003610813204e-16
1666091110871878406,0.0,0.0,0.0,0.0,0.0,-4.996003610813204e-16
1666091110921929519,0.015,0.0,0.0,0.0,0.0,-0.00294451738526034
1666091110972155235,0.03,0.0,0.0,0.0,0.0,-0.00588903477052018
1666091111022094258,0.045,0.0,0.0,0.0,0.0,-0.008825447363922958
1666091111072011096,0.06,0.0,0.0,0.0,0.0,-0.011761859957325736
1666091111122044505,0.075,0.0,0.0,0.0,0.0,-0.011289307035699168
1666091111172243153,0.09,0.0,0.0,0.0,0.0,-0.0108167541140726
1666091111222532465,0.105,0.0,0.0,0.0,0.0,-0.013912804533809152
1666091111272108271,0.12,0.0,0.0,0.0,0.0,-0.01701231720506757
1666091111321908558,0.135,0.0,0.0,0.0,0.0,-0.020126932166651356
1666091111371947928,0.15000000000000002,0.0,0.0,0.0,0.0,-0.023241547128235143
1666091111421860647,0.16500000000000004,0.0,0.0,0.0,0.0,-0.026733872491798115
1666091111472366769,0.18000000000000005,0.0,0.0,0.0,0.0,-0.02508829441022776
1666091111521856113,0.19500000000000006,0.0,0.0,0.0,0.0,-0.02344169276907379
1666091111571825510,0.21000000000000008,0.0,0.0,0.0,0.0,-0.021795091127919823
1666091111621863160,0.2250000000000001,0.0,0.0,0.0,0.0,-0.027839157488845166
1666091111672310708,0.11584124281066253,0.0,0.0,0.0,0.0,-0.12783915748884517
1666091111722097467,0.006682485621324966,0.0,0.0,0.0,0.0,-0.22783915748884517
1666091111772429901,0.0,0.0,0.0,0.0,0.0,-0.2985540934558544
1666091111821800003,0.0,0.0,0.0,0.0,0.0,-0.2985540934558544
1666091111872267425,0.0,0.0,0.0,0.0,0.0,-0.2985540934558544
1666091111922553834,0.0,0.0,0.0,0.0,0.0,-0.3490658503988664
1666091111972157354,0.0,0.0,0.0,0.0,0.0,-0.39372080167473195
1666091112021832572,0.0,0.0,0.0,0.0,0.0,-0.39372080167473195
1666091112071985203,0.0,0.0,0.0,0.0,0.0,-0.4331111245614551
1666091112121990976,0.0,0.0,0.0,0.0,0.0,-0.4331111245614551
1666091112172498520,0.0,0.0,0.0,0.0,0.0,-0.4690815473681415
1666091112221902700,0.0,0.0,0.0,0.0,0.0,-0.4690815473681415
1666091112272279447,0.0,0.0,0.0,0.0,0.0,-0.5271364056224136
1666091112321885213,0.0,0.0,0.0,0.0,0.0,-0.5235987755982994
1666091112372078581,0.0,0.0,0.0,0.0,0.0,-0.5377626939149293
1666091112422484357,0.0,0.0,0.0,0.0,0.0,-0.5643269799993647
1666091112472123561,0.015,0.0,0.0,0.0,0.0,-0.5410454834393821
1666091112521980140,0.03,0.0,0.0,0.0,0.0,-0.5177639868793995
1666091112572851557,0.045,0.0,0.0,0.0,0.0,-0.5049788718514067
1666091112622098326,0.06,0.0,0.0,0.0,0.0,-0.4921937568234139
1666091112671978200,0.075,0.0,0.0,0.0,0.0,-0.4705195707199428
1666091112723174112,0.09,0.0,0.0,0.0,0.0,-0.4597461304480358
1666091112772451380,0.105,0.0,0.0,0.0,0.0,-0.4489726901761288
1666091112822022913,0.12,0.0,0.0,0.0,0.0,-0.43960661789679706
1666091112872233851,0.135,0.0,0.0,0.0,0.0,-0.43079686432256487
1666091112922071313,0.15000000000000002,0.0,0.0,0.0,0.0,-0.42197288136766187
1666091112972098921,0.16500000000000004,0.0,0.0,0.0,0.0,-0.413756710309534
1666091113021830576,0.18000000000000005,0.0,0.0,0.0,0.0,-0.4055405392514061
1666091113072062305,0.19500000000000006,0.0,0.0,0.0,0.0,-0.39771057313883446
1666091113121992151,0.21000000000000008,0.0,0.0,0.0,0.0,-0.3818196648451079
1666091113173054975,0.2250000000000001,0.0,0.0,0.0,0.0,-0.3659287565513813
1666091113222316295,0.2400000000000001,0.0,0.0,0.0,0.0,-0.350838422821768
1666091113272167869,0.2550000000000001,0.0,0.0,0.0,0.0,-0.34517848685297164
1666091113323275085,0.27000000000000013,0.0,0.0,0.0,0.0,-0.33951855088417526
1666091113372332954,0.28500000000000014,0.0,0.0,0.0,0.0,-0.33424140291914073
1666091113421807827,0.30000000000000016,0.0,0.0,0.0,0.0,-0.3289642549541062
1666091113472678323,0.31500000000000017,0.0,0.0,0.0,0.0,-0.3241558854687753
1666091113522091545,0.3300000000000002,0.0,0.0,0.0,0.0,-0.3199888187463277
1666091113573236645,0.3450000000000002,0.0,0.0,0.0,0.0,-0.3158217520238801
1666091113621903576,0.3600000000000002,0.0,0.0,0.0,0.0,-0.3123642187794203
1666091113672242195,0.3750000000000002,0.0,0.0,0.0,0.0,-0.3089066855349605
1666091113721942566,0.39000000000000024,0.0,0.0,0.0,0.0,-0.30620926342703536
1666091113772267727,0.40500000000000025,0.0,0.0,0.0,0.0,-0.2976036350085925
1666091113821904143,0.42000000000000026,0.0,0.0,0.0,0.0,-0.29649742240665666
1666091113872098620,0.4350000000000003,0.0,0.0,0.0,0.0,-0.2907522884960456
1666091113922087849,0.4500000000000003,0.0,0.0,0.0,0.0,-0.2850071545854346
1666091113972104591,0.4650000000000003,0.0,0.0,0.0,0.0,-0.2852588835489109
1666091114021873169,0.4800000000000003,0.0,0.0,0.0,0.0,-0.2854933227706803
1666091114072432678,0.49500000000000033,0.0,0.0,0.0,0.0,-0.28202634857272063
1666091114121915455,0.5100000000000003,0.0,0.0,0.0,0.0,-0.27855937437476097
1666091114172976593,0.5250000000000004,0.0,0.0,0.0,0.0,-0.282206261065663
1666091114221895429,0.5400000000000004,0.0,0.0,0.0,0.0,-0.285853147756565
1666091114272401075,0.5550000000000004,0.0,0.0,0.0,0.0,-0.289500034447467
1666091114322517769,0.5700000000000004,0.0,0.0,0.0,0.0,-0.29314692113836904
1666091114372001420,0.5850000000000004,0.0,0.0,0.0,0.0,-0.29679380782927106
1666091114422016482,0.6000000000000004,0.0,0.0,0.0,0.0,-0.29812131906188766
1666091114472246246,0.6150000000000004,0.0,0.0,0.0,0.0,-0.29944883029450425
1666091114521826978,0.6300000000000004,0.0,0.0,0.0,0.0,-0.3017283904087547
1666091114572286322,0.6450000000000005,0.0,0.0,0.0,0.0,-0.30400795052300517
1666091114621885415,0.6600000000000005,0.0,0.0,0.0,0.0,-0.30672552690577043
1666091114672785305,0.6750000000000005,0.0,0.0,0.0,0.0,-0.3113578907745145
1666091114722000699,0.6900000000000005,0.0,0.0,0.0,0.0,-0.31599025464325853
1666091114772044638,0.7050000000000005,0.0,0.0,0.0,0.0,-0.3712584554756622
1666091114821775444,0.7200000000000005,0.0,0.0,0.0,0.0,-0.42652665630806597
1666091114872076032,0.7160426735856924,0.0,0.0,0.0,0.0,-0.5265266563080659
1666091114922233635,0.7120853471713843,0.0,0.0,0.0,0.0,-0.6265266563080659
1666091114971976543,0.7270853471713843,0.0,0.0,0.0,0.0,-0.7246414425100328
1666091115022509730,0.7420853471713843,0.0,0.0,0.0,0.0,-0.8227562287119997
1666091115072156673,0.7167531198058089,0.0,0.0,0.0,0.0,-0.9227562287119997
1666091115122006750,0.6914208924402335,0.0,0.0,0.0,0.0,-1.0227562287119998
1666091115172097070,0.7064208924402335,0.0,0.0,0.0,0.0,-1.028165569257863
1666091115221938300,0.7214208924402336,0.0,0.0,0.0,0.0,-1.0335749098037263
1666091115272590886,0.6638479828834533,0.0,0.0,0.0,0.0,-1.0471975511965983
1666091115321995930,0.6638479828834533,0.0,0.0,0.0,0.0,-1.0471975511965983
1666091115372187131,0.6788479828834533,0.0,0.0,0.0,0.0,-1.0471975511965983
1666091115421854847,0.6938479828834533,0.0,0.0,0.0,0.0,-1.0471975511965983
1666091115472681603,0.7088479828834533,0.0,0.0,0.0,0.0,-1.0471975511965983
1666091115521879742,0.7238479828834533,0.0,0.0,0.0,0.0,-1.0471975511965983
1666091115572466279,0.7167623639106749,0.0,0.0,0.0,0.0,-1.0471975511965983
1666091115622336910,0.7167623639106749,0.0,0.0,0.0,0.0,-1.0471975511965983
1666091115671970436,0.7139443159103394,0.0,0.0,0.0,0.0,-1.0471975511965983
1666091115721856421,0.7139443159103394,0.0,0.0,0.0,0.0,-1.0471975511965983
1666091115772180113,0.7123681902885437,0.0,0.0,0.0,0.0,-1.0471975511965983
1666091115822027272,0.7123681902885437,0.0,0.0,0.0,0.0,-1.0471975511965983
1666091115872480157,0.6158949732780457,0.0,0.0,0.0,0.0,-1.0471975511965983
1666091115922407911,0.6158949732780457,0.0,0.0,0.0,0.0,-1.0471975511965983
1666091115972514907,0.6308949732780457,0.0,0.0,0.0,0.0,-1.0471975511965983
1666091116021983719,0.6458949732780457,0.0,0.0,0.0,0.0,-1.0471975511965983
1666091116072286469,0.6608949732780457,0.0,0.0,0.0,0.0,-1.0471975511965983
1666091116122435209,0.6758949732780457,0.0,0.0,0.0,0.0,-1.0471975511965983
1666091116172248897,0.6768254637718201,0.0,0.0,0.0,0.0,-1.0471975511965983
1666091116221818184,0.669401228427887,0.0,0.0,0.0,0.0,-1.0471975511965983
1666091116272256427,0.669401228427887,0.0,0.0,0.0,0.0,-1.0471975511965983
1666091116323495465,0.5194012284278869,0.0,0.0,0.0,0.0,-0.9552415192358047
1666091116372132034,0.3694012284278869,0.0,0.0,0.0,0.0,-0.8632854872750111
1666091116421954216,0.2194012284278869,0.0,0.0,0.0,0.0,-0.7713294553142176
1666091116472464970,0.1,0.0,0.0,0.0,0.0,-0.6981317007977323
1666091116521966078,0.1,0.0,0.0,0.0,0.0,-0.6981317007977323
1666091116572425553,0.1,0.0,0.0,0.0,0.0,-0.6981317007977323
1666091116622070920,0.1,0.0,0.0,0.0,0.0,-0.6981317007977323
1666091116672115338,0.1,0.0,0.0,0.0,0.0,-0.6981317007977323
1666091116722080362,0.1,0.0,0.0,0.0,0.0,-0.6981317007977323
1666091116772161547,0.1,0.0,0.0,0.0,0.0,-0.6981317007977323
1666091116822105651,0.1,0.0,0.0,0.0,0.0,-0.5235987755982994
1666091116872068966,0.1,0.0,0.0,0.0,0.0,-0.5235987755982994
1666091116922307610,0.1,0.0,0.0,0.0,0.0,-0.5235987755982994
1666091116972228897,0.1,0.0,0.0,0.0,0.0,-0.5235987755982994
1666091117022010366,0.1,0.0,0.0,0.0,0.0,-0.5235987755982994
1666091117072036600,0.1,0.0,0.0,0.0,0.0,-0.3490658503988664
1666091117121884051,0.1,0.0,0.0,0.0,0.0,-0.3490658503988664
1666091117171983721,0.1,0.0,0.0,0.0,0.0,-0.3490658503988664
1666091117222610531,0.1,0.0,0.0,0.0,0.0,-0.3490658503988664
1666091117271872192,0.1,0.0,0.0,0.0,0.0,-0.17453292519943345
1666091117321821013,0.1,0.0,0.0,0.0,0.0,-0.17453292519943345
1666091117372149362,0.1,0.0,0.0,0.0,0.0,-0.17453292519943345
1666091117421892921,0.1,0.0,0.0,0.0,0.0,-0.17453292519943345
1666091117471929593,0.1,0.0,0.0,0.0,0.0,-0.17453292519943345
1666091117522232048,0.1,0.0,0.0,0.0,0.0,-0.17453292519943345
1666091117572277320,0.1,0.0,0.0,0.0,0.0,-4.996003610813204e-16
1666091117623161543,0.1,0.0,0.0,0.0,0.0,0.049254853278398514
1666091117671826564,0.1,0.0,0.0,0.0,0.0,0.049254853278398514
1666091117721937578,0.1,0.0,0.0,0.0,0.0,0.049254853278398514
1666091117772053065,0.1,0.0,0.0,0.0,0.0,-4.996003610813204e-16
1666091117822319800,0.1,0.0,0.0,0.0,0.0,-4.996003610813204e-16
1666091117871833846,0.1,0.0,0.0,0.0,0.0,-4.996003610813204e-16
1666091117921822866,0.1,0.0,0.0,0.0,0.0,-4.996003610813204e-16
1666091117971976431,0.1,0.0,0.0,0.0,0.0,0.09983376413583755
1666091118022023527,0.1,0.0,0.0,0.0,0.0,0.09983376413583755
1666091118072076437,0.1,0.0,0.0,0.0,0.0,0.02495627850294113
1666091118121847410,0.1,0.0,0.0,0.0,0.0,0.02495627850294113
1666091118176223727,0.1,0.0,0.0,0.0,0.0,0.03007322922348976
1666091118221825153,0.1,0.0,0.0,0.0,0.0,0.03007322922348976
1666091118271917871,0.1,0.0,0.0,0.0,0.0,0.11464240401983261
1666091118322029363,0.1,0.0,0.0,0.0,0.0,0.17453292519943245
1666091118372051418,0.1,0.0,0.0,0.0,0.0,0.17453292519943245
1666091118422561316,0.1,0.0,0.0,0.0,0.0,0.17453292519943245
1666091118472076243,0.1,0.0,0.0,0.0,0.0,0.03701180964708328
1666091118522121760,0.1,0.0,0.0,0.0,0.0,0.03701180964708328
1666091118572036347,0.1,0.0,0.0,0.0,0.0,0.03591759130358696
1666091118622203026,0.1,0.0,0.0,0.0,0.0,0.03591759130358696
1666091118671957098,0.1,0.0,0.0,0.0,0.0,0.033473655581474304
1666091118723196123,0.1,0.0,0.0,0.0,0.0,0.031581979244947433
1666091118771940553,0.1,0.0,0.0,0.0,0.0,0.031581979244947433
1666091118822052212,0.1,0.0,0.0,0.0,0.0,0.030122635886073112
1666091118871926862,0.1,0.0,0.0,0.0,0.0,-0.0698773641139269
1666091118921837481,0.1,0.0,0.0,0.0,0.0,-0.1698773641139269
1666091118972162518,0.1,0.0,0.0,0.0,0.0,-0.26987736411392693
1666091119022747361,0.1,0.0,0.0,0.0,0.0,-0.3698773641139269
1666091119072171786,0.1,0.0,0.0,0.0,0.0,-0.4698773641139269
1666091119121951369,0.1,0.0,0.0,0.0,0.0,-0.5698773641139269
1666091119172000039,0.0,0.0,0.0,0.0,0.0,0.0
1666091119221963842,0.014323944878270573,0.0,0.0,0.0,0.0,-0.1
1666091119271966060,0.028647889756541145,0.0,0.0,0.0,0.0,-0.2
1666091119322171487,0.0,0.0,0.0,0.0,0.0,0.0
1666091119371944287,0.0,0.0,0.0,0.0,0.0,0.0
1666091119422013739,0.005208707228462029,0.0,0.0,0.0,0.0,-0.1
1666091119473689379,0.0,0.0,0.0,0.0,0.0,0.0
1666091119521854986,0.0,0.0,0.0,0.0,0.0,0.0
1666091119572216432,0.0,0.0,0.0,0.0,0.0,0.0
1666091119622046180,0.0,0.0,0.0,0.0,0.0,0.0
1666091119671968717,0.0,0.0,0.0,0.0,0.0,0.0
1666091119722230742,0.0,0.0,0.0,0.0,0.0,0.0
1666091119771857571,0.0,0.0,0.0,0.0,0.0,0.1
1666091119821815623,0.0,0.0,0.0,0.0,0.0,0.2
1666091119873439002,0.0,0.0,0.0,0.0,0.0,0.22295229656657245
1666091119922849920,0.0,0.0,0.0,0.0,0.0,0.23116618739409162
1666091119972338760,0.0,0.0,0.0,0.0,0.0,0.24016532403349888
1666091120021932586,0.0,0.0,0.0,0.0,0.0,0.24016532403349888
1666091120071917707,0.0,0.0,0.0,0.0,0.0,0.24618292056051788
1666091120123844898,0.0,0.0,0.0,0.0,0.0,0.24780990649116952
1666091120171880830,0.0,0.0,0.0,0.0,0.0,0.24780990649116952
1666091120221986846,0.0,0.0,0.0,0.0,0.0,0.24780990649116952
1666091120271915562,0.0,0.0,0.0,0.0,0.0,0.25772169013743396
1666091120321948098,0.0,0.0,0.0,0.0,0.0,0.2586811269324639
1666091120371945170,0.0,0.0,0.0,0.0,0.0,0.2586811269324639
1666091120422040851,0.0,0.0,0.0,0.0,0.0,0.26080547835232476
1666091120471846729,0.0,0.0,0.0,0.0,0.0,0.2577980346224545
1666091120521894629,0.0,0.0,0.0,0.0,0.0,0.2577980346224545
1666091120571875616,0.0,0.0,0.0,0.0,0.0,0.266086043382907
1666091120622100988,0.0,0.0,0.0,0.0,0.0,0.266086043382907
1666091120672357793,0.0,0.0,0.0,0.0,0.0,0.2628237943590609
1666091120722504009,0.0,0.0,0.0,0.0,0.0,0.2628237943590609
1666091120772211835,0.0,0.0,0.0,0.0,0.0,0.26495890224739604
1666091120822017480,0.0,0.0,0.0,0.0,0.0,0.26214234850088747
1666091120872436004,0.0,0.0,0.0,0.0,0.0,0.26229307122653617
1666091120921926426,0.0,0.0,0.0,0.0,0.0,0.26264346033596825
1666091120971968679,0.0,0.0,0.0,0.0,0.0,0.26264346033596825
1666091121021938250,0.0,0.0,0.0,0.0,0.0,0.26653499145328546
1666091121071911989,0.0,0.0,0.0,0.0,0.0,0.26653499145328546
1666091121122058854,0.0,0.0,0.0,0.0,0.0,0.2610217373222739
1666091121171907566,0.0,0.0,0.0,0.0,0.0,0.2610217373222739
1666091121222005826,0.0,0.0,0.0,0.0,0.0,0.2698933899767887
1666091121272322054,0.0,0.0,0.0,0.0,0.0,0.2698933899767887
1666091121322414022,0.0,0.0,0.0,0.0,0.0,0.26915633981379966
1666091121373216251,0.0,0.0,0.0,0.0,0.0,0.2666993985774389
1666091121422524187,0.0,0.0,0.0,0.0,0.0,0.2719644798582281
1666091121471870418,0.0,0.0,0.0,0.0,0.0,0.2719644798582281
1666091121521975039,0.0,0.0,0.0,0.0,0.0,0.27709058154937233
1666091121572333690,0.0,0.0,0.0,0.0,0.0,0.2765211830437591
1666091121621912884,0.0,0.0,0.0,0.0,0.0,0.2765211830437591
1666091121671944732,0.0,0.0,0.0,0.0,0.0,0.2827594954677009
1666091121721928172,0.0,0.0,0.0,0.0,0.0,0.2827594954677009
1666091121771997438,0.0,0.0,0.0,0.0,0.0,0.28369187985120753
1666091121821902415,0.0,0.0,0.0,0.0,0.0,0.28369187985120753
1666091121872192938,0.0,0.0,0.0,0.0,0.0,0.2801025053193037
1666091121921943345,0.0,0.0,0.0,0.0,0.0,0.27486435156306255
1666091121972035133,0.0,0.0,0.0,0.0,0.0,0.27486435156306255
1666091122022014774,0.0,0.0,0.0,0.0,0.0,0.2763871411063827
1666091122072560535,0.0,0.0,0.0,0.0,0.0,0.2702041031279752
1666091122121906872,0.0,0.0,0.0,0.0,0.0,0.2675795480914272
1666091122172034004,0.0,0.0,0.0,0.0,0.0,0.2675795480914272
1666091122221957245,0.0,0.0,0.0,0.0,0.0,0.26872129483283175
1666091122271856905,0.0,0.0,0.0,0.0,0.0,0.26872129483283175
1666091122322043459,0.0,0.0,0.0,0.0,0.0,0.2664268822153784
1666091122372095026,0.0,0.0,0.0,0.0,0.0,0.2600786649737851
1666091122421983904,0.0,0.0,0.0,0.0,0.0,0.2602334955414467
1666091122471971997,0.0,0.0,0.0,0.0,0.0,0.2602334955414467
1666091122522180439,0.0,0.0,0.0,0.0,0.0,0.2567181173722731
1666091122571884956,0.0,0.0,0.0,0.0,0.0,0.2567181173722731
1666091122622489284,0.0,0.0,0.0,0.0,0.0,0.2519904639887047
1666091122672237098,0.0,0.0,0.0,0.0,0.0,0.2435978723680599
1666091122722054901,0.0,0.0,0.0,0.0,0.0,0.24175410417057303
1666091122772474112,0.0,0.0,0.0,0.0,0.0,0.24175410417057303
1666091122821883491,0.0,0.0,0.0,0.0,0.0,0.23772345922591118
1666091122872149791,0.0,0.0,0.0,0.0,0.0,0.23095542498659846
1666091122921851938,0.0,0.0,0.0,0.0,0.0,0.23095542498659846
1666091122971964396,0.0,0.0,0.0,0.0,0.0,0.22798507278684932
1666091123022032366,0.0,0.0,0.0,0.0,0.0,0.22798507278684932
1666091123071948061,0.0,0.0,0.0,0.0,0.0,0.22416900131999376
1666091123122009642,0.0,0.0,0.0,0.0,0.0,0.22416900131999376
1666091123172112062,0.0,0.0,0.0,0.0,0.0,0.2216551173185055
1666091123221846739,0.0,0.0,0.0,0.0,0.0,0.2216551173185055
1666091123273240965,0.0,0.0,0.0,0.0,0.0,0.21674349019678404
1666091123321955224,0.0,0.0,0.0,0.0,0.0,0.21674349019678404
1666091123371836686,0.0,0.0,0.0,0.0,0.0,0.0
1666091123422110796,0.0,0.0,0.0,0.0,0.0,0.0
1666091123471861114,0.0,0.0,0.0,0.0,0.0,0.0
1666091123521934304,0.0,0.0,0.0,0.0,0.0,0.0
1666091123571963534,0.0,0.0,0.0,0.0,0.0,0.0
1666091123622226692,0.0,0.0,0.0,0.0,0.0,0.0
1666091123671971844,0.0,0.0,0.0,0.0,0.0,0.0
1666091123722697695,0.0,0.0,0.0,0.0,0.0,0.0
1666091123771882469,0.0,0.0,0.0,0.0,0.0,0.0
1666091123822235494,0.0,0.0,0.0,0.0,0.0,0.0
1666091123872013224,0.0,0.0,0.0,0.0,0.0,0.0
1666091123921910655,0.0,0.0,0.0,0.0,0.0,0.0
1666091123971882945,0.0,0.0,0.0,0.0,0.0,0.0
1666091124022028486,0.0,0.0,0.0,0.0,0.0,0.0
1666091124071815424,0.0,0.0,0.0,0.0,0.0,0.0
1666091124121826531,0.0,0.0,0.0,0.0,0.0,0.0
1666091124172038123,0.0,0.0,0.0,0.0,0.0,0.0
1666091124222163395,0.0,0.0,0.0,0.0,0.0,0.0
1666091124271836171,0.0,0.0,0.0,0.0,0.0,0.0
1666091124322321645,0.0,0.0,0.0,0.0,0.0,0.0
1666091124371786212,0.0,0.0,0.0,0.0,0.0,0.0
1666091124421947965,0.0,0.0,0.0,0.0,0.0,0.0
1666091124471956253,0.0,0.0,0.0,0.0,0.0,0.0
1666091124521891218,0.0,0.0,0.0,0.0,0.0,0.0
1666091124571869901,0.0,0.0,0.0,0.0,0.0,0.0
1666091124622015072,0.0,0.0,0.0,0.0,0.0,0.0
1666091124673587985,0.0,0.0,0.0,0.0,0.0,0.0
1666091124721861347,0.0,0.0,0.0,0.0,0.0,0.0
1666091124771835204,0.0,0.0,0.0,0.0,0.0,0.0
1666091124821918334,0.0,0.0,0.0,0.0,0.0,0.0
1666091124872302153,0.0,0.0,0.0,0.0,0.0,0.0
1666091124922397645,0.0,0.0,0.0,0.0,0.0,0.0
1666091124971913714,0.0,0.0,0.0,0.0,0.0,0.0
1666091125022139486,0.0,0.0,0.0,0.0,0.0,0.0
1666091125072044264,0.0,0.0,0.0,0.0,0.0,0.0
1666091125122038346,0.0,0.0,0.0,0.0,0.0,0.0
1666091125172096372,0.0,0.0,0.0,0.0,0.0,0.0
1666091125221933276,0.0,0.0,0.0,0.0,0.0,0.0
1666091125272255300,0.0,0.0,0.0,0.0,0.0,0.0
1666091125324335229,0.0,0.0,0.0,0.0,0.0,0.0
1666091125372196426,0.0,0.0,0.0,0.0,0.0,0.0
1666091125422545984,0.0,0.0,0.0,0.0,0.0,0.0
1666091125471936793,0.0,0.0,0.0,0.0,0.0,0.0
1666091125521998372,0.0,0.0,0.0,0.0,0.0,0.0
1666091125571982691,0.0,0.0,0.0,0.0,0.0,0.0
1666091125622019293,0.0,0.0,0.0,0.0,0.0,0.0
1666091125671813329,0.0,0.0,0.0,0.0,0.0,0.0
1666091125771840422,0.0,0.0,0.0,0.0,0.0,0.0
1666091125823041554,0.0,0.0,0.0,0.0,0.0,0.0
1666091125871918506,0.0,0.0,0.0,0.0,0.0,0.0
1666091125921802222,0.0,0.0,0.0,0.0,0.0,0.0
1666091125972357581,0.0,0.0,0.0,0.0,0.0,0.0
1666091126022627187,0.0,0.0,0.0,0.0,0.0,0.0
1666091126071871964,0.0,0.0,0.0,0.0,0.0,0.0
1666091126122371081,0.0,0.0,0.0,0.0,0.0,0.0
1666091126173530778,0.0,0.0,0.0,0.0,0.0,0.0
1666091126221834382,0.0,0.0,0.0,0.0,0.0,0.0
1666091126272825867,0.0,0.0,0.0,0.0,0.0,0.0
1666091126322494449,0.0,0.0,0.0,0.0,0.0,0.0
1666091126372763974,0.0,0.0,0.0,0.0,0.0,0.0
1666091126422179790,0.0,0.0,0.0,0.0,0.0,0.0
1666091126472289038,0.0,0.0,0.0,0.0,0.0,0.0
1666091126522304874,0.0,0.0,0.0,0.0,0.0,0.0
1666091126572096282,0.0,0.0,0.0,0.0,0.0,0.0
1666091126622654359,0.0,0.0,0.0,0.0,0.0,0.0
1666091126671935958,0.0,0.0,0.0,0.0,0.0,0.0
1666091126722316649,0.0,0.0,0.0,0.0,0.0,0.0
1666091126773179870,0.0,0.0,0.0,0.0,0.0,0.0
1666091126822486800,0.0,0.0,0.0,0.0,0.0,0.0
1666091126872116896,0.0,0.0,0.0,0.0,0.0,0.0
1666091126921843085,0.0,0.0,0.0,0.0,0.0,0.0
1666091126972170107,0.0,0.0,0.0,0.0,0.0,0.0
1666091127022734516,0.0,0.0,0.0,0.0,0.0,0.0
1666091127072521066,0.0,0.0,0.0,0.0,0.0,0.0
1666091127121984134,0.0,0.0,0.0,0.0,0.0,0.0
1666091127172127537,0.0,0.0,0.0,0.0,0.0,0.0
1666091127222127130,0.0,0.0,0.0,0.0,0.0,0.0
1666091127271835550,0.0,0.0,0.0,0.0,0.0,0.0
1666091127322746401,0.0,0.0,0.0,0.0,0.0,0.0
1666091127372001983,0.0,0.0,0.0,0.0,0.0,0.0
1666091127424698354,0.0,0.0,0.0,0.0,0.0,0.0
1666091127472006546,0.0,0.0,0.0,0.0,0.0,0.0
1666091127522442663,0.0,0.0,0.0,0.0,0.0,0.0
1666091127572262456,0.0,0.0,0.0,0.0,0.0,0.0
1666091127622785750,0.0,0.0,0.0,0.0,0.0,0.0
1666091127672099323,0.0,0.0,0.0,0.0,0.0,0.0
1666091127722338087,0.0,0.0,0.0,0.0,0.0,0.0
1666091127772202598,0.0,0.0,0.0,0.0,0.0,0.0
1666091127824043520,0.0,0.0,0.0,0.0,0.0,0.0
1666091127871927162,0.0,0.0,0.0,0.0,0.0,0.0
1666091127922838352,0.0,0.0,0.0,0.0,0.0,0.0
1666091127972621006,0.0,0.0,0.0,0.0,0.0,0.0
1666091128022203119,0.0,0.0,0.0,0.0,0.0,0.0
1666091128071969012,0.0,0.0,0.0,0.0,0.0,0.0
1666091128128438553,0.0,0.0,0.0,0.0,0.0,0.0
1666091128172334422,0.0,0.0,0.0,0.0,0.0,0.0
1666091128222748199,0.0,0.0,0.0,0.0,0.0,0.0
1666091128272229801,0.0,0.0,0.0,0.0,0.0,0.0
1666091128322423521,0.0,0.0,0.0,0.0,0.0,0.0
1666091128372946318,0.0,0.0,0.0,0.0,0.0,0.0
1666091128422236638,0.0,0.0,0.0,0.0,0.0,0.0
1666091128472357677,0.0,0.0,0.0,0.0,0.0,0.0
1666091128522029002,0.0,0.0,0.0,0.0,0.0,0.0
1666091128571899958,0.0,0.0,0.0,0.0,0.0,0.0
1666091128622230199,0.0,0.0,0.0,0.0,0.0,0.0
1666091128672166044,0.0,0.0,0.0,0.0,0.0,0.0
1666091128722598518,0.0,0.0,0.0,0.0,0.0,0.0
1666091128772354070,0.0,0.0,0.0,0.0,0.0,0.0
1666091128822266423,0.0,0.0,0.0,0.0,0.0,0.0
1666091128871959956,0.0,0.0,0.0,0.0,0.0,0.0
1666091128923728308,0.0,0.0,0.0,0.0,0.0,0.0
1666091128972013516,0.0,0.0,0.0,0.0,0.0,0.0
1666091129022482448,0.0,0.0,0.0,0.0,0.0,0.0
1666091129072037569,0.0,0.0,0.0,0.0,0.0,0.0
1666091129122089034,0.0,0.0,0.0,0.0,0.0,0.0
1666091129171901448,0.0,0.0,0.0,0.0,0.0,0.0
1666091129222347218,0.0,0.0,0.0,0.0,0.0,0.0
1666091129272018296,0.0,0.0,0.0,0.0,0.0,0.0
1666091129323511289,0.0,0.0,0.0,0.0,0.0,0.0
1666091129372717260,0.0,0.0,0.0,0.0,0.0,0.0
1666091129423710707,0.0,0.0,0.0,0.0,0.0,0.0
1666091129472213294,0.0,0.0,0.0,0.0,0.0,0.0
1666091129522250616,0.0,0.0,0.0,0.0,0.0,0.0
1666091129572080130,0.0,0.0,0.0,0.0,0.0,0.0
1666091129622194841,0.0,0.0,0.0,0.0,0.0,0.0
1666091129675061763,0.0,0.0,0.0,0.0,0.0,0.0
1666091129722300642,0.0,0.0,0.0,0.0,0.0,0.0
1666091129771905778,0.0,0.0,0.0,0.0,0.0,0.0
1666091129822064795,0.0,0.0,0.0,0.0,0.0,0.0
1666091129871917342,0.0,0.0,0.0,0.0,0.0,0.0
1666091129922014706,0.0,0.0,0.0,0.0,0.0,0.0
1666091129972505689,0.0,0.0,0.0,0.0,0.0,0.0
1666091130024069499,0.0,0.0,0.0,0.0,0.0,0.0
1666091130072162219,0.0,0.0,0.0,0.0,0.0,0.0
1666091130122113820,0.0,0.0,0.0,0.0,0.0,0.0
1666091130171851642,0.0,0.0,0.0,0.0,0.0,0.0
1666091130222765176,0.004092555679505881,0.0,0.0,0.0,0.0,-0.1
1666091130272100005,0.0,0.0,0.0,0.0,0.0,0.0
1666091130321999662,0.0,0.0,0.0,0.0,0.0,0.0
1666091130371886067,0.0,0.0,0.0,0.0,0.0,0.0
1666091130422536892,0.0,0.0,0.0,0.0,0.0,0.0
1666091130472390251,0.0,0.0,0.0,0.0,0.0,0.0
1666091130524308664,0.0,0.0,0.0,0.0,0.0,0.0
1666091130571835741,0.0,0.0,0.0,0.0,0.0,0.1
1666091130622738618,0.0,0.0,0.0,0.0,0.0,0.2
1666091130672626786,0.0,0.0,0.0,0.0,0.0,0.22240200704744145
1666091130722290089,0.0,0.0,0.0,0.0,0.0,0.22968466574494703
1666091130772982481,0.0,0.0,0.0,0.0,0.0,0.22968466574494703
1666091130822890153,0.0,0.0,0.0,0.0,0.0,0.23668187034531715
1666091130872080799,0.0,0.0,0.0,0.0,0.0,0.23948431075438406
1666091130922012799,0.0,0.0,0.0,0.0,0.0,0.23948431075438406
1666091130972626683,0.0,0.0,0.0,0.0,0.0,0.25057562594156557
1666091131023268702,0.0,0.0,0.0,0.0,0.0,0.25057562594156557
1666091131072532608,0.0,0.0,0.0,0.0,0.0,0.251205465654434
1666091131122307928,0.0,0.0,0.0,0.0,0.0,0.251205465654434
1666091131172096121,0.0,0.0,0.0,0.0,0.0,0.25625869133279566
1666091131222043982,0.0,0.0,0.0,0.0,0.0,0.25625869133279566
1666091131272623660,0.0,0.0,0.0,0.0,0.0,0.2544195461790304
1666091131322295251,0.0,0.0,0.0,0.0,0.0,0.2544195461790304
1666091131372477163,0.0,0.0,0.0,0.0,0.0,0.25325669781207716
1666091131422140316,0.0,0.0,0.0,0.0,0.0,0.25325669781207716
1666091131471957822,0.0,0.0,0.0,0.0,0.0,0.25325669781207716
1666091131522234526,0.0,0.0,0.0,0.0,0.0,0.2562771162760929
1666091131572032881,0.0,0.0,0.0,0.0,0.0,0.25247602665732
1666091131623113011,0.0,0.0,0.0,0.0,0.0,0.25247602665732
1666091131672229112,0.0,0.0,0.0,0.0,0.0,0.25247602665732
1666091131722044941,0.0,0.0,0.0,0.0,0.0,0.2544618319347442
1666091131772312147,0.0,0.0,0.0,0.0,0.0,0.24527971143134347
1666091131822064689,0.0,0.0,0.0,0.0,0.0,0.24597567256273123
1666091131871902412,0.0,0.0,0.0,0.0,0.0,0.24597567256273123
1666091131922453111,0.0,0.0,0.0,0.0,0.0,0.2389134663269872
1666091131971850712,0.0,0.0,0.0,0.0,0.0,0.2389134663269872
1666091132022542619,0.0,0.0,0.0,0.0,0.0,0.2389134663269872
1666091132072379242,0.0,0.0,0.0,0.0,0.0,0.24573885168216852
1666091132121965717,0.0,0.0,0.0,0.0,0.0,0.23575060302549097
1666091132172019749,0.0,0.0,0.0,0.0,0.0,0.23575060302549097
1666091132222058169,0.0,0.0,0.0,0.0,0.0,0.23575060302549097
1666091132271939715,0.0,0.0,0.0,0.0,0.0,0.24486033186180506
1666091132322812023,0.0,0.0,0.0,0.0,0.0,0.24486033186180506
1666091132372451204,0.0,0.0,0.0,0.0,0.0,0.2348035028742045
1666091132422044735,0.0,0.0,0.0,0.0,0.0,0.2348035028742045
1666091132471954394,0.0,0.0,0.0,0.0,0.0,0.2319995840510343
1666091132522631753,0.0,0.0,0.0,0.0,0.0,0.2269140524412511
1666091132571884103,0.0,0.0,0.0,0.0,0.0,0.2269140524412511
1666091132622049145,0.0,0.0,0.0,0.0,0.0,0.2269140524412511
1666091132671891782,0.0,0.0,0.0,0.0,0.0,0.22206853051227263
1666091132721832059,0.0,0.0,0.0,0.0,0.0,0.22206853051227263
1666091132771879117,0.0,0.0,0.0,0.0,0.0,0.22206853051227263
1666091132822357730,0.0,0.0,0.0,0.0,0.0,0.0
1666091132871813853,0.0,0.0,0.0,0.0,0.0,0.0
1666091132922088147,0.0,0.0,0.0,0.0,0.0,0.0
1666091132972228222,0.0,0.0,0.0,0.0,0.0,0.0
1666091133022078021,0.0,0.0,0.0,0.0,0.0,0.0
1666091133072422390,0.0,0.0,0.0,0.0,0.0,0.0
1666091133121826945,0.0,0.0,0.0,0.0,0.0,0.0
1666091133171850938,0.0,0.0,0.0,0.0,0.0,0.0
1666091133222923166,0.0,0.0,0.0,0.0,0.0,0.0
1666091133271970811,0.0,0.0,0.0,0.0,0.0,0.0
1666091133322026360,0.0,0.0,0.0,0.0,0.0,0.0
1666091133372254369,0.0,0.0,0.0,0.0,0.0,0.0
1666091133422542375,0.0,0.0,0.0,0.0,0.0,0.0
1666091133472042499,0.0,0.0,0.0,0.0,0.0,0.0
1666091133521816355,0.0,0.0,0.0,0.0,0.0,0.0
1666091133572017575,0.0,0.0,0.0,0.0,0.0,0.0
1666091133621921783,0.0,0.0,0.0,0.0,0.0,0.0
1666091133672307694,0.0,0.0,0.0,0.0,0.0,0.0
1666091133721828188,0.0,0.0,0.0,0.0,0.0,0.0
1666091133772242869,0.0,0.0,0.0,0.0,0.0,0.0
1666091133822519612,0.0,0.0,0.0,0.0,0.0,0.0
1666091133871802043,0.0,0.0,0.0,0.0,0.0,0.0
1666091133922388283,0.0,0.0,0.0,0.0,0.0,0.0
1666091133972304760,0.0,0.0,0.0,0.0,0.0,0.0
1666091134022180706,0.0,0.0,0.0,0.0,0.0,0.0
1666091134072463093,0.0,0.0,0.0,0.0,0.0,0.0
1666091134121804808,0.0,0.0,0.0,0.0,0.0,0.0
1666091134171960243,0.0,0.0,0.0,0.0,0.0,0.0
1666091134221982616,0.0,0.0,0.0,0.0,0.0,0.0
1666091134272656514,0.0,0.0,0.0,0.0,0.0,0.0
1666091134322050007,0.0,0.0,0.0,0.0,0.0,0.0
1666091134372120467,0.0,0.0,0.0,0.0,0.0,0.0
1666091134421891460,0.0,0.0,0.0,0.0,0.0,0.0
1666091134472084331,0.0,0.0,0.0,0.0,0.0,0.0
1666091134521858837,0.0,0.0,0.0,0.0,0.0,0.0
1666091134572324765,0.0,0.0,0.0,0.0,0.0,0.0
1666091134623410546,0.0,0.0,0.0,0.0,0.0,0.0
1666091134672809672,0.0,0.0,0.0,0.0,0.0,0.0
1666091134722298240,0.0,0.0,0.0,0.0,0.0,0.0
1666091134772567699,0.0,0.0,0.0,0.0,0.0,0.0
1666091134822298094,0.0,0.0,0.0,0.0,0.0,0.0
