%time,field.x,field.y,field.z
1666088299456135285,0.0,0.0,0.0
1666088299507898272,0.0,0.0,0.0
1666088299619232415,0.0,0.0,0.0
1666088299721068344,0.0,0.0,0.0
1666088299721260345,0.0,0.0,0.0
1666088299798700191,0.0,0.0,0.0
1666088299899509961,0.0,0.0,0.0
1666088299945526990,0.0,0.0,0.0
1666088300006029580,0.0,0.0,0.0
1666088300071864217,0.0,0.0,0.0
1666088300184227481,0.0,0.0,0.0
1666088300269762092,0.0,0.0,0.0
1666088300371048017,0.0,0.0,0.0
1666088300431154739,0.0,0.0,0.0
1666088300431343099,0.0,0.0,0.0
1666088300523017615,0.0,0.0,0.0
1666088300598637994,0.0,0.0,0.0
1666088300689973462,0.0,0.0,0.0
1666088300801943877,0.0,0.0,0.0
1666088300802089193,0.0,0.0,0.0
1666088300889755235,0.0,0.0,0.0
1666088300972181548,0.0,0.0,0.0
1666088301072192846,0.0,0.0,0.0
1666088301164708455,0.0,0.0,0.0
1666088301164844221,0.0,0.0,0.0
1666088301245842550,0.0,0.0,0.0
1666088301318715986,0.0,0.0,0.0
1666088301401016986,0.0,0.0,0.0
1666088301533290044,0.0,0.0,0.0
1666088301541331473,0.0,0.0,0.0
1666088301610546212,0.0,0.0,0.0
1666088301679702923,0.0,0.0,0.0
1666088301775186001,0.0,0.0,0.0
1666088301826387648,0.0,0.0,0.0
1666088301878645679,0.0,0.0,0.0
1666088301942212161,0.0,0.0,0.0
1666088302004128925,0.0,0.0,0.0
1666088302134231881,0.0,0.0,0.0
1666088302143469147,0.0,0.0,0.0
1666088302243339976,0.0,0.0,0.0
1666088302341092929,0.584368109703064,-0.5933253765106201,0.0
1666088302423478909,0.5208563208580017,-0.6869709491729736,0.0
1666088302424985756,0.5356428623199463,-0.7610881924629211,0.0
1666088302479891114,0.48865658044815063,-0.8111598491668701,0.0
1666088302576086958,0.4581548869609833,-0.830544114112854,0.0
1666088302636270623,0.4404515027999878,-0.8389795422554016,0.0
1666088302762649294,0.433712899684906,-0.8661495447158813,0.0
1666088302763870454,0.4732202887535095,-0.8197744488716125,0.0
1666088302905492829,0.48530206084251404,-0.7875704765319824,0.0
1666088302906811160,0.49841684103012085,-0.779976487159729,0.0
1666088302991408453,0.4884991943836212,-0.7906836271286011,0.0
1666088303105773774,0.5008249282836914,-0.7562767863273621,0.0
1666088303152528396,0.519622802734375,-0.7390986680984497,0.0
1666088303245742788,0.5140978693962097,-0.7404995560646057,0.0
1666088303324822951,0.5191285014152527,-0.7332742810249329,0.0
1666088303372141501,0.5265372395515442,-0.7211090922355652,0.0
1666088303393881524,0.5387753844261169,-0.705192506313324,0.0
1666088303461513583,0.5710880756378174,-0.6911383867263794,0.0
1666088303600266962,0.6045635938644409,-0.6706773638725281,0.0
1666088303609053312,0.6363503336906433,-0.6440179347991943,0.0
1666088303733816359,0.6636353731155396,-0.608620285987854,0.0
1666088303735341325,0.6966419219970703,-0.5679476261138916,0.0
1666088303848195195,0.746494710445404,-0.49652379751205444,0.0
1666088303900070027,0.7782352566719055,-0.4344870448112488,0.0
1666088303970744644,0.8036587834358215,-0.38343316316604614,0.0
1666088304035123521,0.8271098732948303,-0.32948917150497437,0.0
1666088304104042646,0.8455725908279419,-0.31014198064804077,0.0
1666088304226947251,0.8501318693161011,-0.2879888117313385,0.0
1666088304295163262,0.8651215434074402,-0.2723136246204376,0.0
1666088304372025040,0.8655287027359009,-0.25434139370918274,0.0
1666088304412213203,0.8745614886283875,-0.24333803355693817,0.0
1666088304475527694,0.8637812733650208,-0.22382915019989014,0.0
1666088304537718592,0.8556124567985535,-0.20795486867427826,0.0
1666088304641879800,0.8597089052200317,-0.19829925894737244,0.0
1666088304701569886,0.8511604070663452,-0.1880032867193222,0.0
1666088304749123869,0.8536053895950317,-0.18822266161441803,0.0
1666088304843164203,0.8454587459564209,-0.1877124011516571,0.0
1666088304874174936,0.8375120162963867,-0.1917615681886673,0.0
1666088304947040092,0.8437361717224121,-0.19713763892650604,0.0
1666088305053136725,0.8405659198760986,-0.2093077450990677,0.0
1666088305128854587,0.8370777368545532,-0.22206535935401917,0.0
1666088305209959595,0.8405808210372925,-0.23133309185504913,0.0
1666088305276135566,0.8423303961753845,-0.24749216437339783,0.0
1666088305309815716,0.8419152498245239,-0.2615952491760254,0.0
1666088305373624001,0.8438448905944824,-0.2769472002983093,0.0
1666088305442879937,0.8480873703956604,-0.28882136940956116,0.0
1666088305561069970,0.8498688340187073,-0.3033718168735504,0.0
1666088305660173119,0.8586955666542053,-0.3224729895591736,0.0
1666088305708414714,0.8655605316162109,-0.342455118894577,0.0
1666088305765855798,0.8686362504959106,-0.35960498452186584,0.0
1666088305827635919,0.8773698210716248,-0.3758153021335602,0.0
1666088305950014160,0.8819217085838318,-0.38639843463897705,0.0
1666088306007312348,0.8921399116516113,-0.39732587337493896,0.0
1666088306109234801,0.9011514782905579,-0.40925830602645874,0.0
1666088306205905751,0.9105951189994812,-0.4190830588340759,0.0
1666088306283779851,0.9245478510856628,-0.41624757647514343,0.0
1666088306321145104,0.9271210432052612,-0.41873541474342346,0.0
1666088306386061213,0.9337024688720703,-0.4190157651901245,0.0
1666088306475401018,0.939223051071167,-0.4153032898902893,0.0
1666088306521674754,0.9509103894233704,-0.4096037447452545,0.0
1666088306607532411,0.9686104655265808,-0.4038875997066498,0.0
1666088306685840700,1.0030121803283691,-0.38542741537094116,0.0
1666088306720221168,1.025586724281311,-0.38143470883369446,0.0
1666088306784955611,1.057665467262268,-0.38155701756477356,0.0
1666088306849717774,1.0836549997329712,-0.38045361638069153,0.0
1666088306936287237,1.1127536296844482,-0.37903472781181335,0.0
1666088306982693189,1.1479400396347046,-0.3791319727897644,0.0
1666088307083081631,1.182667851448059,-0.3782075345516205,0.0
1666088307116895649,1.2138782739639282,-0.37524810433387756,0.0
1666088307202557436,1.2440801858901978,-0.3700089156627655,0.0
1666088307287147353,1.2690670490264893,-0.36494317650794983,0.0
1666088307348462858,1.2818398475646973,-0.35763126611709595,0.0
1666088307386151799,1.2846511602401733,-0.3532945513725281,0.0
1666088307480558337,1.2937428951263428,-0.3509674370288849,0.0
1666088307546116954,1.3104355335235596,-0.35643190145492554,0.0
1666088307604059174,1.3105251789093018,-0.3564798831939697,0.0
1666088307690105525,1.3116841316223145,-0.3562125265598297,0.0
1666088307718180427,1.3176426887512207,-0.35758399963378906,0.0
1666088307820760799,1.3205474615097046,-0.3608570992946625,0.0
1666088307845655096,1.3215876817703247,-0.3645179271697998,0.0
1666088307976766999,1.3182672262191772,-0.36865803599357605,0.0
1666088308048479940,1.3153225183486938,-0.3719455301761627,0.0
1666088308111368140,1.31162428855896,-0.37564265727996826,0.0
1666088308214060522,1.3108699321746826,-0.3810337781906128,0.0
1666088308215530660,1.3084661960601807,-0.38718944787979126,0.0
1666088308298273794,1.2953672409057617,-0.3892836272716522,0.0
1666088308387223961,1.3008815050125122,-0.4009762704372406,0.0
1666088308459748867,1.3097560405731201,-0.4147818088531494,0.0
1666088308578092564,1.317210078239441,-0.42926162481307983,0.0
1666088308579950277,1.3251546621322632,-0.4463445544242859,0.0
1666088308705675706,1.3268650770187378,-0.46056243777275085,0.0
1666088308798394928,1.324172019958496,-0.4747079610824585,0.0
1666088308885581408,1.324087381362915,-0.48852643370628357,0.0
1666088308886910472,1.3166946172714233,-0.5026360154151917,0.0
1666088308979597577,1.3022494316101074,-0.527836263179779,0.0
1666088309067765809,1.285491704940796,-0.5492619872093201,0.0
1666088309149635307,1.2797324657440186,-0.5685261487960815,0.0
1666088309219725126,1.263781189918518,-0.5849154591560364,0.0
1666088309360316483,1.2480121850967407,-0.5994768142700195,0.0
1666088309384621810,1.2398743629455566,-0.6145457029342651,0.0
1666088309449876342,1.2206168174743652,-0.6252718567848206,0.0
1666088309539290938,1.2007930278778076,-0.6355093121528625,0.0
1666088309628477159,1.182908296585083,-0.6412226557731628,0.0
1666088309697458700,1.1583696603775024,-0.6420907974243164,0.0
1666088309818091745,1.1422696113586426,-0.6483376026153564,0.0
1666088309886964478,1.127205729484558,-0.6503076553344727,0.0
1666088310036534685,1.1188703775405884,-0.6510531902313232,0.0
1666088310037837391,1.1006239652633667,-0.6436187624931335,0.0
1666088310128441797,1.0846526622772217,-0.6305801868438721,0.0
1666088310276312268,1.062941074371338,-0.6125171780586243,0.0
1666088310277795563,1.0422642230987549,-0.5923996567726135,0.0
1666088310381222675,1.0292795896530151,-0.572785496711731,0.0
1666088310447900531,1.0269129276275635,-0.5535151362419128,0.0
1666088310521977156,1.0283737182617188,-0.5318946242332458,0.0
1666088310651753241,1.0296962261199951,-0.5045269727706909,0.0
1666088310678997206,1.0344531536102295,-0.4709986448287964,0.0
1666088310744383491,1.0365580320358276,-0.435606986284256,0.0
1666088310852318872,1.0415419340133667,-0.38861507177352905,0.0
1666088310909267831,1.0275218486785889,-0.3329791724681854,0.0
1666088311035258403,1.0309782028198242,-0.2831887900829315,0.0
1666088311055716945,1.0412774085998535,-0.22718383371829987,0.0
1666088311130426165,1.0350558757781982,-0.1757936030626297,0.0
1666088311215425146,1.041190505027771,-0.1365138739347458,0.0
1666088311315078803,1.0493263006210327,-0.0838358998298645,0.0
1666088311386735043,1.055243968963623,-0.041516389697790146,0.0
1666088311462342023,1.0554530620574951,-0.002815522253513336,0.0
1666088311550279273,1.0584286451339722,0.027566563338041306,0.0
1666088311614291388,1.055091381072998,0.05716363713145256,0.0
1666088311683397285,1.0507630109786987,0.08155599236488342,0.0
1666088311750583840,1.0401989221572876,0.10093440115451813,0.0
1666088311830347990,1.0218998193740845,0.11309902369976044,0.0
1666088311934653734,1.0053811073303223,0.12320888787508011,0.0
1666088312016893408,0.987043023109436,0.12942326068878174,0.0
1666088312080361257,0.9737749099731445,0.13358618319034576,0.0
1666088312134301694,0.9642924070358276,0.13319478929042816,0.0
1666088312198591975,0.9523432850837708,0.13378027081489563,0.0
1666088312274638856,0.9522309899330139,0.13361391425132751,0.0
1666088312323250044,0.9488123655319214,0.13405205309391022,0.0
1666088312411448766,0.9421842098236084,0.13618060946464539,0.0
1666088312458089461,0.9379769563674927,0.14131975173950195,0.0
1666088312545428274,0.9345071315765381,0.15104208886623383,0.0
1666088312593215402,0.9372192025184631,0.15424299240112305,0.0
1666088312652647473,0.9434025883674622,0.16029837727546692,0.0
1666088312714236097,0.9600009918212891,0.1645888090133667,0.0
1666088312802022917,0.9751362800598145,0.17074909806251526,0.0
1666088312884016102,0.9837363958358765,0.17750795185565948,0.0
1666088312924125779,0.9952802062034607,0.18378299474716187,0.0
1666088312990803962,1.0094163417816162,0.1901279240846634,0.0
1666088313053891758,1.0294175148010254,0.19891329109668732,0.0
1666088313116881080,1.047421932220459,0.20864684879779816,0.0
1666088313202595833,1.065181016921997,0.22124630212783813,0.0
1666088313251480134,1.0828394889831543,0.23247773945331573,0.0
1666088313337106174,1.1011487245559692,0.24195142090320587,0.0
1666088313383394080,1.1189969778060913,0.248647078871727,0.0
1666088313488317904,1.134924054145813,0.25183501839637756,0.0
1666088313538659509,1.1514956951141357,0.25347068905830383,0.0
1666088313591606356,1.1678060293197632,0.2556309103965759,0.0
1666088313701816589,1.184329867362976,0.2561551332473755,0.0
1666088313708190411,1.2008211612701416,0.2561204433441162,0.0
1666088313817142141,1.214759349822998,0.2568887174129486,0.0
1666088313881955266,1.2297751903533936,0.25861385464668274,0.0
1666088313981925216,1.2462931871414185,0.26083964109420776,0.0
1666088314024333818,1.2623432874679565,0.2692563831806183,0.0
1666088314165405162,1.2695448398590088,0.27800747752189636,0.0
1666088314212041892,1.2754855155944824,0.2870388627052307,0.0
1666088314312842226,1.284368634223938,0.29085013270378113,0.0
1666088314355318764,1.288004755973816,0.30010247230529785,0.0
1666088314445069367,1.2856439352035522,0.3085153102874756,0.0
1666088314489888988,1.2879252433776855,0.3222789764404297,0.0
1666088314584425764,1.278961181640625,0.3347921073436737,0.0
1666088314628119271,1.2670016288757324,0.3490305244922638,0.0
1666088314717630977,1.2550199031829834,0.36488381028175354,0.0
1666088314762768925,1.2416529655456543,0.37960532307624817,0.0
1666088314855733157,1.2299894094467163,0.39682576060295105,0.0
1666088314896211816,1.216119647026062,0.4141300618648529,0.0
1666088314987648377,1.2044835090637207,0.42755791544914246,0.0
1666088315054546377,1.1951404809951782,0.44181686639785767,0.0
1666088315117633515,1.1911566257476807,0.4624495506286621,0.0
1666088315186769076,1.183000087738037,0.4770660996437073,0.0
1666088315259013895,1.170824408531189,0.49138370156288147,0.0
1666088315285043907,1.153738260269165,0.5026857256889343,0.0
1666088315343893627,1.1377487182617188,0.509658932685852,0.0
1666088315469473243,1.1228541135787964,0.5155179500579834,0.0
1666088315558240867,1.106681227684021,0.5231807231903076,0.0
1666088315559832810,1.1005181074142456,0.5299464464187622,0.0
1666088315648323038,1.0912764072418213,0.5418633818626404,0.0
1666088315726535520,1.088297724723816,0.5343180298805237,0.0
1666088315886341334,1.085700273513794,0.5169693231582642,0.0
1666088315887703833,1.096646785736084,0.5107195377349854,0.0
1666088316014850096,1.1061123609542847,0.4908979535102844,0.0
1666088316016126183,1.1161820888519287,0.4672398269176483,0.0
1666088316113606011,1.1179020404815674,0.43352940678596497,0.0
1666088316242749656,1.127551794052124,0.3993035554885864,0.0
1666088316267056375,1.136499047279358,0.35764452815055847,0.0
1666088316343820760,1.1437523365020752,0.3063097298145294,0.0
1666088316441716228,1.1503697633743286,0.2466956079006195,0.0
1666088316526991876,1.1648129224777222,0.19693788886070251,0.0
1666088316595571998,1.177357792854309,0.14239847660064697,0.0
1666088316695243647,1.1923271417617798,0.08801576495170593,0.0
1666088316804889078,1.2002904415130615,0.04677350074052811,0.0
1666088316817538225,1.2046353816986084,0.012560407631099224,0.0
1666088316920969730,1.2049318552017212,-0.02744840830564499,0.0
1666088317022758490,1.196962833404541,-0.07169400900602341,0.0
1666088317113906984,1.181779146194458,-0.12019232660531998,0.0
1666088317228266055,1.191218614578247,-0.1453913152217865,0.0
1666088317310522796,1.1719458103179932,-0.18788406252861023,0.0
1666088317426601264,1.1536709070205688,-0.2269761860370636,0.0
1666088317483912518,1.1309808492660522,-0.26946282386779785,0.0
1666088317558483372,1.1081024408340454,-0.30026692152023315,0.0
1666088317684743668,1.0828347206115723,-0.3272261321544647,0.0
1666088317728383508,1.0616137981414795,-0.3507000803947449,0.0
1666088317806575913,1.0462898015975952,-0.36943143606185913,0.0
1666088317859169614,1.0291824340820312,-0.3858641982078552,0.0
1666088317968991556,1.0156114101409912,-0.40140771865844727,0.0
1666088317984446921,1.0029863119125366,-0.41629505157470703,0.0
1666088318056419206,0.9911102652549744,-0.43470877408981323,0.0
1666088318149562534,0.9735985994338989,-0.455930233001709,0.0
1666088318276624997,0.958660364151001,-0.47355785965919495,0.0
1666088318322638247,0.9427947998046875,-0.49120551347732544,0.0
1666088318382421726,0.9259307384490967,-0.5090194940567017,0.0
1666088318512071032,0.90681391954422,-0.5258890986442566,0.0
1666088318561670515,0.8919561505317688,-0.5404691696166992,0.0
1666088318636998355,0.873680591583252,-0.5589889883995056,0.0
1666088318716855230,0.8564977049827576,-0.5773205757141113,0.0
1666088318757428121,0.8412386775016785,-0.5940275192260742,0.0
1666088318875004039,0.8245626091957092,-0.6131084561347961,0.0
1666088318876643818,0.8125659227371216,-0.6423965692520142,0.0
1666088318956524625,0.7962953448295593,-0.6676285862922668,0.0
1666088319056645604,0.7783789038658142,-0.6987940073013306,0.0
1666088319126124796,0.7686671018600464,-0.7247797250747681,0.0
1666088319231519636,0.7470744252204895,-0.7429825067520142,0.0
1666088319325143661,0.7284429669380188,-0.7576109170913696,0.0
1666088319338412984,0.7152318358421326,-0.7787167429924011,0.0
1666088319401444239,0.7069861888885498,-0.803870677947998,0.0
1666088319515442499,0.6984080076217651,-0.8298379778862,0.0
1666088319579461057,0.6877971291542053,-0.8505549430847168,0.0
1666088319642791878,0.6808117628097534,-0.8708239793777466,0.0
1666088319699816239,0.6773549914360046,-0.8940277695655823,0.0
1666088319766956265,0.6759595274925232,-0.9226405024528503,0.0
1666088319832165328,0.6864902377128601,-0.9560618996620178,0.0
1666088319934861113,0.7046511173248291,-0.9828405380249023,0.0
1666088320041108834,0.7267096042633057,-1.000494360923767,0.0
1666088320056291910,0.7514052391052246,-1.0119211673736572,0.0
1666088320121832858,0.7796571254730225,-1.0182348489761353,0.0
1666088320185687005,0.8188349604606628,-1.013431429862976,0.0
1666088320306615108,0.8637973070144653,-1.0001283884048462,0.0
1666088320359611110,0.9059407711029053,-0.9755873680114746,0.0
1666088320422882851,0.9511134028434753,-0.9480125308036804,0.0
1666088320504157238,1.0039350986480713,-0.9161944389343262,0.0
1666088320544752253,1.0601576566696167,-0.8734585642814636,0.0
1666088320609414377,1.1129530668258667,-0.826824426651001,0.0
1666088320723073421,1.169464111328125,-0.7718251943588257,0.0
1666088320764535476,1.2219722270965576,-0.7143995761871338,0.0
1666088320798979666,1.2636648416519165,-0.6765947937965393,0.0
1666088320894015493,1.303196907043457,-0.6266788840293884,0.0
1666088320980652061,1.340227723121643,-0.5452533960342407,0.0
1666088321051546658,1.3663568496704102,-0.4754340648651123,0.0
1666088321122087423,1.395134449005127,-0.4070549011230469,0.0
1666088321165858646,1.4208837747573853,-0.36099380254745483,0.0
1666088321221949852,1.4469459056854248,-0.31518054008483887,0.0
1666088321328865021,1.4678772687911987,-0.2713843286037445,0.0
1666088321396143408,1.4835577011108398,-0.22534514963626862,0.0
1666088321416584441,1.4859163761138916,-0.18253500759601593,0.0
1666088321487542093,1.4528014659881592,-0.13844594359397888,0.0
1666088321608236900,1.4410488605499268,-0.1045636460185051,0.0
1666088321700357021,1.423187494277954,-0.07584244012832642,0.0
1666088321768469553,1.4065181016921997,-0.04893229156732559,0.0
1666088321888185713,1.3694047927856445,-0.0285305418074131,0.0
1666088321933716992,1.32289457321167,-0.015860840678215027,0.0
1666088321990230850,1.2981280088424683,-0.0032126232981681824,0.0
1666088322063560216,1.2796305418014526,0.009889254346489906,0.0
1666088322178663037,1.2510162591934204,0.023236187174916267,0.0
1666088322222071978,1.2215244770050049,0.03852693364024162,0.0
1666088322342477685,1.1797734498977661,0.05745956301689148,0.0
1666088322436815900,1.1384730339050293,0.07501689344644547,0.0
1666088322518235774,1.102198839187622,0.09016002714633942,0.0
1666088322623852779,1.063933253288269,0.10936807096004486,0.0
1666088322730013999,1.0321406126022339,0.1318967044353485,0.0
1666088322818162917,1.0009233951568604,0.15638020634651184,0.0
1666088322820020119,0.9777060151100159,0.17763492465019226,0.0
1666088322951579381,0.9457480907440186,0.19732071459293365,0.0
1666088322997330802,0.9087393879890442,0.21406632661819458,0.0
1666088323066656657,0.875954806804657,0.22884023189544678,0.0
1666088323177269629,0.8450976610183716,0.24514813721179962,0.0
1666088323248397007,0.8324674963951111,0.2575931251049042,0.0
1666088323378686874,0.8195486068725586,0.2697937786579132,0.0
1666088323457363149,0.820775032043457,0.2725067138671875,0.0
1666088323541987943,0.8451465368270874,0.27488231658935547,0.0
1666088323718600091,0.8766533136367798,0.2660336196422577,0.0
1666088323719722020,0.9164581894874573,0.25948166847229004,0.0
1666088323819314054,0.9526398181915283,0.24758310616016388,0.0
1666088323930698530,0.9915169477462769,0.22548037767410278,0.0
1666088324011304874,1.0285800695419312,0.1986379623413086,0.0
1666088324101560556,1.0635888576507568,0.17174412310123444,0.0
1666088324172725816,1.092305064201355,0.14591893553733826,0.0
1666088324251571435,1.1150562763214111,0.12188677489757538,0.0
1666088324351669320,1.1433405876159668,0.0936996266245842,0.0
1666088324486338823,1.163498044013977,0.06485937535762787,0.0
1666088324576569790,1.1885368824005127,0.03478946164250374,0.0
1666088324578455682,1.2056169509887695,0.004234758205711842,0.0
1666088324651351681,1.226309895515442,-0.026817813515663147,0.0
1666088324793967414,1.2446413040161133,-0.06490501016378403,0.0
1666088324800831873,1.2547950744628906,-0.09801607578992844,0.0
1666088324959021778,1.2614847421646118,-0.13279443979263306,0.0
1666088324967878021,1.2675327062606812,-0.17056810855865479,0.0
1666088325043066207,1.2732995748519897,-0.20572763681411743,0.0
1666088325110274980,1.2828789949417114,-0.24367673695087433,0.0
1666088325255055950,1.287590503692627,-0.2798973023891449,0.0
1666088325300096991,1.28496515750885,-0.3094523549079895,0.0
1666088325364897544,1.2902666330337524,-0.33701083064079285,0.0
1666088325442338894,1.2920703887939453,-0.3599913418292999,0.0
1666088325516852890,1.3023827075958252,-0.3813212513923645,0.0
1666088325653422794,1.3065600395202637,-0.39906710386276245,0.0
1666088325684141711,1.3092950582504272,-0.41427579522132874,0.0
1666088325751978150,1.3059005737304688,-0.425101637840271,0.0
1666088325859806374,1.2995176315307617,-0.43115755915641785,0.0
1666088325923269014,1.2901077270507812,-0.4335308372974396,0.0
1666088326021172479,1.2811533212661743,-0.4333445131778717,0.0
1666088326067462748,1.2697410583496094,-0.4329165518283844,0.0
1666088326143112825,1.2506641149520874,-0.43089577555656433,0.0
1666088326197143285,1.2315852642059326,-0.4313977360725403,0.0
1666088326271074310,1.2097078561782837,-0.43117833137512207,0.0
1666088326337227399,1.1846894025802612,-0.428754985332489,0.0
1666088326386358160,1.1591469049453735,-0.4264502227306366,0.0
1666088326448988217,1.1302433013916016,-0.4197467565536499,0.0
1666088326540775384,1.0982186794281006,-0.41432416439056396,0.0
1666088326562611410,1.063231348991394,-0.4107748568058014,0.0
1666088326665725259,1.0296128988265991,-0.40877875685691833,0.0
1666088326673625045,0.993390679359436,-0.4039767384529114,0.0
1666088326774212945,0.9546550512313843,-0.39988136291503906,0.0
1666088326862169370,0.9155091643333435,-0.39461472630500793,0.0
1666088326959921187,0.8760932087898254,-0.39501091837882996,0.0
1666088327068239472,0.8385571241378784,-0.3887360990047455,0.0
1666088327069597955,0.80255126953125,-0.385093629360199,0.0
1666088327184671079,0.7684662342071533,-0.3851022720336914,0.0
1666088327186098047,0.7406954169273376,-0.37607842683792114,0.0
1666088327316756335,0.7183333039283752,-0.3670462965965271,0.0
1666088327364682272,0.6926161050796509,-0.3665691614151001,0.0
1666088327443565081,0.6720917224884033,-0.36536040902137756,0.0
1666088327490464035,0.6529315710067749,-0.36020776629447937,0.0
1666088327569802026,0.6384903192520142,-0.35325804352760315,0.0
1666088327620383169,0.6285808086395264,-0.34433257579803467,0.0
1666088327680870275,0.625260055065155,-0.3328438997268677,0.0
1666088327754395837,0.6451498866081238,-0.29593077301979065,0.0
1666088327825622186,0.6607886552810669,-0.25990134477615356,0.0
1666088327939508097,0.6812942028045654,-0.2257658839225769,0.0
1666088328043569328,0.6830873489379883,-0.21331997215747833,0.0
1666088328045533524,0.6990151405334473,-0.1868906319141388,0.0
1666088328149583295,0.712652862071991,-0.1726134866476059,0.0
1666088328239517489,0.7222250699996948,-0.15522664785385132,0.0
1666088328280500760,0.730875551700592,-0.13658951222896576,0.0
1666088328330302328,0.7452963590621948,-0.1250513345003128,0.0
1666088328398077146,0.7531212568283081,-0.10992056876420975,0.0
1666088328469487626,0.75991290807724,-0.09711229056119919,0.0
1666088328570168625,0.7636697292327881,-0.08424034714698792,0.0
1666088328658274745,0.7638302445411682,-0.07453659176826477,0.0
1666088328717067370,0.7682844996452332,-0.06985156238079071,0.0
1666088328786278124,0.7712083458900452,-0.06592250615358353,0.0
1666088328844924976,0.7768061757087708,-0.06582201272249222,0.0
1666088328912635326,0.782106339931488,-0.06750733405351639,0.0
1666088328960976471,0.7841324806213379,-0.06591301411390305,0.0
1666088329035087701,0.7845039367675781,-0.06449119001626968,0.0
1666088329137643703,0.7856138348579407,-0.0623742900788784,0.0
1666088329234163537,0.7875242233276367,-0.06473296880722046,0.0
1666088329381362029,0.7896979451179504,-0.06796752661466599,0.0
1666088329477146189,0.7901275753974915,-0.07195030897855759,0.0
1666088329479130651,0.7897013425827026,-0.07452813535928726,0.0
1666088329553163655,0.7911230325698853,-0.07763161510229111,0.0
1666088329665984668,0.7903178334236145,-0.07954324036836624,0.0
1666088329721770101,0.7896623015403748,-0.08177509158849716,0.0
1666088329800503533,0.7909048199653625,-0.08430960774421692,0.0
1666088329847733884,0.7924611568450928,-0.08661643415689468,0.0
1666088329905813832,0.7949055433273315,-0.08946620672941208,0.0
1666088329995922346,0.7959438562393188,-0.09142009168863297,0.0
1666088330044220633,0.7971749901771545,-0.09305832535028458,0.0
1666088330160167090,0.7943334579467773,-0.0934019610285759,0.0
1666088330162442393,0.7917811274528503,-0.09350179880857468,0.0
1666088330247555044,0.7895219326019287,-0.09371022880077362,0.0
1666088330334939015,0.7874572277069092,-0.09424982219934464,0.0
1666088330427316727,0.7866388559341431,-0.09471294283866882,0.0
1666088330508004790,0.7848033308982849,-0.09554675966501236,0.0
1666088330509277315,0.7829232215881348,-0.09670025110244751,0.0
1666088330574378002,0.7864750027656555,-0.09965060651302338,0.0
1666088330666506262,0.7866171598434448,-0.10125790536403656,0.0
1666088330726794493,0.7842312455177307,-0.1006012037396431,0.0
1666088330864993773,0.7860953211784363,-0.10131874680519104,0.0
1666088330866385360,0.7888110280036926,-0.10313895344734192,0.0
1666088330931111828,0.7902690172195435,-0.10538175702095032,0.0
1666088331029728142,0.7871501445770264,-0.10419545322656631,0.0
1666088331145629607,0.7841747403144836,-0.1041613519191742,0.0
1666088331234158125,0.781453013420105,-0.10366250574588776,0.0
1666088331325090739,0.7789384126663208,-0.1028032973408699,0.0
1666088331434767245,0.7800062894821167,-0.10272115468978882,0.0
1666088331544662141,0.7780795693397522,-0.10177896171808243,0.0
1666088331649627154,0.7763031125068665,-0.1019003763794899,0.0
1666088331663688843,0.7762693762779236,-0.10402295738458633,0.0
1666088331733582668,0.7732772827148438,-0.10528944432735443,0.0
1666088331807850978,0.7696332335472107,-0.10557691752910614,0.0
1666088331962399861,0.7666429877281189,-0.10720083117485046,0.0
1666088332005590627,0.7619097232818604,-0.10683637857437134,0.0
1666088332072777619,0.7592355608940125,-0.10991618037223816,0.0
1666088332146405981,0.7544329762458801,-0.11314007639884949,0.0
1666088332262424582,0.7507331371307373,-0.11809199303388596,0.0
1666088332359901106,0.7455009818077087,-0.11679898202419281,0.0
1666088332365464443,0.7406944036483765,-0.11661139875650406,0.0
1666088332445942674,0.7368319034576416,-0.11516081541776657,0.0
1666088332543230424,0.7335391640663147,-0.11276339739561081,0.0
1666088332599330153,0.7314282655715942,-0.10868160426616669,0.0
1666088332663768878,0.7293253540992737,-0.10301622748374939,0.0
1666088332776073082,0.7294820547103882,-0.09627088159322739,0.0
1666088332785341536,0.7308735251426697,-0.08912687003612518,0.0
1666088332866880092,0.732413649559021,-0.08078223466873169,0.0
1666088332959093589,0.7332705855369568,-0.07000375539064407,0.0
1666088333046395390,0.7344134449958801,-0.057508036494255066,0.0
1666088333162965010,0.7348862886428833,-0.04552437365055084,0.0
1666088333208114902,0.7336819767951965,-0.03394736349582672,0.0
1666088333260464697,0.7311301827430725,-0.02258213236927986,0.0
1666088333337779649,0.7254046201705933,-0.010988553054630756,0.0
1666088333443969422,0.726377546787262,0.006752661429345608,0.0
1666088333497842859,0.7310311794281006,0.02619447559118271,0.0
1666088333562549046,0.7348467707633972,0.04529127478599548,0.0
1666088333638700512,0.7400543689727783,0.06492576748132706,0.0
1666088333773107692,0.7513799667358398,0.08824468404054642,0.0
1666088333853032269,0.7573497891426086,0.10772667080163956,0.0
1666088333895380058,0.7662455439567566,0.13048876821994781,0.0
1666088333946353574,0.7756029963493347,0.15067730844020844,0.0
1666088334065522924,0.7841235399246216,0.17236140370368958,0.0
1666088334066814686,0.7926412224769592,0.1935574859380722,0.0
1666088334176924859,0.802960991859436,0.21025168895721436,0.0
1666088334228061400,0.8095014691352844,0.22206738591194153,0.0
1666088334293889555,0.8119285702705383,0.2300214320421219,0.0
1666088334377422451,0.8150922656059265,0.23046350479125977,0.0
1666088334491663817,0.8182083368301392,0.22311650216579437,0.0
1666088334549593398,0.8199847340583801,0.21264514327049255,0.0
1666088334654131162,0.8199748992919922,0.1971503645181656,0.0
1666088334696227087,0.8190273642539978,0.17614611983299255,0.0
1666088334747225993,0.817607045173645,0.15573711693286896,0.0
1666088334804818171,0.8142977952957153,0.13683754205703735,0.0
1666088334875175527,0.8113325238227844,0.1206122562289238,0.0
1666088334938268668,0.8060888648033142,0.10459448397159576,0.0
1666088335059578277,0.7973935604095459,0.08891694992780685,0.0
1666088335121326382,0.7873608469963074,0.07220393419265747,0.0
1666088335198347092,0.7771175503730774,0.057735636830329895,0.0
1666088335269592785,0.761881947517395,0.04369792714715004,0.0
1666088335313656198,0.7448893189430237,0.025255359709262848,0.0
1666088335391301619,0.7151097059249878,0.010576287284493446,0.0
1666088335478274378,0.6878279447555542,-0.009915489703416824,0.0
1666088335531825782,0.6648169159889221,-0.028742078691720963,0.0
1666088335604904725,0.6444678902626038,-0.047020744532346725,0.0
1666088335675084042,0.620759129524231,-0.06214052438735962,0.0
1666088335739546881,0.6001848578453064,-0.07463667541742325,0.0
1666088335813341491,0.5807289481163025,-0.08550640195608139,0.0
1666088335887055833,0.562276303768158,-0.09171692281961441,0.0
1666088335938469092,0.5427184700965881,-0.10102232545614243,0.0
1666088336014709895,0.5270373225212097,-0.10900372266769409,0.0
1666088336073511175,0.5124022364616394,-0.11417730897665024,0.0
1666088336148227891,0.5042046904563904,-0.1227872297167778,0.0
1666088336219273262,0.49869275093078613,-0.13684217631816864,0.0
1666088336283887000,0.49465814232826233,-0.1551973670721054,0.0
1666088336353691773,0.5075368881225586,-0.18461595475673676,0.0
1666088336431524369,0.5119080543518066,-0.24530024826526642,0.0
1666088336533581683,0.5199135541915894,-0.3000350892543793,0.0
1666088336612239486,0.503282368183136,-0.35450947284698486,0.0
1666088336685263012,0.49107053875923157,-0.41193029284477234,0.0
1666088336798880005,0.48199263215065,-0.4682444930076599,0.0
1666088336867360372,0.47358274459838867,-0.5201796889305115,0.0
1666088336949046919,0.4631391763687134,-0.5213666558265686,0.0
1666088337018601806,0.4561619162559509,-0.521916389465332,0.0
1666088337078804807,0.4495597183704376,-0.5197719931602478,0.0
1666088337172596403,0.4466235935688019,-0.5172004699707031,0.0
1666088337241576929,0.45884114503860474,-0.5223277807235718,0.0
1666088337294216059,0.46870923042297363,-0.5128162503242493,0.0
1666088337374576592,0.491690456867218,-0.5043069124221802,0.0
1666088337439265105,0.5018045902252197,-0.4865971803665161,0.0
1666088337503429932,0.5242581963539124,-0.46477174758911133,0.0
1666088337605944545,0.5513546466827393,-0.4370509684085846,0.0
1666088337692864254,0.5901713967323303,-0.41150444746017456,0.0
1666088337784629200,0.6237326264381409,-0.3832121193408966,0.0
1666088337801139647,0.6598267555236816,-0.3547467887401581,0.0
1666088337867402420,0.6919862031936646,-0.31905287504196167,0.0
1666088337995186258,0.7365040183067322,-0.2527216374874115,0.0
1666088338081558860,0.7724575996398926,-0.20238976180553436,0.0
1666088338160766941,0.8089808225631714,-0.15635442733764648,0.0
1666088338187433094,0.8356375694274902,-0.11044749617576599,0.0
1666088338250221613,0.8510580062866211,-0.08604824542999268,0.0
1666088338331343321,0.8741488456726074,-0.051876530051231384,0.0
1666088338394197531,0.8928375840187073,-0.012584090232849121,0.0
1666088338458710057,0.9054501056671143,-0.00679272785782814,0.0
1666088338563719238,0.9168798327445984,-0.0026595573872327805,0.0
1666088338669317648,0.9340823292732239,-0.004864947870373726,0.0
1666088338671066158,0.9417646527290344,-0.03612741082906723,0.0
1666088338781583060,0.9483690857887268,-0.06801000982522964,0.0
1666088338896543423,0.9514325857162476,-0.11569578945636749,0.0
1666088338979800111,0.9452307820320129,-0.17321772873401642,0.0
1666088338981244269,0.9357365965843201,-0.2328309863805771,0.0
1666088339077609317,0.9265747666358948,-0.3013181686401367,0.0
1666088339146361554,0.895810604095459,-0.38301223516464233,0.0
1666088339306569995,0.8618107438087463,-0.45156532526016235,0.0
1666088339307688758,0.8351671695709229,-0.5130951404571533,0.0
1666088339473944109,0.8027541637420654,-0.568838894367218,0.0
1666088339475481195,0.7725370526313782,-0.6175015568733215,0.0
1666088339571062149,0.7461031675338745,-0.6590632200241089,0.0
