%time,field.linear.x,field.linear.y,field.linear.z,field.angular.x,field.angular.y,field.angular.z
1666088289567379112,0.0,0.0,0.0,0.0,0.0,0.0
1666088289587323973,0.0,0.0,0.0,0.0,0.0,0.0
1666088289607304842,0.0,0.0,0.0,0.0,0.0,0.0
1666088289627264910,0.0,0.0,0.0,0.0,0.0,0.0
1666088289647269518,0.0,0.0,0.0,0.0,0.0,0.0
1666088289667271092,0.0,0.0,0.0,0.0,0.0,0.0
1666088289687348939,0.0,0.0,0.0,0.0,0.0,0.0
1666088289707267229,0.0,0.0,0.0,0.0,0.0,0.0
1666088289727261313,0.0,0.0,0.0,0.0,0.0,0.0
1666088289768033068,0.0,0.0,0.0,0.0,0.0,0.0
1666088289768042384,0.0,0.0,0.0,0.0,0.0,0.0
1666088289812030580,0.0,0.0,0.0,0.0,0.0,0.0
1666088289812040562,0.0,0.0,0.0,0.0,0.0,0.0
1666088289856090292,0.002132302208337933,0.0,0.0,0.0,0.0,0.0
1666088289856104036,0.002132302208337933,0.0,0.0,0.0,0.0,0.0
1666088289900057231,0.004264604416675866,0.0,0.0,0.0,0.0,0.0
1666088289900073414,0.006396906625013799,0.0,0.0,0.0,0.0,0.0
1666088289948031751,0.006396906625013799,0.0,0.0,0.0,0.0,0.0
1666088289948041660,0.002132302208337933,0.0,0.0,0.0,0.0,0.0
1666088289948044799,0.0,0.0,0.0,0.0,0.0,0.0
1666088289992037497,0.0,0.0,0.0,0.0,0.0,0.0
1666088289992050109,0.0,0.0,0.0,0.0,0.0,0.0
1666088290007131835,0.0,0.0,0.0,0.0,0.0,0.0
1666088290027139420,0.0,0.0,0.0,0.0,0.0,0.0
1666088290068072094,0.0,0.0,0.0,0.0,0.0,0.0
1666088290068084057,0.0,0.0,0.0,0.0,0.0,0.0
1666088290112065456,0.0,0.0,0.0,0.0,0.0,0.0
1666088290112074808,0.0,0.0,0.0,0.0,0.0,0.0
1666088290156100854,0.0,0.0,0.0,0.0,0.0,0.0
1666088290156106834,0.0,0.0,0.0,0.0,0.0,0.0
1666088290200067113,0.0,0.0,0.0,0.0,0.0,0.0
1666088290200075157,0.0,0.0,0.0,0.0,0.0,0.0
1666088290244056504,0.0,0.0,0.0,0.0,0.0,0.0
1666088290244063003,0.0,0.0,0.0,0.0,0.0,0.0
1666088290292031714,0.0,0.0,0.0,0.0,0.0,0.0
1666088290292044899,0.0,0.0,0.0,0.0,0.0,0.0
1666088290292050054,0.0,0.0,0.0,0.0,0.0,0.0
1666088290336025076,0.0,0.0,0.0,0.0,0.0,0.0
1666088290336032816,0.0,0.0,0.0,0.0,0.0,0.0
1666088290347978721,0.0,0.0,0.0,0.0,0.0,0.0
1666088290368009683,0.0,0.0,0.0,0.0,0.0,0.0
1666088290408048348,0.0,0.0,0.0,0.0,0.0,0.0
1666088290452081984,0.0,0.0,0.0,0.0,0.0,0.0
1666088290452089847,0.0,0.0,0.0,0.0,0.0,0.0
1666088290452096748,0.0,0.0,0.0,0.0,0.0,0.0
1666088290496039294,0.0,0.0,0.0,0.0,0.0,0.0
1666088290496049126,0.0,0.0,0.0,0.0,0.0,0.0
1666088290507961195,0.0,0.0,0.0,0.0,0.0,0.0
1666088290528270169,0.0,0.0,0.0,0.0,0.0,0.0
1666088290572084303,0.0,0.0,0.0,0.0,0.0,0.0
1666088290572094440,0.0,0.0,0.0,0.0,0.0,0.0
1666088290616064634,0.0,0.0,0.0,0.0,0.0,0.0
1666088290616076119,0.0,0.0,0.0,0.0,0.0,0.0
1666088290660050882,0.0,0.0,0.0,0.0,0.0,0.0
1666088290660065481,0.0,0.0,0.0,0.0,0.0,0.0
1666088290704050107,0.0,0.0,0.0,0.0,0.0,0.0
1666088290704063688,0.0,0.0,0.0,0.0,0.0,0.0
1666088290752046769,0.0,0.0,0.0,0.0,0.0,0.0
1666088290752060001,0.0,0.0,0.0,0.0,0.0,0.0
1666088290752073321,0.0,0.0,0.0,0.0,0.0,0.0
1666088290796032815,0.0,0.0,0.0,0.0,0.0,0.0
1666088290796044698,0.0,0.0,0.0,0.0,0.0,0.0
1666088290808824413,0.0,0.0,0.0,0.0,0.0,0.0
1666088290827817243,0.0,0.0,0.0,0.0,0.0,0.0
1666088290868046073,0.0,0.0,0.0,0.0,0.0,0.0
1666088290868055839,0.0,0.0,0.0,0.0,0.0,0.0
1666088290912040986,0.0,0.0,0.0,0.0,0.0,0.0
1666088290912050361,0.0,0.0,0.0,0.0,0.0,0.0
1666088290956059150,0.0,0.0,0.0,0.0,0.0,0.0
1666088290956070804,0.0,0.0,0.0,0.0,0.0,0.0
1666088291004053920,0.0,0.0,0.0,0.0,0.0,0.0
1666088291004066219,0.0,0.0,0.0,0.0,0.0,0.0
1666088291048053186,0.0,0.0,0.0,0.0,0.0,0.0
1666088291048066022,0.0,0.0,0.0,0.0,0.0,0.0
1666088291048073733,0.0,0.0,0.0,0.0,0.0,0.0
1666088291092031579,0.0,0.0,0.0,0.0,0.0,0.0
1666088291092037578,0.0,0.0,0.0,0.0,0.0,0.0
1666088291108714617,0.0,0.0,0.0,0.0,0.0,0.0
1666088291127782596,0.0,0.0,0.0,0.0,0.0,0.0
1666088291172041859,0.0,0.0,0.0,0.0,0.0,0.0
1666088291172053016,0.0,0.0,0.0,0.0,0.0,0.0
1666088291216080601,0.0,0.0,0.0,0.0,0.0,0.0
1666088291216087319,0.0,0.0,0.0,0.0,0.0,0.0
1666088291260032494,0.0,0.0,0.0,0.0,0.0,0.0
1666088291260042650,0.0,0.0,0.0,0.0,0.0,0.0
1666088291304034720,0.0,0.0,0.0,0.0,0.0,0.0
1666088291304043123,0.0,0.0,0.0,0.0,0.0,0.0
1666088291348035169,0.0,0.0,0.0,0.0,0.0,0.0
1666088291348045488,0.0,0.0,0.0,0.0,0.0,0.0
1666088291348055863,0.0,0.0,0.0,0.0,0.0,0.0
1666088291392289141,0.0,0.0,0.0,0.0,0.0,0.0
1666088291392360380,0.0,0.0,0.0,0.0,0.0,0.0
1666088291407674623,0.0,0.0,0.0,0.0,0.0,0.0
1666088291428638078,0.0,0.0,0.0,0.0,0.0,0.0
1666088291472073881,0.0,0.0,0.0,0.0,0.0,0.0
1666088291472084399,0.0,0.0,0.0,0.0,0.0,0.0
1666088291516033302,0.0,0.0,0.0,0.0,0.0,0.0
1666088291516043613,0.0,0.0,0.0,0.0,0.0,0.0
1666088291560085939,0.0,0.0,0.0,0.0,0.0,0.0
1666088291560099243,0.0,0.0,0.0,0.0,0.0,0.0
1666088291608163552,0.0,0.0,0.0,0.0,0.0,0.0
1666088291608177128,0.0,0.0,0.0,0.0,0.0,0.0
1666088291652136737,0.0,0.0,0.0,0.0,0.0,0.0
1666088291652148262,0.0,0.0,0.0,0.0,0.0,0.0
1666088291652159154,0.0,0.0,0.0,0.0,0.0,0.0
1666088291700135021,0.0,0.0,0.0,0.0,0.0,0.0
1666088291700179724,0.0,0.0,0.0,0.0,0.0,0.0
1666088291708720558,0.0,0.0,0.0,0.0,0.0,0.0
1666088291729566076,0.0,0.0,0.0,0.0,0.0,0.0
1666088291772302640,0.0,0.0,0.0,0.0,0.0,0.0
1666088291772359739,0.0,0.0,0.0,0.0,0.0,0.0
1666088291816079415,0.0,0.0,0.0,0.0,0.0,0.0
1666088291816088341,0.0,0.0,0.0,0.0,0.0,0.0
1666088291860137682,0.0,0.0,0.0,0.0,0.0,0.0
1666088291860178299,0.0,0.0,0.0,0.0,0.0,0.0
1666088291904350932,0.0,0.0,0.0,0.0,0.0,0.0
1666088291904404310,0.0,0.0,0.0,0.0,0.0,0.0
1666088291952102964,0.0,0.0,0.0,0.0,0.0,0.0
1666088291952130788,0.0,0.0,0.0,0.0,0.0,0.0
1666088291952148804,0.0,0.0,0.0,0.0,0.0,0.0
1666088291996157378,0.0,0.0,0.0,0.0,0.0,0.0
1666088291996182061,0.0,0.0,0.0,0.0,0.0,0.0
1666088292008813166,0.0,0.0,0.0,0.0,0.0,0.0
1666088292029640143,0.0,0.0,0.0,0.0,0.0,0.0
1666088292076353561,0.0,0.0,0.0,0.0,0.0,0.0
1666088292076390336,0.0,0.0,0.0,0.0,0.0,0.0
1666088292120217945,0.0,0.0,0.0,0.0,0.0,0.0
1666088292120234174,0.0,0.0,0.0,0.0,0.0,0.0
1666088292168170570,0.0,0.0,0.0,0.0,0.0,0.0
1666088292168194827,0.0,0.0,0.0,0.0,0.0,0.0
1666088292212290524,0.0,0.0,0.0,0.0,0.0,0.0
1666088292212328215,0.0,0.0,0.0,0.0,0.0,0.0
1666088292212357767,0.0,0.0,0.0,0.0,0.0,0.0
1666088292256062200,0.0,0.0,0.0,0.0,0.0,0.0
1666088292256074365,0.0,0.0,0.0,0.0,0.0,0.0
1666088292268445581,0.0,0.0,0.0,0.0,0.0,0.0
1666088292288388553,-0.002132302208337933,0.0,0.0,0.0,0.0,0.0006981317007977319
1666088292332087599,0.0,0.0,0.0,0.0,0.0,0.0
1666088292332101974,0.0,0.0,0.0,0.0,0.0,0.0
1666088292376055332,0.0,0.0,0.0,0.0,0.0,0.0
1666088292376066418,0.0,0.0,0.0,0.0,0.0,0.0
1666088292420047028,0.0,0.0,0.0,0.0,0.0,0.0
1666088292420057712,0.0,0.0,0.0,0.0,0.0,0.0
1666088292464045352,0.0,0.0,0.0,0.0,0.0,0.0
1666088292464055546,0.0,0.0,0.0,0.0,0.0,0.0
1666088292508052582,0.0,0.0,0.0,0.0,0.0,0.0
1666088292508065421,0.0,0.0,0.0,0.0,0.0,0.0
1666088292552048667,0.0,0.0,0.0,0.0,0.0,0.0
1666088292552062880,0.0,0.0,0.0,0.0,0.0,0.0
1666088292552073436,0.0,0.0,0.0,0.0,0.0,0.0
1666088292596042827,0.0,0.0,0.0,0.0,0.0,0.0
1666088292596054056,0.0,0.0,0.0,0.0,0.0,0.0
1666088292609247073,0.0,0.0,0.0,0.0,0.0,0.0
1666088292629183122,0.0,0.0,0.0,0.0,0.0,0.0
1666088292672068225,0.0,0.0,0.0,0.0,0.0,0.0
1666088292672081392,0.0,0.0,0.0,0.0,0.0,0.0
1666088292716121904,0.0,0.0,0.0,0.0,0.0,0.0
1666088292716134847,0.0,0.0,0.0,0.0,0.0,0.0
1666088292760062524,0.0,0.0,0.0,0.0,0.0,0.0
1666088292760072746,0.0,0.0,0.0,0.0,0.0,0.0
1666088292804089181,0.0,0.0,0.0,0.0,0.0,0.0
1666088292804103154,0.0,0.0,0.0,0.0,0.0,0.0
1666088292852215584,0.0,0.0,0.0,0.0,0.0,0.0
1666088292852231443,0.0,0.0,0.0,0.0,0.0,0.0
1666088292852238163,0.0,0.0,0.0,0.0,0.0,0.0
1666088292896220057,0.0,0.0,0.0,0.0,0.0,0.0
1666088292896264461,0.0,0.0,0.0,0.0,0.0,0.0
1666088292909602942,0.0,0.0,0.0,0.0,0.0,0.0
1666088292929376220,0.0,0.0,0.0,0.0,0.0,0.0
1666088292972104683,0.0,0.0,0.0,0.0,0.0,0.0
1666088292972128038,0.0,0.0,0.0,0.0,0.0,0.0
1666088293016057503,0.0,0.0,0.0,0.0,0.0,0.0
1666088293016069680,0.0,0.0,0.0,0.0,0.0,0.0
1666088293060073767,0.0,0.0,0.0,0.0,0.0,0.0
1666088293060088667,0.0,0.0,0.0,0.0,0.0,0.0
1666088293108207015,0.0,0.0,0.0,0.0,0.0,0.0
1666088293108249483,0.0,0.0,0.0,0.0,0.0,0.0
1666088293152142880,0.0,0.0,0.0,0.0,0.0,0.0
1666088293152156654,0.0,0.0,0.0,0.0,0.0,0.0
1666088293152183790,0.0,0.0,0.0,0.0,0.0,0.0
1666088293196077597,0.0,0.0,0.0,0.0,0.0,0.0
1666088293196094219,0.0,0.0,0.0,0.0,0.0,0.0
1666088293209390061,0.0,0.0,0.0,0.0,0.0,0.0
1666088293229024858,0.0,0.0,0.0,0.0,0.0,0.0
1666088293272179113,0.0,0.0,0.0,0.0,0.0,0.0
1666088293272200897,0.0,0.0,0.0,0.0,0.0,0.0
1666088293316111614,0.0,0.0,0.0,0.0,0.0,0.0
1666088293316128950,0.0,0.0,0.0,0.0,0.0,0.0
1666088293364095464,0.0,0.0,0.0,0.0,0.0,0.0
1666088293364102162,0.0,0.0,0.0,0.0,0.0,0.0
1666088293408174952,0.0,0.0,0.0,0.0,0.0,0.0
1666088293408200359,0.0,0.0,0.0,0.0,0.0,0.0
1666088293452134598,0.0,0.0,0.0,0.0,0.0,0.0
1666088293452165527,0.0,0.0,0.0,0.0,0.0,0.0
1666088293452181393,0.0,0.0,0.0,0.0,0.0,0.0
1666088293496064358,0.0,0.0,0.0,0.0,0.0,0.0
1666088293496076953,0.0,0.0,0.0,0.0,0.0,0.0
1666088293509357616,0.0,0.0,0.0,0.0,0.0,0.0
1666088293528914736,0.0,0.0,0.0,0.0,0.0,0.0
1666088293572098294,0.0,0.0,0.0,0.0,0.0,0.0
1666088293572116366,0.0,0.0,0.0,0.0,0.0,0.0
1666088293620328925,0.0,0.0,0.0,0.0,0.0,0.0
1666088293620374310,0.0,0.0,0.0,0.0,0.0,0.0
1666088293664112875,0.0,0.0,0.0,0.0,0.0,0.0
1666088293664145743,0.0,0.0,0.0,0.0,0.0,0.0
1666088293708085536,0.0,0.0,0.0,0.0,0.0,0.0
1666088293708133256,0.0,0.0,0.0,0.0,0.0,0.0
1666088293752054977,0.0,0.0,0.0,0.0,0.0,0.0
1666088293752068104,0.0,0.0,0.0,0.0,0.0,0.0
1666088293752076403,0.0,0.0,0.0,0.0,0.0,0.0
1666088293796073507,0.0,0.0,0.0,0.0,0.0,0.0
1666088293796087520,0.0,0.0,0.0,0.0,0.0,0.0
1666088293810291428,0.0,0.0,0.0,0.0,0.0,0.0
1666088293829823761,0.0,0.0,0.0,0.0,0.0,0.0
1666088293872149433,0.0,0.0,0.0,0.0,0.0,0.0
1666088293872174675,0.0,0.0,0.0,0.0,0.0,0.0
1666088293920122223,0.0,0.0,0.0,0.0,0.0,0.0
1666088293920142922,0.0,0.0,0.0,0.0,0.0,0.0
1666088293964110546,0.0,0.0,0.0,0.0,0.0,0.0
1666088293964120559,0.0,0.0,0.0,0.0,0.0,0.0
1666088294008192505,0.0,0.0,0.0,0.0,0.0,0.0
1666088294008221976,0.0,0.0,0.0,0.0,0.0,0.0
1666088294056210814,0.0,0.0,0.0,0.0,0.0,0.0
1666088294056236525,0.0,0.0,0.0,0.0,0.0,0.0
1666088294056250632,0.0,0.0,0.0,0.0,0.0,0.0
1666088294104036005,0.0,0.0,0.0,0.0,0.0,0.0
1666088294104046898,0.0,0.0,0.0,0.0,0.0,0.0
1666088294109769054,0.0,0.0,0.0,0.0,0.0,0.0
1666088294130271943,0.0,0.0,0.0,0.0,0.0,0.0
1666088294172081264,0.0,0.0,0.0,0.0,0.0,0.0
1666088294172091649,0.0,0.0,0.0,0.0,0.0,0.0
1666088294216083170,0.0,0.0,0.0,0.0,0.0,0.0
1666088294216100459,0.0,0.0,0.0,0.0,0.0,0.0
1666088294260040689,0.0,0.0,0.0,0.0,0.0,0.0
1666088294260050874,0.0,0.0,0.0,0.0,0.0,0.0
1666088294304061367,0.0,0.0,0.0,0.0,0.0,0.0
1666088294304073201,0.0,0.0,0.0,0.0,0.0,0.0
1666088294348113918,0.0,0.0,0.0,0.0,0.0,0.0
1666088294348124628,0.0,0.0,0.0,0.0,0.0,0.0
1666088294392100507,0.0,0.0,0.0,0.0,0.0,0.0
1666088294392114245,0.0,0.0,0.0,0.0,0.0,0.0
1666088294392125424,0.0,0.0,0.0,0.0,0.0,0.0
1666088294436040424,0.0,0.0,0.0,0.0,0.0,0.0
1666088294436053502,0.0,0.0,0.0,0.0,0.0,0.0
1666088294449999698,0.0,0.0,0.0,0.0,0.0,0.0
1666088294469671169,0.0,0.0,0.0,0.0,0.0,0.0
1666088294512053953,0.0,0.0,0.0,0.0,0.0,0.0
1666088294512065112,0.0,0.0,0.0,0.0,0.0,0.0
1666088294556046591,0.0,0.0,0.0,0.0,0.0,0.0
1666088294556057254,0.0,0.0,0.0,0.0,0.0,0.0
1666088294600061448,0.0,0.0,0.0,0.0,0.0,0.0
1666088294600076054,0.0,0.0,0.0,0.0,0.0,0.0
1666088294644130682,0.0,0.0,0.0,0.0,0.0,0.0
1666088294644146658,0.0,0.0,0.0,0.0,0.0,0.0
1666088294688142532,0.0,0.0,0.0,0.0,0.0,0.0
1666088294688156925,0.0,0.0,0.0,0.0,0.0,0.0
1666088294732198901,0.0,0.0,0.0,0.0,0.0,0.0
1666088294732216941,0.0,0.0,0.0,0.0,0.0,0.0
1666088294732228937,0.0,0.0,0.0,0.0,0.0,0.0
1666088294780075497,0.0,0.0,0.0,0.0,0.0,0.0
1666088294780090847,0.0,0.0,0.0,0.0,0.0,0.0
1666088294791263187,0.0,0.0,0.0,0.0,0.0,0.0
1666088294810914787,0.0,0.0,0.0,0.0,0.0,0.0
1666088294852128607,0.0,0.0,0.0,0.0,0.0,0.0
1666088294852144313,0.0,0.0,0.0,0.0,0.0,0.0
1666088294896052938,0.0,0.0,0.0,0.0,0.0,0.0
1666088294896063892,0.0,0.0,0.0,0.0,0.0,0.0
1666088294940159957,0.0,0.0,0.0,0.0,0.0,0.0
1666088294940177238,0.0,0.0,0.0,0.0,0.0,0.0
1666088294984810185,0.0,0.0,0.0,0.0,0.0,0.0
1666088294984857011,0.0,0.0,0.0,0.0,0.0,0.0
1666088295028082598,0.0,0.0,0.0,0.0,0.0,0.0
1666088295028094398,0.0,0.0,0.0,0.0,0.0,0.0
1666088295072107959,0.0,0.0,0.0,0.0,0.0,0.0
1666088295072124641,0.0,0.0,0.0,0.0,0.0,0.0
1666088295072132733,0.0,0.0,0.0,0.0,0.0,0.0
1666088295116082850,0.0,0.0,0.0,0.0,0.0,0.0
1666088295116099750,0.0,0.0,0.0,0.0,0.0,0.0
1666088295130761796,0.0,0.0,0.0,0.0,0.0,0.0
1666088295150940166,0.0,0.0,0.0,0.0,0.0,0.0
1666088295192174751,0.0,0.0,0.0,0.0,0.0,0.0
1666088295192207156,0.0,0.0,0.0,0.0,0.0,0.0
1666088295240073302,0.0,0.0,0.0,0.0,0.0,0.0
1666088295240087831,0.0,0.0,0.0,0.0,0.0,0.0
1666088295285464603,0.0,0.0,0.0,0.0,0.0,0.0
1666088295285493407,0.0,0.0,0.0,0.0,0.0,0.0
1666088295328118699,0.0,0.0,0.0,0.0,0.0,0.0
1666088295328134936,0.0,0.0,0.0,0.0,0.0,0.0
1666088295376191792,0.0,0.0,0.0,0.0,0.0,0.0
1666088295376217536,0.0,0.0,0.0,0.0,0.0,0.0
1666088295376248136,0.0,0.0,0.0,0.0,0.0,0.0
1666088295420171531,0.0,0.0,0.0,0.0,0.0,0.0
1666088295420200271,0.0,0.0,0.0,0.0,0.0,0.0
1666088295430187873,0.0,0.0,0.0,0.0,0.0,0.0
1666088295450418137,0.0,0.0,0.0,0.0,0.0,0.0
1666088295492114031,0.0,0.0,0.0,0.0,0.0,0.0
1666088295492131682,0.0,0.0,0.0,0.0,0.0,0.0
1666088295536265617,0.0,0.0,0.0,0.0,0.0,0.0
1666088295536289655,0.0,0.0,0.0,0.0,0.0,0.0
1666088295580175559,0.0,0.0,0.0,0.0,0.0,0.0
1666088295580199451,0.0,0.0,0.0,0.0,0.0,0.0
1666088295624131466,0.0,0.0,0.0,0.0,0.0,0.0
1666088295624169295,0.0,0.0,0.0,0.0,0.0,0.0
1666088295668114538,0.0,0.0,0.0,0.0,0.0,0.0
1666088295668126717,0.0,0.0,0.0,0.0,0.0,0.0
1666088295712170934,0.0,0.0,0.0,0.0,0.0,0.0
1666088295712204960,0.0,0.0,0.0,0.0,0.0,0.0
1666088295712223489,0.0,0.0,0.0,0.0,0.0,0.0
1666088295756084775,0.0,0.0,0.0,0.0,0.0,0.0
1666088295756102108,0.0,0.0,0.0,0.0,0.0,0.0
1666088295771178099,0.0,0.0,0.0,0.0,0.0,0.0
1666088295790320062,0.0,0.0,0.0,0.0,0.0,0.0
1666088295836044181,0.0,0.0,0.0,0.0,0.0,0.0
1666088295836056128,0.0,0.0,0.0,0.0,0.0,0.0
1666088295880450511,0.0,0.0,0.0,0.0,0.0,0.0
1666088295880472248,0.0,0.0,0.0,0.0,0.0,0.0
1666088295924069650,0.0,0.0,0.0,0.0,0.0,0.0
1666088295924087172,0.0,0.0,0.0,0.0,0.0,0.0
1666088295968117676,0.0,0.0,0.0,0.0,0.0,0.0
1666088295968141276,0.0,0.0,0.0,0.0,0.0,0.0
1666088296012142360,0.0,0.0,0.0,0.0,0.0,0.0
1666088296012181250,0.0,0.0,0.0,0.0,0.0,0.0
1666088296012210497,0.0,0.0,0.0,0.0,0.0,0.0
1666088296056097479,0.0,0.0,0.0,0.0,0.0,0.0
1666088296056122372,0.0,0.0,0.0,0.0,0.0,0.0
1666088296071189382,0.0,0.0,0.0,0.0,0.0,0.0
1666088296091189311,0.0,0.0,0.0,0.0,0.0,0.0
1666088296136083678,0.0,0.0,0.0,0.0,0.0,0.0
1666088296136098264,0.0,0.0,0.0,0.0,0.0,0.0
1666088296180078844,0.0,0.0,0.0,0.0,0.0,0.0
1666088296180093780,0.0,0.0,0.0,0.0,0.0,0.0
1666088296224110394,0.0,0.0,0.0,0.0,0.0,0.0
1666088296224123973,0.0,0.0,0.0,0.0,0.0,0.0
1666088296268198794,0.0,0.0,0.0,0.0,0.0,0.0
1666088296268229358,0.0,0.0,0.0,0.0,0.0,0.0
1666088296312445870,0.0,0.0,0.0,0.0,0.0,0.0
1666088296312509962,0.0,0.0,0.0,0.0,0.0,0.0
1666088296356354916,0.0,0.0,0.0,0.0,0.0,0.0
1666088296356391318,0.0,0.0,0.0,0.0,0.0,0.0
1666088296356401191,0.0,0.0,0.0,0.0,0.0,0.0
1666088296400093911,0.0,0.0,0.0,0.0,0.0,0.0
1666088296400108258,0.0,0.0,0.0,0.0,0.0,0.0
1666088296411712604,0.0,0.0,0.0,0.0,0.0,0.0
1666088296431006631,0.0,0.0,0.0,0.0,0.0,0.0
1666088296472083585,0.0,0.0,0.0,0.0,0.0,0.0
1666088296472099049,0.0,0.0,0.0,0.0,0.0,0.0
1666088296516160501,0.0,0.0,0.0,0.0,0.0,0.0
1666088296516184277,0.0,0.0,0.0,0.0,0.0,0.0
1666088296560114440,0.0,0.0,0.0,0.0,0.0,0.0
1666088296560126767,0.0,0.0,0.0,0.0,0.0,0.0
1666088296604087628,0.0,0.0,0.0,0.0,0.0,0.0
1666088296604110247,0.0,0.0,0.0,0.0,0.0,0.0
1666088296648289260,0.0,0.0,0.0,0.0,0.0,0.0
1666088296648315678,0.0,0.0,0.0,0.0,0.0,0.0
1666088296692172646,0.0,0.0,0.0,0.0,0.0,0.0
1666088296692204039,0.0,0.0,0.0,0.0,0.0,0.0
1666088296736150078,0.0,0.0,0.0,0.0,0.0,0.0
1666088296736175041,0.0,0.0,0.0,0.0,0.0,0.0
1666088296736410550,0.0,0.0,0.0,0.0,0.0,0.0
1666088296780453832,0.0,0.0,0.0,0.0,0.0,0.0
1666088296780494880,0.0,0.0,0.0,0.0,0.0,0.0
1666088296792219903,0.0,0.0,0.0,0.0,0.0,0.0
1666088296812477085,0.0,0.0,0.0,0.0,0.0,0.0
1666088296856138521,0.0,0.0,0.0,0.0,0.0,0.0
1666088296856162725,0.0,0.0,0.0,0.0,0.0,0.0
1666088296900069859,0.0,0.0,0.0,0.0,0.0,0.0
1666088296900094123,0.0,0.0,0.0,0.0,0.0,0.0
1666088296948207598,0.0,0.0,0.0,0.0,0.0,0.0
1666088296948236157,0.0,0.0,0.0,0.0,0.0,0.0
1666088296992336334,0.0,0.0,0.0,0.0,0.0,0.0
1666088296992378522,0.0,0.0,0.0,0.0,0.0,0.0
1666088296992394048,0.0,0.0,0.0,0.0,0.0,0.0
1666088297036112835,0.0,0.0,0.0,0.0,0.0,0.0
1666088297036133620,0.0,0.0,0.0,0.0,0.0,0.0
1666088297052049195,0.0,0.0,0.0,0.0,0.0,0.0
1666088297071704546,0.0,0.0,0.0,0.0,0.0,0.0
1666088297116165600,0.0,0.0,0.0,0.0,0.0,0.0
1666088297116202750,0.0,0.0,0.0,0.0,0.0,0.0
1666088297160105941,0.0,0.0,0.0,0.0,0.0,0.0
1666088297160121064,0.0,0.0,0.0,0.0,0.0,0.0
1666088297204084483,0.0,0.0,0.0,0.0,0.0,0.0
1666088297204101694,0.0,0.0,0.0,0.0,0.0,0.0
1666088297248306287,0.0,0.0,0.0,0.0,0.0,0.0
1666088297248350522,0.0,0.0,0.0,0.0,0.0,0.0
1666088297292160823,0.0,0.0,0.0,0.0,0.0,0.0
1666088297292201716,0.0,0.0,0.0,0.0,0.0,0.0
1666088297336116811,0.0,0.0,0.0,0.0,0.0,0.0
1666088297336137484,0.0,0.0,0.0,0.0,0.0,0.0
1666088297336148572,0.0,0.0,0.0,0.0,0.0,0.0
1666088297380527264,0.0,0.0,0.0,0.0,0.0,0.0
1666088297380565452,0.0,0.0,0.0,0.0,0.0,0.0
1666088297394220509,0.0,0.0,0.0,0.0,0.0,0.0
1666088297413293986,0.0,0.0,0.0,0.0,0.0,0.0
1666088297460260960,0.0,0.0,0.0,0.0,0.0,0.0
1666088297460303637,0.0,0.0,0.0,0.0,0.0,0.0
1666088297504308156,0.0,0.0,0.0,0.0,0.0,0.0
1666088297504362266,0.0,0.0,0.0,0.0,0.0,0.0
1666088297548344443,0.0,0.0,0.0,0.0,0.0,0.0
1666088297548389234,0.0,0.0,0.0,0.0,0.0,0.0
1666088297592302669,0.0,0.0,0.0,0.0,0.0,0.0
1666088297592335658,0.0,0.0,0.0,0.0,0.0,0.0
1666088297592506293,0.0,0.0,0.0,0.0,0.0,0.0
1666088297636176810,0.0,0.0,0.0,0.0,0.0,0.0
1666088297636209542,0.0,0.0,0.0,0.0,0.0,0.0
1666088297652382296,0.0,0.0,0.0,0.0,0.0,0.0
1666088297671955994,0.0,0.0,0.0,0.0,0.0,0.0
1666088297712121577,0.0,0.0,0.0,0.0,0.0,0.0
1666088297712147002,0.0,0.0,0.0,0.0,0.0,0.0
1666088297756100495,0.0,0.0,0.0,0.0,0.0,0.0
1666088297756113241,0.0,0.0,0.0,0.0,0.0,0.0
1666088297800133411,0.0,0.0,0.0,0.0,0.0,0.0
1666088297800150051,0.0,0.0,0.0,0.0,0.0,0.0
1666088297844224688,0.0,0.0,0.0,0.0,0.0,0.0
1666088297844246475,0.0,0.0,0.0,0.0,0.0,0.0
1666088297888145635,0.0,0.0,0.0,0.0,0.0,0.0
1666088297888173561,0.0,0.0,0.0,0.0,0.0,0.0
1666088297932112965,0.0,0.0,0.0,0.0,0.0,0.0
1666088297932135627,0.0,0.0,0.0,0.0,0.0,0.0
1666088297976137799,0.0,0.0,0.0,0.0,0.0,0.0
1666088297976159577,0.0,0.0,0.0,0.0,0.0,0.0
1666088297976181544,0.0,0.0,0.0,0.0,0.0,0.0
1666088298020126147,0.0,0.0,0.0,0.0,0.0,0.0
1666088298020143264,0.0,0.0,0.0,0.0,0.0,0.0
1666088298032839837,0.0,0.0,0.0,0.0,0.0,0.0
1666088298052673860,0.0,0.0,0.0,0.0,0.0,0.0
1666088298096075077,0.0,0.0,0.0,0.0,0.0,0.0
1666088298096091087,0.0,0.0,0.0,0.0,0.0,0.0
1666088298140081409,0.0,0.0,0.0,0.0,0.0,0.0
1666088298140092662,0.0,0.0,0.0,0.0,0.0,0.0
1666088298184366317,0.0,0.0,0.0,0.0,0.0,0.0
1666088298184407147,0.0,0.0,0.0,0.0,0.0,0.0
1666088298228158260,0.0,0.0,0.0,0.0,0.0,0.0
1666088298228179970,0.0,0.0,0.0,0.0,0.0,0.0
1666088298276075901,0.0,0.0,0.0,0.0,0.0,0.0
1666088298276094205,0.0,0.0,0.0,0.0,0.0,0.0
1666088298276099999,0.0,0.0,0.0,0.0,0.0,0.0
1666088298320118312,0.0,0.0,0.0,0.0,0.0,0.0
1666088298320135729,0.0,0.0,0.0,0.0,0.0,0.0
1666088298332784828,0.0,0.0,0.0,0.0,0.0,0.0
1666088298352359645,0.0,0.0,0.0,0.0,0.0,0.0
1666088298400079080,0.0,0.0,0.0,0.0,0.0,0.0
1666088298400091025,0.0,0.0,0.0,0.0,0.0,0.0
1666088298444155684,0.0,0.0,0.0,0.0,0.0,0.0
1666088298444171596,0.0,0.0,0.0,0.0,0.0,0.0
1666088298488138713,0.0,0.0,0.0,0.0,0.0,0.0
1666088298488164754,0.0,0.0,0.0,0.0,0.0,0.0
1666088298536082160,0.0,0.0,0.0,0.0,0.0,0.0
1666088298536107503,0.0,0.0,0.0,0.0,0.0,0.0
1666088298536128311,0.0,0.0,0.0,0.0,0.0,0.0
1666088298584120317,0.0,0.0,0.0,0.0,0.0,0.0
1666088298584141928,0.0,0.0,0.0,0.0,0.0,0.0
1666088298592903452,0.0,0.0,0.0,0.0,0.0,0.0
1666088298613705713,0.0,0.0,0.0,0.0,0.0,0.0
1666088298656078890,0.0,0.0,0.0,0.0,0.0,0.0
1666088298656095661,0.0,0.0,0.0,0.0,0.0,0.0
1666088298700077580,0.0,0.0,0.0,0.0,0.0,0.0
1666088298700091532,0.0,0.0,0.0,0.0,0.0,0.0
1666088298744136031,0.0,0.0,0.0,0.0,0.0,0.0
1666088298744170883,0.0,0.0,0.0,0.0,0.0,0.0
1666088298788385697,0.0,0.0,0.0,0.0,0.0,0.0
1666088298788441397,0.0,0.0,0.0,0.0,0.0,0.0
1666088298836096678,0.0,0.0,0.0,0.0,0.0,0.0
1666088298836115669,0.0,0.0,0.0,0.0,0.0,0.0
1666088298836217728,0.0,0.0,0.0,0.0,0.0,0.0
1666088298880160660,0.0,0.0,0.0,0.0,0.0,0.0
1666088298880182037,0.0,0.0,0.0,0.0,0.0,0.0
1666088298892180262,0.0,0.0,0.0,0.0,0.0,0.0
1666088298913646187,0.0,0.0,0.0,0.0,0.0,0.0
1666088298956051668,0.0,0.0,0.0,0.0,0.0,0.0
1666088298956064874,0.0,0.0,0.0,0.0,0.0,0.0
1666088299000104318,0.0,0.0,0.0,0.0,0.0,0.0
1666088299000119932,0.0,0.0,0.0,0.0,0.0,0.0
1666088299044245629,0.0,0.0,0.0,0.0,0.0,0.0
1666088299044272467,0.0,0.0,0.0,0.0,0.0,0.0
1666088299088108227,0.0,0.0,0.0,0.0,0.0,0.0
1666088299088128713,0.0,0.0,0.0,0.0,0.0,0.0
1666088299136055177,0.0,0.0,0.0,0.0,0.0,0.0
1666088299136068996,0.0,0.0,0.0,0.0,0.0,0.0
1666088299136076864,0.0,0.0,0.0,0.0,0.0,0.0
1666088299180293004,0.0,0.0,0.0,0.0,0.0,0.0
1666088299180324982,0.0,0.0,0.0,0.0,0.0,0.0
1666088299192868928,0.0,0.0,0.0,0.0,0.0,0.0
1666088299213784920,0.0,0.0,0.0,0.0,0.0,0.0
1666088299260109387,0.0,0.0,0.0,0.0,0.0,0.0
1666088299260130051,0.0,0.0,0.0,0.0,0.0,0.0
1666088299304128056,0.0,0.0,0.0,0.0,0.0,0.0
1666088299304150183,0.0,0.0,0.0,0.0,0.0,0.0
1666088299348115155,0.0,0.0,0.0,0.0,0.0,0.0
1666088299348142044,0.0,0.0,0.0,0.0,0.0,0.0
1666088299392049517,0.0,0.0,0.0,0.0,0.0,0.0
1666088299392059960,0.0,0.0,0.0,0.0,0.0,0.0
1666088299436070220,0.0,0.0,0.0,0.0,0.0,0.0
1666088299436084036,0.0,0.0,0.0,0.0,0.0,0.0
1666088299436092066,0.0,0.0,0.0,0.0,0.0,0.0
1666088299480354240,0.0,0.0,0.0,0.0,0.0,0.0
1666088299480411439,0.0,0.0,0.0,0.0,0.0,0.0
1666088299493980288,0.0,0.0,0.0,0.0,0.0,0.0
1666088299514720671,0.0,0.0,0.0,0.0,0.0,0.0
1666088299556108995,0.0,0.0,0.0,0.0,0.0,0.0
1666088299556126023,0.0,0.0,0.0,0.0,0.0,0.0
1666088299600081341,0.0,0.0,0.0,0.0,0.0,0.0
1666088299600091945,0.0,0.0,0.0,0.0,0.0,0.0
1666088299644238077,0.0,0.0,0.0,0.0,0.0,0.0
1666088299644266977,0.0,0.0,0.0,0.0,0.0,0.0
1666088299692139793,0.0,0.0,0.0,0.0,0.0,0.0
1666088299692162171,0.0,0.0,0.0,0.0,0.0,0.0
1666088299736096156,0.0,0.0,0.0,0.0,0.0,0.0
1666088299736112291,0.0,0.0,0.0,0.0,0.0,0.0
1666088299736124051,0.0,0.0,0.0,0.0,0.0,0.0
1666088299780334740,0.0,0.0,0.0,0.0,0.0,0.0
1666088299780362033,0.0,0.0,0.0,0.0,0.0,0.0
1666088299792683445,0.0,0.0,0.0,0.0,0.0,0.0
1666088299813071551,0.0,0.0,0.0,0.0,0.0,0.0
1666088299856189150,0.0,0.0,0.0,0.0,0.0,0.0
1666088299856206136,0.0,0.0,0.0,0.0,0.0,0.0
1666088299900062550,0.0,0.0,0.0,0.0,0.0,0.0
1666088299900071325,0.0,0.0,0.0,0.0,0.0,0.0
1666088299944350672,0.0,0.0,0.0,0.0,0.0,0.0
1666088299944407586,0.0,0.0,0.0,0.0,0.0,0.0
1666088299988144575,0.0,0.0,0.0,0.0,0.0,0.0
1666088299988164237,0.0,0.0,0.0,0.0,0.0,0.0
1666088300032208956,0.0,0.0,0.0,0.0,0.0,0.0
1666088300032230637,0.0,0.0,0.0,0.0,0.0,0.0
1666088300076089432,0.0,0.0,0.0,0.0,0.0,0.0
1666088300076105470,0.0,0.0,0.0,0.0,0.0,0.0
1666088300076114403,0.0,0.0,0.0,0.0,0.0,0.0
1666088300120641201,0.0,0.0,0.0,0.0,0.0,0.0
1666088300120733470,0.0,0.0,0.0,0.0,0.0,0.0
1666088300132519430,0.0,0.0,0.0,0.0,0.0,0.0
1666088300154566850,0.0,0.0,0.0,0.0,0.0,0.0
1666088300196046198,0.0,0.0,0.0,0.0,0.0,0.0
1666088300196055924,0.0,0.0,0.0,0.0,0.0,0.0
1666088300240337616,0.0,0.0,0.0,0.0,0.0,0.0
1666088300240385302,0.0,0.0,0.0,0.0,0.0,0.0
1666088300284259751,0.0,0.0,0.0,0.0,0.0,0.0
1666088300284313295,0.0,0.0,0.0,0.0,0.0,0.0
1666088300328137689,0.0,0.0,0.0,0.0,0.0,0.0
1666088300328166344,0.0,0.0,0.0,0.0,0.0,0.0
1666088300376068656,0.0,0.0,0.0,0.0,0.0,0.0
1666088300376083243,0.0,0.0,0.0,0.0,0.0,0.0
1666088300376089464,0.0,0.0,0.0,0.0,0.0,0.0
1666088300424208488,0.0,0.0,0.0,0.0,0.0,0.0
1666088300424257681,0.0,0.0,0.0,0.0,0.0,0.0
1666088300433341616,0.0,0.0,0.0,0.0,0.0,0.0
1666088300454973357,0.0,0.0,0.0,0.0,0.0,0.0
1666088300496205101,0.0,0.0,0.0,0.0,0.0,0.0
1666088300496235655,0.0,0.0,0.0,0.0,0.0,0.0
1666088300544252361,0.0,0.0,0.0,0.0,0.0,0.0
1666088300544286173,0.0,0.0,0.0,0.0,0.0,0.0
1666088300588208280,0.0,0.0,0.0,0.0,0.0,0.0
1666088300588234614,0.0,0.0,0.0,0.0,0.0,0.0
1666088300632152738,0.0,0.0,0.0,0.0,0.0,0.0
1666088300632185607,0.0,0.0,0.0,0.0,0.0,0.0
1666088300676157169,0.0,0.0,0.0,0.0,0.0,0.0
1666088300676182401,0.0,0.0,0.0,0.0,0.0,0.0
1666088300676189294,0.0,0.0,0.0,0.0,0.0,0.0
1666088300720380526,0.0,0.0,0.0,0.0,0.0,0.0
1666088300720419729,0.0,0.0,0.0,0.0,0.0,0.0
1666088300734821890,0.0,0.0,0.0,0.0,0.0,0.0
1666088300754511752,0.0,0.0,0.0,0.0,0.0,0.0
1666088300796222367,0.0,0.0,0.0,0.0,0.0,0.0
1666088300796250393,0.0,0.0,0.0,0.0,0.0,0.0
1666088300844501268,0.0,0.0,0.0,0.0,0.0,0.0
1666088300844530672,0.0,0.0,0.0,0.0,0.0,0.0
1666088300886218445,0.0,0.0,0.0,0.0,0.0,0.0
1666088300886242067,0.0,0.0,0.0,0.0,0.0,0.0
1666088300928395330,0.0,0.0,0.0,0.0,0.0,0.0
1666088300928437621,0.0,0.0,0.0,0.0,0.0,0.0
1666088300972164130,0.0,0.0,0.0,0.0,0.0,0.0
1666088300972177646,0.0,0.0,0.0,0.0,0.0,0.0
1666088301016278802,0.0,0.0,0.0,0.0,0.0,0.0
1666088301016324215,0.0,0.0,0.0,0.0,0.0,0.0
1666088301016350576,0.0,0.0,0.0,0.0,0.0,0.0
1666088301060324655,0.0,0.0,0.0,0.0,0.0,0.0
1666088301060353956,0.0,0.0,0.0,0.0,0.0,0.0
1666088301074505041,0.0,0.0,0.0,0.0,0.0,0.0
1666088301094735592,0.0,0.0,0.0,0.0,0.0,0.0
1666088301136207530,0.0,0.0,0.0,0.0,0.0,0.0
1666088301136234403,0.0,0.0,0.0,0.0,0.0,0.0
1666088301184385645,0.0,0.0,0.0,0.0,0.0,0.0
1666088301184430939,0.0,0.0,0.0,0.0,0.0,0.0
1666088301228182771,0.0,0.0,0.0,0.0,0.0,0.0
1666088301228203576,0.0,0.0,0.0,0.0,0.0,0.0
1666088301272524366,0.0,0.0,0.0,0.0,0.0,0.0
1666088301272581344,0.0,0.0,0.0,0.0,0.0,0.0
1666088301320047145,0.0,0.0,0.0,0.0,0.0,0.0
1666088301320058162,0.0,0.0,0.0,0.0,0.0,0.0
1666088301320066986,0.0,0.0,0.0,0.0,0.0,0.0
1666088301364112464,0.0,0.0,0.0,0.0,0.0,0.0
1666088301364134406,0.0,0.0,0.0,0.0,0.0,0.0
1666088301374786682,0.0,0.0,0.0,0.0,0.0,0.0
1666088301394176826,0.0,0.0,0.0,0.0,0.0,0.0
1666088301440181542,0.0,0.0,0.0,0.0,0.0,0.0
1666088301440217368,0.0,0.0,0.0,0.0,0.0,0.0
1666088301484084951,0.0,0.0,0.0,0.0,0.0,0.0
1666088301484107966,0.0,0.0,0.0,0.0,0.0,0.0
1666088301532070872,0.0,0.0,0.0,0.0,0.0,0.0
1666088301532084282,0.0,0.0,0.0,0.0,0.0,0.0
1666088301576573264,0.0,0.0,0.0,0.0,0.0,0.0
1666088301576641030,0.0,0.0,0.0,0.0,0.0,0.0
1666088301576656564,0.0,0.0,0.0,0.0,0.0,0.0
1666088301620054379,0.0,0.0,0.0,0.0,0.0,0.0
1666088301620067775,0.0,0.0,0.0,0.0,0.0,0.0
1666088301637068485,0.0,0.0,0.0,0.0,0.0,0.0
1666088301657665248,0.0,0.0,0.0,0.0,0.0,0.0
1666088301704682464,0.0,0.0,0.0,0.0,0.0,0.0
1666088301705416143,0.0,0.0,0.0,0.0,0.0,0.0
1666088301748079763,0.0,0.0,0.0,0.0,0.0,0.0
1666088301748094653,0.0,0.0,0.0,0.0,0.0,0.0
1666088301792123398,0.0,0.0,0.0,0.0,0.0,0.0
1666088301792138242,0.0,0.0,0.0,0.0,0.0,0.0
1666088301836124063,0.0,0.0,0.0,0.0,0.0,0.0
1666088301836142987,0.0,0.0,0.0,0.0,0.0,0.0
1666088301836157693,0.0,0.0,0.0,0.0,0.0,0.0
1666088301880077193,0.0,0.0,0.0,0.0,0.0,0.0
1666088301880088402,0.0,0.0,0.0,0.0,0.0,0.0
1666088301894253350,0.0,0.0,0.0,0.0,0.0,0.0
1666088301914732999,0.0,0.0,0.0,0.0,0.0,0.0
1666088301956081393,0.0,0.0,0.0,0.0,0.0,0.0
1666088301956093522,0.0,0.0,0.0,0.0,0.0,0.0
1666088302000164294,0.0,0.0,0.0,0.0,0.0,0.0
1666088302000184476,0.0,0.0,0.0,0.0,0.0,0.0
1666088302044318257,0.0,0.0,0.0,0.0,0.0,0.0
1666088302044367110,0.0,0.0,0.0,0.0,0.0,0.0
1666088302088087532,0.0,0.0,0.0,0.0,0.0,0.0
1666088302088107539,0.0,0.0,0.0,0.0,0.0,0.0
1666088302132105891,0.0,0.0,0.0,0.0,0.0,0.0
1666088302132116623,0.0,0.0,0.0,0.0,0.0,0.0
1666088302176345990,0.0,0.0,0.0,0.0,0.0,0.0
1666088302176384604,0.0,0.0,0.0,0.0,0.0,0.0
1666088302176408332,0.0,0.0,0.0,0.0,0.0,0.0
1666088302220056202,0.0,0.0,0.0,0.0,0.0,0.0
1666088302220068261,0.0,0.0,0.0,0.0,0.0,0.0
1666088302233960922,0.0,0.0,0.0,0.0,0.0,0.0
1666088302254347620,0.0,0.0,0.0,0.0,0.0,0.0
1666088302296181279,0.0,0.0,0.0,0.0,0.0,0.0
1666088302296201827,0.0,0.0,0.0,0.0,0.0,0.0
1666088302340177302,0.0,0.0,0.0,0.0,0.0,0.0
1666088302340200669,0.0,0.0,0.0,0.0,0.0,0.0
1666088302384128854,0.0,0.0,0.0,0.0,0.0,0.0
1666088302384146870,0.0,0.0,0.0,0.0,0.0,0.0
1666088302428072057,0.0,0.0,0.0,0.0,0.0,0.0
1666088302428081384,0.0,0.0,0.0,0.0,0.0,-0.00017453292519943296
1666088302472137091,0.0,0.0,0.0,0.0,0.0,-0.0010471975511965976
1666088302472161525,0.0,0.0,0.0,0.0,0.0,0.0012217304763960308
1666088302516227598,0.0,0.0,0.0,0.0,0.0,0.00034906585039886593
1666088302516260904,0.0,0.0,0.0,0.0,0.0,0.0041887902047863905
1666088302516268359,-0.002132302208337933,0.0,0.0,0.0,0.0,0.00471238898038469
1666088302560100572,-0.004264604416675866,0.0,0.0,0.0,0.0,0.0012217304763960308
1666088302560115097,0.0,0.0,0.0,0.0,0.0,-0.004014257279586958
1666088302573961263,0.0,0.0,0.0,0.0,0.0,-0.004014257279586958
1666088302594912956,-0.004264604416675866,0.0,0.0,0.0,0.0,-0.0024434609527920616
1666088302636195406,-0.008529208833351731,0.0,0.0,0.0,0.0,0.004014257279586958
1666088302636225791,-0.002132302208337933,0.0,0.0,0.0,0.0,0.0012217304763960308
1666088302680080617,0.002132302208337933,0.0,0.0,0.0,0.0,-0.0010471975511965976
1666088302680089273,0.002132302208337933,0.0,0.0,0.0,0.0,-0.0024434609527920616
1666088302728081142,-0.010661511041689664,0.0,0.0,0.0,0.0,-0.005235987755982988
1666088302728102666,-0.006396906625013799,0.0,0.0,0.0,0.0,-0.0041887902047863905
1666088302776051055,0.004264604416675866,0.0,0.0,0.0,0.0,-0.0017453292519943296
1666088302776066296,0.0,0.0,0.0,0.0,0.0,-0.019896753472735354
1666088302776072872,-0.010661511041689664,0.0,0.0,0.0,0.0,-0.05113814708343386
1666088302820330842,-0.006396906625013799,0.0,0.0,0.0,0.0,-0.08744099552491591
1666088302820372520,0.004264604416675866,0.0,0.0,0.0,0.0,-0.10471975511965977
1666088302835532049,0.006396906625013799,0.0,0.0,0.0,0.0,-0.1324704902263696
1666088302854951729,-0.008529208833351731,0.0,0.0,0.0,0.0,-0.1881464933649887
1666088302900153225,0.0,0.0,0.0,0.0,0.0,-0.24539329283040273
1666088302900176495,0.006396906625013799,0.0,0.0,0.0,0.0,-0.31590459461097364
1666088302944516759,-0.002132302208337933,0.0,0.0,0.0,0.0,-0.3426081321664869
1666088302944572488,-0.006396906625013799,0.0,0.0,0.0,0.0,-0.38065630985996324
1666088302992057313,-0.002132302208337933,0.0,0.0,0.0,0.0,-0.4300491276914028
1666088302992069690,0.0,0.0,0.0,0.0,0.0,-0.45745079694771373
1666088303036134267,0.0,0.0,0.0,0.0,0.0,-0.48589966375522137
1666088303036147893,-0.002132302208337933,0.0,0.0,0.0,0.0,-0.5153957281139255
1666088303036159849,-0.002132302208337933,0.0,0.0,0.0,0.0,-0.5506513790042109
1666088303084219743,-0.002132302208337933,0.0,0.0,0.0,0.0,-0.6326818538479444
1666088303084247271,-0.006396906625013799,0.0,0.0,0.0,0.0,-0.6544984694978736
1666088303094497217,-0.002132302208337933,0.0,0.0,0.0,0.0,-0.6595599243286572
1666088303114289628,0.0,0.0,0.0,0.0,0.0,-0.6702064327658225
1666088303156259072,-0.002132302208337933,0.0,0.0,0.0,0.0,-0.6918485154905523
1666088303156293236,-0.004264604416675866,0.0,0.0,0.0,0.0,-0.713141532364883
1666088303204135783,-0.006396906625013799,0.0,0.0,0.0,0.0,-0.7178539213452677
1666088303204158787,0.006396906625013799,0.0,0.0,0.0,0.0,-0.7065092812073045
1666088303248044450,0.002132302208337933,0.0,0.0,0.0,0.0,-0.6890559886873612
1666088303248058217,-0.002132302208337933,0.0,0.0,0.0,0.0,-0.6873106594353671
1666088303292139160,-0.004264604416675866,0.0,0.0,0.0,0.0,-0.692197581340951
1666088303292165732,0.0,0.0,0.0,0.0,0.0,-0.690975850864555
1666088303336060526,0.0,0.0,0.0,0.0,0.0,-0.6702064327658225
1666088303336076956,0.0,0.0,0.0,0.0,0.0,-0.6564183316750674
1666088303336082763,-0.002132302208337933,0.0,0.0,0.0,0.0,-0.6581636609270617
1666088303380097178,-0.004264604416675866,0.0,0.0,0.0,0.0,-0.6520550085450816
1666088303380111034,-0.006396906625013799,0.0,0.0,0.0,0.0,-0.646644487863899
1666088303395227788,-0.004264604416675866,0.0,0.0,0.0,0.0,-0.6468190207890986
1666088303414804414,0.002132302208337933,0.0,0.0,0.0,0.0,-0.6529276731710786
1666088303460197761,-0.002132302208337933,0.0,0.0,0.0,0.0,-0.6455972903127025
1666088303460222647,-0.002132302208337933,0.0,0.0,0.0,0.0,-0.6394886379307223
1666088303508207955,-0.002132302208337933,0.0,0.0,0.0,0.0,-0.6354743806511354
1666088303508234466,-0.004264604416675866,0.0,0.0,0.0,0.0,-0.637743308678728
1666088303556162563,-0.002132302208337933,0.0,0.0,0.0,0.0,-0.6394886379307223
1666088303556190992,0.002132302208337933,0.0,0.0,0.0,0.0,-0.6316346562967478
1666088303556206189,0.0,0.0,0.0,0.0,0.0,-0.6265732014659643
1666088303604074338,0.0,0.0,0.0,0.0,0.0,-0.620813614934383
1666088303604091820,-0.004264604416675866,0.0,0.0,0.0,0.0,-0.6063273821428301
1666088303615347597,-0.006396906625013799,0.0,0.0,0.0,0.0,-0.5937610115284709
1666088303635243210,0.002132302208337933,0.0,0.0,0.0,0.0,-0.5883504908472885
1666088303680076761,0.008529208833351731,0.0,0.0,0.0,0.0,-0.5766567848589265
1666088303680090961,-0.002132302208337933,0.0,0.0,0.0,0.0,-0.524471440224296
1666088303728183532,-0.004264604416675866,0.0,0.0,0.0,0.0,-0.42149701435663056
1666088303728204186,-0.002132302208337933,0.0,0.0,0.0,0.0,-0.29688050576423547
1666088303776264091,0.002132302208337933,0.0,0.0,0.0,0.0,-0.1916371518689774
1666088303776326309,0.0,0.0,0.0,0.0,0.0,-0.12496557444279399
1666088303776593243,0.0,0.0,0.0,0.0,0.0,-0.05096361415823442
1666088303824067355,-0.002132302208337933,0.0,0.0,0.0,0.0,0.008377580409572781
1666088303824084036,-0.006396906625013799,0.0,0.0,0.0,0.0,0.00017453292519943296
1666088303835413393,0.0,0.0,0.0,0.0,0.0,-0.008203047484373348
1666088303855674295,-0.004264604416675866,0.0,0.0,0.0,0.0,-0.004363323129985824
1666088303900118679,0.002132302208337933,0.0,0.0,0.0,0.0,-0.006806784082777885
1666088303900158145,0.002132302208337933,0.0,0.0,0.0,0.0,-0.00942477796076938
1666088303944067570,-0.002132302208337933,0.0,0.0,0.0,0.0,-0.004886921905584123
1666088303944081676,-0.006396906625013799,0.0,0.0,0.0,0.0,-0.014137166941154071
1666088303988202599,0.0,0.0,0.0,0.0,0.0,-0.04747295565424577
1666088303988231322,0.002132302208337933,0.0,0.0,0.0,0.0,-0.09302604913129776
1666088304032506494,0.004264604416675866,0.0,0.0,0.0,0.0,-0.1218239817892042
1666088304032543886,-0.004264604416675866,0.0,0.0,0.0,0.0,-0.16807520696705394
1666088304076639569,0.0,0.0,0.0,0.0,0.0,-0.1998401993533507
1666088304076702221,0.0,0.0,0.0,0.0,0.0,-0.20943951023931953
1666088304120431093,-0.004264604416675866,0.0,0.0,0.0,0.0,-0.21450096507010308
1666088304120507356,-0.010661511041689664,0.0,0.0,0.0,0.0,-0.21676989309769573
1666088304120575866,-0.002132302208337933,0.0,0.0,0.0,0.0,-0.21380283336930536
1666088304164186612,0.0,0.0,0.0,0.0,0.0,-0.19216075064457566
1666088304164206113,-0.004264604416675866,0.0,0.0,0.0,0.0,-0.17470745812463237
1666088304176407143,-0.004264604416675866,0.0,0.0,0.0,0.0,-0.16179202165987433
1666088304195432072,0.0,0.0,0.0,0.0,0.0,-0.12863076587198208
1666088304240071552,-0.004264604416675866,0.0,0.0,0.0,0.0,-0.10471975511965977
1666088304240086884,-0.002132302208337933,0.0,0.0,0.0,0.0,-0.11030480872604163
1666088304288226496,-0.002132302208337933,0.0,0.0,0.0,0.0,-0.11222467090323537
1666088304288259648,0.0,0.0,0.0,0.0,0.0,-0.11100294042683936
1666088304336374170,-0.004264604416675866,0.0,0.0,0.0,0.0,-0.09424777960769379
1666088304336424162,0.0,0.0,0.0,0.0,0.0,-0.07347836150896127
1666088304336443697,-0.004264604416675866,0.0,0.0,0.0,0.0,-0.0661479786505851
1666088304384293370,0.0,0.0,0.0,0.0,0.0,-0.06562437987498679
1666088304384409564,-0.004264604416675866,0.0,0.0,0.0,0.0,-0.060388392119003806
1666088304399018252,-0.004264604416675866,0.0,0.0,0.0,0.0,-0.049567350756638956
1666088304415707048,-0.004264604416675866,0.0,0.0,0.0,0.0,-0.03979350694547071
1666088304456074505,-0.004264604416675866,0.0,0.0,0.0,0.0,-0.041887902047863905
1666088304456090952,-0.004264604416675866,0.0,0.0,0.0,0.0,-0.034732052114687155
1666088304500313941,-0.002132302208337933,0.0,0.0,0.0,0.0,-0.027925268031909273
1666088304500368872,-0.002132302208337933,0.0,0.0,0.0,0.0,-0.02548180707911721
1666088304544112397,-0.004264604416675866,0.0,0.0,0.0,0.0,-0.028623399732707
1666088304544160578,0.0,0.0,0.0,0.0,0.0,-0.021467549799530253
1666088304588950737,-0.002132302208337933,0.0,0.0,0.0,0.0,-0.015707963267948967
1666088304589015862,-0.002132302208337933,0.0,0.0,0.0,0.0,-0.01972222054753592
1666088304632281157,0.0,0.0,0.0,0.0,0.0,-0.016755160819145562
1666088304632304405,0.0,0.0,0.0,0.0,0.0,-0.00715584993317675
1666088304676321210,-0.002132302208337933,0.0,0.0,0.0,0.0,-0.005061454830783556
1666088304676362702,-0.004264604416675866,0.0,0.0,0.0,0.0,-0.005934119456780722
1666088304676381214,0.0,0.0,0.0,0.0,0.0,-0.004886921905584123
1666088304720441093,-0.002132302208337933,0.0,0.0,0.0,0.0,-0.01064650843716541
1666088304720484988,0.0,0.0,0.0,0.0,0.0,-0.019896753472735354
1666088304736563622,-0.002132302208337933,0.0,0.0,0.0,0.0,-0.017453292519943295
1666088304756035119,0.0,0.0,0.0,0.0,0.0,-0.010122909661567111
1666088304796585875,0.0,0.0,0.0,0.0,0.0,-0.00715584993317675
1666088304844065527,0.0,0.0,0.0,0.0,0.0,-0.0054105206811824215
1666088304844080725,0.0,0.0,0.0,0.0,0.0,-0.004014257279586958
1666088304844086247,0.0,0.0,0.0,0.0,0.0,-0.0036651914291880917
1666088304889027033,-0.002132302208337933,0.0,0.0,0.0,0.0,-0.0022689280275926286
1666088304889104285,0.0,0.0,0.0,0.0,0.0,-0.0022689280275926286
1666088304895970330,0.0,0.0,0.0,0.0,0.0,-0.0020943951023931952
1666088304915846823,-0.002132302208337933,0.0,0.0,0.0,0.0,-0.003316125578789226
1666088304960150748,0.0,0.0,0.0,0.0,0.0,-0.004537856055185257
1666088304960169772,-0.002132302208337933,0.0,0.0,0.0,0.0,-0.0041887902047863905
1666088305008121481,0.0,0.0,0.0,0.0,0.0,-0.0036651914291880917
1666088305008146229,0.0,0.0,0.0,0.0,0.0,-0.008377580409572781
1666088305056104709,-0.002132302208337933,0.0,0.0,0.0,0.0,-0.008028514559173916
1666088305056130269,0.0,0.0,0.0,0.0,0.0,-0.005061454830783556
1666088305056137139,0.0,0.0,0.0,0.0,0.0,-0.0054105206811824215
1666088305100351957,0.0,0.0,0.0,0.0,0.0,-0.006632251157578452
1666088305100421327,0.0,0.0,0.0,0.0,0.0,-0.005585053606381855
1666088305115868976,0.0,0.0,0.0,0.0,0.0,-0.0038397243543875246
1666088305135573783,0.0,0.0,0.0,0.0,0.0,-0.0010471975511965976
1666088305180341070,-0.002132302208337933,0.0,0.0,0.0,0.0,-0.002617993877991494
1666088305180360993,0.0,0.0,0.0,0.0,0.0,-0.0024434609527920616
1666088305224739852,0.0,0.0,0.0,0.0,0.0,-0.0005235987755982988
1666088305224783475,0.0,0.0,0.0,0.0,0.0,-0.002617993877991494
1666088305272099959,0.0,0.0,0.0,0.0,0.0,0.0015707963267948967
1666088305272114604,-0.002132302208337933,0.0,0.0,0.0,0.0,-0.0010471975511965976
1666088305316271730,-0.004264604416675866,0.0,0.0,0.0,0.0,-0.002967059728390361
1666088305316333621,-0.004264604416675866,0.0,0.0,0.0,0.0,-0.0024434609527920616
1666088305364147622,0.0,0.0,0.0,0.0,0.0,-0.006283185307179587
1666088305364168271,-0.004264604416675866,0.0,0.0,0.0,0.0,-0.017976891295541593
1666088305364173837,-0.004264604416675866,0.0,0.0,0.0,0.0,-0.021467549799530253
1666088305412410460,-0.004264604416675866,0.0,0.0,0.0,0.0,-0.021118483949131385
1666088305412520017,-0.004264604416675866,0.0,0.0,0.0,0.0,-0.028274333882308142
1666088305416865395,-0.002132302208337933,0.0,0.0,0.0,0.0,-0.04066617157146788
1666088305435964253,-0.004264604416675866,0.0,0.0,0.0,0.0,-0.04328416544945937
1666088305476417835,-0.004264604416675866,0.0,0.0,0.0,0.0,-0.03944444109507184
1666088305476465795,-0.004264604416675866,0.0,0.0,0.0,0.0,-0.04363323129985824
1666088305520083714,-0.008529208833351731,0.0,0.0,0.0,0.0,-0.05323254218582704
1666088305520099980,-0.006396906625013799,0.0,0.0,0.0,0.0,-0.06335545184739416
1666088305568165146,-0.008529208833351731,0.0,0.0,0.0,0.0,-0.05183627878423159
1666088305568193268,-0.008529208833351731,0.0,0.0,0.0,0.0,-0.04834562028024293
1666088305612376122,-0.004264604416675866,0.0,0.0,0.0,0.0,-0.05026548245743669
1666088305612453745,0.0,0.0,0.0,0.0,0.0,-0.05358160803622591
1666088305660133072,0.002132302208337933,0.0,0.0,0.0,0.0,-0.055326937288220246
1666088305660153036,-0.004264604416675866,0.0,0.0,0.0,0.0,-0.056548667764616284
1666088305660164210,0.0,0.0,0.0,0.0,0.0,-0.05078908123303499
1666088305708327763,0.0,0.0,0.0,0.0,0.0,-0.07330382858376185
1666088305708396697,-0.004264604416675866,0.0,0.0,0.0,0.0,-0.09424777960769379
1666088305716445871,-0.004264604416675866,0.0,0.0,0.0,0.0,-0.09826203688728076
1666088305736583163,0.0,0.0,0.0,0.0,0.0,-0.08970992355250852
1666088305784599075,-0.002132302208337933,0.0,0.0,0.0,0.0,-0.10838494654884787
1666088305784635580,0.002132302208337933,0.0,0.0,0.0,0.0,-0.13212142437597077
1666088305828147603,-0.002132302208337933,0.0,0.0,0.0,0.0,-0.12967796342317867
1666088305828165512,0.002132302208337933,0.0,0.0,0.0,0.0,-0.1254891732183923
1666088305872352431,-0.002132302208337933,0.0,0.0,0.0,0.0,-0.14538592669112765
1666088305872390153,0.0,0.0,0.0,0.0,0.0,-0.1525417766243044
1666088305920329611,-0.002132302208337933,0.0,0.0,0.0,0.0,-0.15865042900628457
1666088305920359990,-0.006396906625013799,0.0,0.0,0.0,0.0,-0.17174039839624203
1666088305920426199,0.002132302208337933,0.0,0.0,0.0,0.0,-0.17348572764823633
1666088305968192471,-0.002132302208337933,0.0,0.0,0.0,0.0,-0.1706932008450454
1666088305968212105,-0.002132302208337933,0.0,0.0,0.0,0.0,-0.18186330805780915
1666088305979570346,-0.008529208833351731,0.0,0.0,0.0,0.0,-0.20315632493213995
1666088305997208508,0.0,0.0,0.0,0.0,0.0,-0.2038544566329377
1666088306040266836,0.0,0.0,0.0,0.0,0.0,-0.19512781037296603
1666088306040284695,-0.004264604416675866,0.0,0.0,0.0,0.0,-0.20245819323134223
1666088306088218425,-0.006396906625013799,0.0,0.0,0.0,0.0,-0.21729349187329403
1666088306088245486,-0.002132302208337933,0.0,0.0,0.0,0.0,-0.22444934180647075
1666088306136115435,-0.004264604416675866,0.0,0.0,0.0,0.0,-0.21432643214490363
1666088306136129898,0.002132302208337933,0.0,0.0,0.0,0.0,-0.1989675347273536
1666088306184203236,-0.002132302208337933,0.0,0.0,0.0,0.0,-0.20699604928652748
1666088306184232448,-0.002132302208337933,0.0,0.0,0.0,0.0,-0.22532200643246797
1666088306184239222,-0.002132302208337933,0.0,0.0,0.0,0.0,-0.23125612588924865
1666088306229845805,0.006396906625013799,0.0,0.0,0.0,0.0,-0.2209586833024821
1666088306229945007,0.0,0.0,0.0,0.0,0.0,-0.21903882112528836
1666088306237599103,-0.004264604416675866,0.0,0.0,0.0,0.0,-0.2319542575900464
1666088306256944536,0.0,0.0,0.0,0.0,0.0,-0.25237460983838006
1666088306304457520,0.0,0.0,0.0,0.0,0.0,-0.25394540616517497
1666088306304508153,-0.006396906625013799,0.0,0.0,0.0,0.0,-0.24766222085799536
1666088306352128690,0.0,0.0,0.0,0.0,0.0,-0.2584832622203602
1666088306352160949,0.012793813250027599,0.0,0.0,0.0,0.0,-0.2675589743307307
1666088306400125456,0.006396906625013799,0.0,0.0,0.0,0.0,-0.2638937829015426
1666088306400143857,0.0,0.0,0.0,0.0,0.0,-0.2556907354171693
1666088306400160898,0.025587626500055197,0.0,0.0,0.0,0.0,-0.24801128670839426
1666088306448459679,0.025587626500055197,0.0,0.0,0.0,0.0,-0.24853488548399255
1666088306448504903,0.027719928708393127,0.0,0.0,0.0,0.0,-0.24975661596038856
1666088306456458960,0.025587626500055197,0.0,0.0,0.0,0.0,-0.25185101106278174
1666088306476104975,0.027719928708393127,0.0,0.0,0.0,0.0,-0.2556907354171693
1666088306524203639,0.04691064858343452,0.0,0.0,0.0,0.0,-0.25028021473598683
1666088306524223703,0.03198453312506899,0.0,0.0,0.0,0.0,-0.23876104167282428
1666088306572773249,0.04691064858343452,0.0,0.0,0.0,0.0,-0.24870941840919195
1666088306572811048,0.05757215962512419,0.0,0.0,0.0,0.0,-0.2663372438543347
1666088306616072037,0.05543985741678625,0.0,0.0,0.0,0.0,-0.26668630970473356
1666088306616085723,0.06823367066681385,0.0,0.0,0.0,0.0,-0.266860842629933
1666088306664231523,0.06610136845847592,0.0,0.0,0.0,0.0,-0.26738444140553125
1666088306664261140,0.08315978612517938,0.0,0.0,0.0,0.0,-0.27454029133870805
1666088306664272114,0.08102748391684146,0.0,0.0,0.0,0.0,-0.27296949501191314
1666088306712498633,0.07889518170850353,0.0,0.0,0.0,0.0,-0.26424284875194154
1666088306712566474,0.08742439054185526,0.0,0.0,0.0,0.0,-0.2541199390903744
1666088306716326239,0.09595359937520698,0.0,0.0,0.0,0.0,-0.2509783464367846
1666088306737370751,0.10874741262523457,0.0,0.0,0.0,0.0,-0.2638937829015426
1666088306780208010,0.09808590158354492,0.0,0.0,0.0,0.0,-0.2488839513343914
1666088306780322123,0.09808590158354492,0.0,0.0,0.0,0.0,-0.2307325271136504
1666088306824261928,0.12154122587526218,0.0,0.0,0.0,0.0,-0.23212879051524585
1666088306824293379,0.12154122587526218,0.0,0.0,0.0,0.0,-0.23788837704682714
1666088306872059589,0.12793813250027597,0.0,0.0,0.0,0.0,-0.22602013813326566
1666088306872074229,0.12793813250027597,0.0,0.0,0.0,0.0,-0.20961404316451898
1666088306916245331,0.12580583029193804,0.0,0.0,0.0,0.0,-0.22043508452688382
1666088306916283113,0.14286424795864153,0.0,0.0,0.0,0.0,-0.21467549799530256
1666088306960455068,0.1492611545836553,0.0,0.0,0.0,0.0,-0.20228366030614278
1666088306960524277,0.1492611545836553,0.0,0.0,0.0,0.0,-0.19530234329816545
1666088306960573577,0.15139345679199323,0.0,0.0,0.0,0.0,-0.18849555921538758
1666088307004085717,0.159922665625345,0.0,0.0,0.0,0.0,-0.2038544566329377
1666088307004110468,0.16631957225035876,0.0,0.0,0.0,0.0,-0.20943951023931953
1666088307016302350,0.17484878108371052,0.0,0.0,0.0,0.0,-0.18116517635701143
1666088307037195140,0.18124568770872432,0.0,0.0,0.0,0.0,-0.20123646275494617
1666088307084070811,0.18124568770872432,0.0,0.0,0.0,0.0,-0.1837831702350029
1666088307084085685,0.17698108329204845,0.0,0.0,0.0,0.0,-0.17819811662862106
1666088307132180868,0.18977489654207602,0.0,0.0,0.0,0.0,-0.18867009214058703
1666088307132206022,0.19617180316708985,0.0,0.0,0.0,0.0,-0.1710422666954443
1666088307180091952,0.2004364075837657,0.0,0.0,0.0,0.0,-0.17208946424664087
1666088307180108973,0.20470101200044158,0.0,0.0,0.0,0.0,-0.16894787159305108
1666088307180114078,0.2004364075837657,0.0,0.0,0.0,0.0,-0.17924531417981765
1666088307224141274,0.221759429667145,0.0,0.0,0.0,0.0,-0.16441001553786583
1666088307224161385,0.22602403408382088,0.0,0.0,0.0,0.0,-0.17139133254584316
1666088307237617866,0.23242094070883468,0.0,0.0,0.0,0.0,-0.16336281798666924
1666088307259769229,0.23028863850049677,0.0,0.0,0.0,0.0,-0.1525417766243044
1666088307304424504,0.221759429667145,0.0,0.0,0.0,0.0,-0.14503686084072878
1666088307304471525,0.2516116605838761,0.0,0.0,0.0,0.0,-0.14119713648634125
1666088307352170361,0.2516116605838761,0.0,0.0,0.0,0.0,-0.13578661580515883
1666088307352238324,0.2622731716255658,0.0,0.0,0.0,0.0,-0.1329940890019679
1666088307400388999,0.24947935837553817,0.0,0.0,0.0,0.0,-0.12915436464758037
1666088307400416035,0.253743962792214,0.0,0.0,0.0,0.0,-0.12950343049797924
1666088307400423246,0.2771992870839313,0.0,0.0,0.0,0.0,-0.1254891732183923
1666088307448244561,0.27506698487559333,0.0,0.0,0.0,0.0,-0.13107422682477415
1666088307448275055,0.28359619370894507,0.0,0.0,0.0,0.0,-0.12880529879718153
1666088307458266394,0.2814638915006072,0.0,0.0,0.0,0.0,-0.12374384396639797
1666088307476883630,0.28359619370894507,0.0,0.0,0.0,0.0,-0.12723450247038662
1666088307524276530,0.3006546113756486,0.0,0.0,0.0,0.0,-0.1101302758008422
1666088307524317504,0.30278691358398646,0.0,0.0,0.0,0.0,-0.1096066770252439
1666088307572159333,0.30918382020900026,0.0,0.0,0.0,0.0,-0.10437068926926091
1666088307572185785,0.30918382020900026,0.0,0.0,0.0,0.0,-0.10698868314725239
1666088307620327725,0.30491921579232445,0.0,0.0,0.0,0.0,-0.10506882097005864
1666088307620352251,0.32197763345902786,0.0,0.0,0.0,0.0,-0.09896016858807849
1666088307620455622,0.32837454008404166,0.0,0.0,0.0,0.0,-0.09599310885968812
1666088307668188115,0.34330065554240724,0.0,0.0,0.0,0.0,-0.0973893722612836
1666088307668206073,0.3369037489173934,0.0,0.0,0.0,0.0,-0.08639379797371932
1666088307678477139,0.33050684229237964,0.0,0.0,0.0,0.0,-0.079412480965742
1666088307697434070,0.34969756216742104,0.0,0.0,0.0,0.0,-0.08237954069413235
1666088307744179768,0.36035907320911065,0.0,0.0,0.0,0.0,-0.08656833089891874
1666088307744212050,0.36249137541744864,0.0,0.0,0.0,0.0,-0.07330382858376185
1666088307788404058,0.36249137541744864,0.0,0.0,0.0,0.0,-0.07173303225696695
1666088307788472622,0.3539621665840969,0.0,0.0,0.0,0.0,-0.08290313946973064
1666088307836107218,0.38594669970916584,0.0,0.0,0.0,0.0,-0.0762708883121522
1666088307836127495,0.38594669970916584,0.0,0.0,0.0,0.0,-0.06335545184739416
1666088307884477168,0.38594669970916584,0.0,0.0,0.0,0.0,-0.06876597252857658
1666088307884531006,0.38168209529249003,0.0,0.0,0.0,0.0,-0.07260569688296412
1666088307884544288,0.3838143975008279,0.0,0.0,0.0,0.0,-0.07504915783575616
1666088307932105913,0.40300511737586936,0.0,0.0,0.0,0.0,-0.08168140899333462
1666088307932121264,0.41153432620922104,0.0,0.0,0.0,0.0,-0.0747000919853573
1666088307936600117,0.4179312328342349,0.0,0.0,0.0,0.0,-0.07400196028455958
1666088307959817300,0.42219583725091075,0.0,0.0,0.0,0.0,-0.07993607974134029
1666088308000565793,0.40513741958420724,0.0,0.0,0.0,0.0,-0.07330382858376185
1666088308000677426,0.42646044166758657,0.0,0.0,0.0,0.0,-0.06230825429619756
1666088308048145556,0.4349896505009383,0.0,0.0,0.0,0.0,-0.06021385919380437
1666088308048168787,0.4392542549176142,0.0,0.0,0.0,0.0,-0.05864306286700947
1666088308092570253,0.44778346375096595,0.0,0.0,0.0,0.0,-0.061261056745000965
1666088308092680304,0.4349896505009383,0.0,0.0,0.0,0.0,-0.06422811647339133
1666088308136122955,0.45418037037597975,0.0,0.0,0.0,0.0,-0.07278022980816354
1666088308136148749,0.4669741836260073,0.0,0.0,0.0,0.0,-0.08325220532012952
1666088308184439523,0.4712387880426832,0.0,0.0,0.0,0.0,-0.08290313946973064
1666088308184460066,0.4691064858343453,0.0,0.0,0.0,0.0,-0.08970992355250852
1666088308184496526,0.4627095792093315,0.0,0.0,0.0,0.0,-0.09424777960769379
1666088308228069898,0.4840326012927108,0.0,0.0,0.0,0.0,-0.08604473212332044
1666088308228084267,0.49256181012606254,0.0,0.0,0.0,0.0,-0.0747000919853573
1666088308236908406,0.5010910189594143,0.0,0.0,0.0,0.0,-0.06998770300497262
1666088308258353508,0.49895871675107634,0.0,0.0,0.0,0.0,-0.08220500776893291
1666088308300046232,0.49256181012606254,0.0,0.0,0.0,0.0,-0.08080874436733745
1666088308300058423,0.507487925584428,0.0,0.0,0.0,0.0,-0.07661995416255106
1666088308344046969,0.5181494366261178,0.0,0.0,0.0,0.0,-0.08674286382411817
1666088308344057794,0.5202817388344556,0.0,0.0,0.0,0.0,-0.07487462491055674
1666088308388111516,0.5245463432511316,0.0,0.0,0.0,0.0,-0.06370451769779302
1666088308388134362,0.5245463432511316,0.0,0.0,0.0,0.0,-0.05951572749300663
1666088308432275589,0.5394724587094971,0.0,0.0,0.0,0.0,-0.05759586531581287
1666088308432298918,0.5458693653345108,0.0,0.0,0.0,0.0,-0.05323254218582704
1666088308476334913,0.5458693653345108,0.0,0.0,0.0,0.0,-0.04031710572106901
1666088308476362479,0.5458693653345108,0.0,0.0,0.0,0.0,-0.04363323129985824
1666088308520098856,0.5480016675428488,0.0,0.0,0.0,0.0,-0.048520153205442354
1666088308520118174,0.5480016675428488,0.0,0.0,0.0,0.0,-0.04293509959906051
1666088308520125272,0.5629277830012144,0.0,0.0,0.0,0.0,-0.05131268000863328
1666088308564146364,0.5650600852095522,0.0,0.0,0.0,0.0,-0.048869219055841226
1666088308564180309,0.5693246896262281,0.0,0.0,0.0,0.0,-0.046949356878647465
1666088308577748954,0.5671923874178901,0.0,0.0,0.0,0.0,-0.04625122517784973
1666088308597461367,0.5757215962512419,0.0,0.0,0.0,0.0,-0.049567350756638956
1666088308644101371,0.5799862006679177,0.0,0.0,0.0,0.0,-0.038571776469074684
1666088308644119396,0.5927800139179454,0.0,0.0,0.0,0.0,-0.03490658503988659
1666088308692420579,0.5842508050845936,0.0,0.0,0.0,0.0,-0.029321531433504733
1666088308692451733,0.5885154095012695,0.0,0.0,0.0,0.0,-0.017453292519943295
1666088308740313340,0.5927800139179454,0.0,0.0,0.0,0.0,-0.015009831567151233
1666088308740351048,0.6055738271679729,0.0,0.0,0.0,0.0,-0.0291469985083053
1666088308740357240,0.607706129376311,0.0,0.0,0.0,0.0,-0.039269908169872414
1666088308784099064,0.607706129376311,0.0,0.0,0.0,0.0,-0.007679448708775049
1666088308784112591,0.5991769205429591,0.0,0.0,0.0,0.0,0.00017453292519943296
1666088308797669499,0.603441524959635,0.0,0.0,0.0,0.0,-0.01064650843716541
1666088308817453267,0.6162353382096627,0.0,0.0,0.0,0.0,0.02234021442552742
1666088308867459589,0.6183676404180005,0.0,0.0,0.0,0.0,0.008377580409572781
1666088308867494816,0.6119707337929867,0.0,0.0,0.0,0.0,-0.02391101075232232
1666088308908193026,0.6162353382096627,0.0,0.0,0.0,0.0,-0.017453292519943295
1666088308908221119,0.6098384315846489,0.0,0.0,0.0,0.0,-0.04031710572106901
1666088308952084215,0.6162353382096627,0.0,0.0,0.0,0.0,0.0006981317007977319
1666088308952102092,0.6183676404180005,0.0,0.0,0.0,0.0,-0.0008726646259971648
1666088309000143230,0.6119707337929867,0.0,0.0,0.0,0.0,-0.016929693744344998
1666088309000169900,0.6098384315846489,0.0,0.0,0.0,0.0,0.02181661564992912
1666088309000177447,0.6183676404180005,0.0,0.0,0.0,0.0,0.006981317007977318
1666088309044100285,0.6141030360013247,0.0,0.0,0.0,0.0,-0.01815142422074103
1666088309044117595,0.6098384315846489,0.0,0.0,0.0,0.0,-0.011344640137963142
1666088309058846395,0.5970446183346212,0.0,0.0,0.0,0.0,-0.015707963267948967
1666088309077458083,0.6055738271679729,0.0,0.0,0.0,0.0,-0.034033920413889425
1666088309120343427,0.6119707337929867,0.0,0.0,0.0,0.0,-0.05061454830783556
1666088309120386507,0.607706129376311,0.0,0.0,0.0,0.0,-0.03979350694547071
1666088309168312468,0.6098384315846489,0.0,0.0,0.0,0.0,-0.033335788713091695
1666088309168374260,0.607706129376311,0.0,0.0,0.0,0.0,-0.04066617157146788
1666088309212604088,0.6141030360013247,0.0,0.0,0.0,0.0,-0.049567350756638956
1666088309212672436,0.6098384315846489,0.0,0.0,0.0,0.0,-0.02775073510670984
1666088309256268526,0.6055738271679729,0.0,0.0,0.0,0.0,-0.023736477827122886
1666088309256300867,0.5906477117096074,0.0,0.0,0.0,0.0,-0.033510321638291124
1666088309304337627,0.5906477117096074,0.0,0.0,0.0,0.0,-0.048520153205442354
1666088309304379252,0.5949123161262834,0.0,0.0,0.0,0.0,-0.048869219055841226
1666088309304426231,0.5970446183346212,0.0,0.0,0.0,0.0,-0.046076692252650306
1666088309348081643,0.5927800139179454,0.0,0.0,0.0,0.0,-0.06824237375297829
1666088309348096853,0.6013092227512972,0.0,0.0,0.0,0.0,-0.03682644721708035
1666088309358516077,0.5949123161262834,0.0,0.0,0.0,0.0,-0.010122909661567111
1666088309379536323,0.5991769205429591,0.0,0.0,0.0,0.0,-0.022689280275926284
1666088309420103291,0.607706129376311,0.0,0.0,0.0,0.0,-0.02234021442552742
1666088309420134699,0.6055738271679729,0.0,0.0,0.0,0.0,-0.014486232791552934
1666088309468172703,0.6098384315846489,0.0,0.0,0.0,0.0,0.017976891295541593
1666088309468199013,0.6162353382096627,0.0,0.0,0.0,0.0,0.02565634000431664
1666088309512105790,0.6141030360013247,0.0,0.0,0.0,0.0,0.0013962634015954637
1666088309512118136,0.6141030360013247,0.0,0.0,0.0,0.0,-0.00017453292519943296
1666088309556121034,0.6055738271679729,0.0,0.0,0.0,0.0,0.016929693744344998
1666088309556137564,0.5970446183346212,0.0,0.0,0.0,0.0,-0.0010471975511965976
1666088309601054078,0.5991769205429591,0.0,0.0,0.0,0.0,-0.00890117918517108
1666088309601066529,0.5927800139179454,0.0,0.0,0.0,0.0,-0.011519173063162576
1666088309601069579,0.5927800139179454,0.0,0.0,0.0,0.0,0.006283185307179587
1666088309644088275,0.5927800139179454,0.0,0.0,0.0,0.0,-0.007853981633974483
1666088309644106999,0.5991769205429591,0.0,0.0,0.0,0.0,-0.00890117918517108
1666088309658450357,0.5949123161262834,0.0,0.0,0.0,0.0,-0.03647738136668148
1666088309678597820,0.5906477117096074,0.0,0.0,0.0,0.0,-0.08290313946973064
1666088309724323837,0.5906477117096074,0.0,0.0,0.0,0.0,-0.10227629416686772
1666088309724368849,0.5778538984595799,0.0,0.0,0.0,0.0,-0.12426744274199628
1666088309772078703,0.5821185028762557,0.0,0.0,0.0,0.0,-0.14364059743913332
1666088309772101001,0.5799862006679177,0.0,0.0,0.0,0.0,-0.14521139376592823
1666088309816096964,0.5821185028762557,0.0,0.0,0.0,0.0,-0.1837831702350029
1666088309816109310,0.5650600852095522,0.0,0.0,0.0,0.0,-0.21345376751890652
1666088309860513993,0.5607954807928763,0.0,0.0,0.0,0.0,-0.20542525295973257
1666088309860561335,0.5650600852095522,0.0,0.0,0.0,0.0,-0.2150245638457014
1666088309860614932,0.5629277830012144,0.0,0.0,0.0,0.0,-0.21676989309769573
1666088309904170491,0.5565308763762006,0.0,0.0,0.0,0.0,-0.2630211182755455
1666088309904281815,0.5629277830012144,0.0,0.0,0.0,0.0,-0.23108159296404923
1666088309919741950,0.5629277830012144,0.0,0.0,0.0,0.0,-0.2111848394913139
1666088309940633210,0.5650600852095522,0.0,0.0,0.0,0.0,-0.2246238747316702
1666088309980065952,0.5543985741678626,0.0,0.0,0.0,0.0,-0.19879300180215415
1666088309980095386,0.5586631785845384,0.0,0.0,0.0,0.0,-0.22287854547967584
1666088310024331015,0.5458693653345108,0.0,0.0,0.0,0.0,-0.22218041377887815
1666088310024353741,0.5458693653345108,0.0,0.0,0.0,0.0,-0.2707005669843205
1666088310068140859,0.5394724587094971,0.0,0.0,0.0,0.0,-0.2991494337918281
1666088310068159992,0.5458693653345108,0.0,0.0,0.0,0.0,-0.2907718533822553
1666088310112053185,0.5394724587094971,0.0,0.0,0.0,0.0,-0.300720230118623
1666088310112062703,0.5373401565011591,0.0,0.0,0.0,0.0,-0.2839650692994774
1666088310156208831,0.5352078542928211,0.0,0.0,0.0,0.0,-0.2946115777366428
1666088310156233700,0.5352078542928211,0.0,0.0,0.0,0.0,-0.27715828521669955
1666088310200414886,0.5352078542928211,0.0,0.0,0.0,0.0,-0.2975786374650332
1666088310202448994,0.5288109476678073,0.0,0.0,0.0,0.0,-0.3179989897133668
1666088310244095836,0.5288109476678073,0.0,0.0,0.0,0.0,-0.29513517651224114
1666088310244116090,0.5266786454594694,0.0,0.0,0.0,0.0,-0.3035127569218139
1666088310244122303,0.5224140410427935,0.0,0.0,0.0,0.0,-0.30264009229581673
1666088310288034238,0.5309432498761453,0.0,0.0,0.0,0.0,-0.31782445678816745
1666088310288040647,0.5266786454594694,0.0,0.0,0.0,0.0,-0.3204424506661589
1666088310298446490,0.5224140410427935,0.0,0.0,0.0,0.0,-0.312413936106985
1666088310318556020,0.5181494366261178,0.0,0.0,0.0,0.0,-0.31747539093776855
1666088310360163546,0.5117525300011039,0.0,0.0,0.0,0.0,-0.3230604445441504
1666088310360186051,0.5160171344177797,0.0,0.0,0.0,0.0,-0.32655110304813906
1666088310404141711,0.5224140410427935,0.0,0.0,0.0,0.0,-0.3387684078120993
1666088310404173867,0.49256181012606254,0.0,0.0,0.0,0.0,-0.3576179637336381
1666088310448195336,0.49256181012606254,0.0,0.0,0.0,0.0,-0.38414696836395196
1666088310448222322,0.49256181012606254,0.0,0.0,0.0,0.0,-0.40317105721069013
1666088310492274902,0.49469411233440047,0.0,0.0,0.0,0.0,-0.4537856055185257
1666088310492303954,0.4819002990843728,0.0,0.0,0.0,0.0,-0.4965461721923867
1666088310540086231,0.48616490350104874,0.0,0.0,0.0,0.0,-0.507541746479951
1666088310540106336,0.4840326012927108,0.0,0.0,0.0,0.0,-0.5002113636215749
1666088310540125472,0.4840326012927108,0.0,0.0,0.0,0.0,-0.5216789134211051
1666088310584217556,0.49469411233440047,0.0,0.0,0.0,0.0,-0.5689773361501514
1666088310584252112,0.47976799687603494,0.0,0.0,0.0,0.0,-0.5705481324769462
1666088310599338712,0.4755033924593591,0.0,0.0,0.0,0.0,-0.5345943498858631
1666088310619475190,0.4669741836260073,0.0,0.0,0.0,0.0,-0.5731661263549378
1666088310664102028,0.41579893062589696,0.0,0.0,0.0,0.0,-0.5977752688080579
1666088310664125946,0.40513741958420724,0.0,0.0,0.0,0.0,-0.5984734005088556
1666088310708202735,0.41153432620922104,0.0,0.0,0.0,0.0,-0.6035348553396391
1666088310708228457,0.4349896505009383,0.0,0.0,0.0,0.0,-0.5886995566976873
1666088310752100490,0.4307250460842625,0.0,0.0,0.0,0.0,-0.5860815628196958
1666088310752118039,0.42006353504257277,0.0,0.0,0.0,0.0,-0.5513495107050087
1666088310796300632,0.4243281394592487,0.0,0.0,0.0,0.0,-0.5380850083898517
1666088310796325067,0.4307250460842625,0.0,0.0,0.0,0.0,-0.5291838292046808
1666088310840394839,0.4285927438759245,0.0,0.0,0.0,0.0,-0.5038765550507629
1666088310840440338,0.4328573482926004,0.0,0.0,0.0,0.0,-0.4874704600820162
