%time,field.linear.x,field.linear.y,field.linear.z,field.angular.x,field.angular.y,field.angular.z
1666088302393358591,0.0,0.0,0.0,0.0,0.0,-0.1
1666088302443479318,0.0,0.0,0.0,0.0,0.0,-0.2
1666088302492965530,0.0,0.0,0.0,0.0,0.0,-0.30000000000000004
1666088302542733857,0.0,0.0,0.0,0.0,0.0,-0.4
1666088302593177865,0.0,0.0,0.0,0.0,0.0,-0.5
1666088302642866649,0.0,0.0,0.0,0.0,0.0,-0.6
1666088302692870559,0.0,0.0,0.0,0.0,0.0,-0.7
1666088302742813203,0.0,0.0,0.0,0.0,0.0,-0.7999999999999999
1666088302793267959,0.0,0.0,0.0,0.0,0.0,-0.8999999999999999
1666088302842670478,0.0,0.0,0.0,0.0,0.0,-0.9999999999999999
1666088302892841325,0.0,0.0,0.0,0.0,0.0,-1.0999999999999999
1666088302947692602,0.0,0.0,0.0,0.0,0.0,-1.2
1666088302992561296,0.0,0.0,0.0,0.0,0.0,-1.2217304763960313
1666088303043366895,0.0,0.0,0.0,0.0,0.0,-1.2217304763960313
1666088303092740782,0.0,0.0,0.0,0.0,0.0,-1.2217304763960313
1666088303142874332,0.0,0.0,0.0,0.0,0.0,-1.2217304763960313
1666088303192688236,0.0,0.0,0.0,0.0,0.0,-1.1693976870532956
1666088303242686834,0.0,0.0,0.0,0.0,0.0,-1.1693976870532956
1666088303292969771,0.0,0.0,0.0,0.0,0.0,-1.161495252005168
1666088303343070742,0.0,0.0,0.0,0.0,0.0,-1.161495252005168
1666088303392791786,0.0,0.0,0.0,0.0,0.0,-1.1410718556307873
1666088303442634219,0.0,0.0,0.0,0.0,0.0,-1.104947142930879
1666088303493886904,0.0,0.0,0.0,0.0,0.0,-1.0579711254750734
1666088303542587473,0.0,0.0,0.0,0.0,0.0,-1.0579711254750734
1666088303593012034,0.0,0.0,0.0,0.0,0.0,-0.05797112547507344
1666088303642708526,0.0,0.0,0.0,0.0,0.0,-0.15797112547507344
1666088303692665643,0.0,0.0,0.0,0.0,0.0,-0.25797112547507345
1666088303742584648,0.0,0.0,0.0,0.0,0.0,-0.3579711254750735
1666088303792886619,0.0,0.0,0.0,0.0,0.0,-0.45797112547507346
1666088303842747570,0.0,0.0,0.0,0.0,0.0,-0.5579711254750734
1666088303892631544,0.0,0.0,0.0,0.0,0.0,-0.6579711254750734
1666088303942617687,0.0,0.0,0.0,0.0,0.0,-0.6195383922342773
1666088303992711809,0.0,0.0,0.0,0.0,0.0,-0.5405451849253984
1666088304042619144,0.0,0.0,0.0,0.0,0.0,-0.5405451849253984
1666088304093134469,0.0,0.0,0.0,0.0,0.0,-0.46171822585227984
1666088304143210280,0.0,0.0,0.0,0.0,0.0,-0.46171822585227984
1666088304195604265,0.0,0.0,0.0,0.0,0.0,-0.42745652986053406
1666088304242706269,0.0,0.0,0.0,0.0,0.0,-0.3985701665033866
1666088304292635209,0.0,0.0,0.0,0.0,0.0,-0.3985701665033866
1666088304342792024,0.0,0.0,0.0,0.0,0.0,-0.37308360540720914
1666088304397047320,0.0,0.0,0.0,0.0,0.0,-0.3490658503988664
1666088304442780674,0.0,0.0,0.0,0.0,0.0,-0.3490658503988664
1666088304492808598,0.0,0.0,0.0,0.0,0.0,-0.31212289548630806
1666088304542792286,0.0,0.0,0.0,0.0,0.0,-0.30623061207198254
1666088304593304800,0.0,0.0,0.0,0.0,0.0,-0.30623061207198254
1666088304642610903,0.0,0.0,0.0,0.0,0.0,-0.2934016497676986
1666088304692754040,0.0,0.0,0.0,0.0,0.0,-0.2796153648240641
1666088304743087718,0.0,0.0,0.0,0.0,0.0,-0.26281248691714865
1666088304792794129,0.0,0.0,0.0,0.0,0.0,-0.2638167322872865
1666088304842600520,0.0,0.0,0.0,0.0,0.0,-0.2638167322872865
1666088304893044754,0.0,0.0,0.0,0.0,0.0,-0.2638167322872865
1666088304942757412,0.0,0.0,0.0,0.0,0.0,-0.28114671577612227
1666088304992663388,0.0,0.0,0.0,0.0,0.0,-0.2761375705659353
1666088305042705047,0.0,0.0,0.0,0.0,0.0,-0.2761375705659353
1666088305097360388,0.0,0.0,0.0,0.0,0.0,-0.3024306642403157
1666088305142753058,0.0,0.0,0.0,0.0,0.0,-0.3024306642403157
1666088305193184967,0.0,0.0,0.0,0.0,0.0,-0.3200892151530487
1666088305242665561,0.0,0.0,0.0,0.0,0.0,-0.32955413567190944
1666088305293316698,0.0,0.0,0.0,0.0,0.0,-0.32955413567190944
1666088305342678467,0.0,0.0,0.0,0.0,0.0,-0.3717297704208551
1666088305392862097,0.0,0.0,0.0,0.0,0.0,-0.3817493816794248
1666088305442960258,0.0,0.0,0.0,0.0,0.0,-0.3817493816794248
1666088305492803456,0.0,0.0,0.0,0.0,0.0,-0.4021732886669543
1666088305543470925,0.0,0.0,0.0,0.0,0.0,-0.4021732886669543
1666088305592884935,0.0,0.0,0.0,0.0,0.0,-0.4021732886669543
1666088305642890640,0.0,0.0,0.0,0.0,0.0,-0.426398594972335
1666088305692948834,0.0,0.0,0.0,0.0,0.0,-0.4392877221513475
1666088305742791406,0.0,0.0,0.0,0.0,0.0,-0.4392877221513475
1666088305792994925,0.0,0.0,0.0,0.0,0.0,-0.47209070656623126
1666088305842660477,0.0,0.0,0.0,0.0,0.0,-0.49164023214373603
1666088305892996681,0.0,0.0,0.0,0.0,0.0,-0.49164023214373603
1666088305942963843,0.0,0.0,0.0,0.0,0.0,-0.49164023214373603
1666088305995635793,0.0,0.0,0.0,0.0,0.0,-0.49164023214373603
1666088306042883291,0.0,0.0,0.0,0.0,0.0,-0.5235987755982994
1666088306092713833,0.0,0.0,0.0,0.0,0.0,-0.5235987755982994
1666088306142890419,0.0,0.0,0.0,0.0,0.0,-0.5235987755982994
1666088306192863111,0.0,0.0,0.0,0.0,0.0,-0.5235987755982994
1666088306242866519,0.0,0.0,0.0,0.0,0.0,-0.5235987755982994
1666088306292619331,0.015,0.0,0.0,0.0,0.0,-0.5103486151207083
1666088306342773665,0.03,0.0,0.0,0.0,0.0,-0.49709845464311714
1666088306392729100,0.045,0.0,0.0,0.0,0.0,-0.48458908037730736
1666088306442891421,0.06,0.0,0.0,0.0,0.0,-0.47208433689582463
1666088306495019089,0.075,0.0,0.0,0.0,0.0,-0.4595795934143419
1666088306543430487,0.09,0.0,0.0,0.0,0.0,-0.44714537152262845
1666088306592861079,0.105,0.0,0.0,0.0,0.0,-0.43495383356544576
1666088306642856826,0.12,0.0,0.0,0.0,0.0,-0.42276229560826306
1666088306692678523,0.135,0.0,0.0,0.0,0.0,-0.4110515347417845
1666088306743020581,0.15000000000000002,0.0,0.0,0.0,0.0,-0.4006362919133325
1666088306793019689,0.16500000000000004,0.0,0.0,0.0,0.0,-0.391096943947826
1666088306842868236,0.18000000000000005,0.0,0.0,0.0,0.0,-0.38155759598231953
1666088306893727992,0.19500000000000006,0.0,0.0,0.0,0.0,-0.37261349026886353
1666088306942584917,0.21000000000000008,0.0,0.0,0.0,0.0,-0.36366938455540754
1666088306992808116,0.2250000000000001,0.0,0.0,0.0,0.0,-0.350523159663133
1666088307042825920,0.2400000000000001,0.0,0.0,0.0,0.0,-0.3373703655875804
1666088307093005339,0.2550000000000001,0.0,0.0,0.0,0.0,-0.32421757151202774
1666088307142672299,0.27000000000000013,0.0,0.0,0.0,0.0,-0.31848110451510697
1666088307192714680,0.28500000000000014,0.0,0.0,0.0,0.0,-0.3127446375181862
1666088307244159915,0.30000000000000016,0.0,0.0,0.0,0.0,-0.3073511324987965
1666088307292720592,0.31500000000000017,0.0,0.0,0.0,0.0,-0.30195762747940674
1666088307342741277,0.3300000000000002,0.0,0.0,0.0,0.0,-0.2968351196378822
1666088307393330770,0.3450000000000002,0.0,0.0,0.0,0.0,-0.29176071631107214
1666088307444362246,0.3600000000000002,0.0,0.0,0.0,0.0,-0.2819006353023778
1666088307492684035,0.3750000000000002,0.0,0.0,0.0,0.0,-0.27204055429368346
1666088307542687501,0.39000000000000024,0.0,0.0,0.0,0.0,-0.2674015725310166
1666088307592993439,0.40500000000000025,0.0,0.0,0.0,0.0,-0.2627625907683497
1666088307643611046,0.42000000000000026,0.0,0.0,0.0,0.0,-0.25845270294812533
1666088307692780794,0.4350000000000003,0.0,0.0,0.0,0.0,-0.2541341792262118
1666088307743074109,0.4500000000000003,0.0,0.0,0.0,0.0,-0.2587031277029721
1666088307793074385,0.4650000000000003,0.0,0.0,0.0,0.0,-0.2632720761797324
1666088307842876309,0.4800000000000003,0.0,0.0,0.0,0.0,-0.26853505238563796
1666088307893070102,0.49500000000000033,0.0,0.0,0.0,0.0,-0.27299855760474223
1666088307943124639,0.5100000000000003,0.0,0.0,0.0,0.0,-0.2774620628238465
1666088307992774621,0.5250000000000004,0.0,0.0,0.0,0.0,-0.28192556804295077
1666088308042823015,0.5400000000000004,0.0,0.0,0.0,0.0,-0.28645115054794223
1666088308093096106,0.5550000000000004,0.0,0.0,0.0,0.0,-0.2922268320593017
1666088308142932342,0.5700000000000004,0.0,0.0,0.0,0.0,-0.2968259456650607
1666088308192885421,0.5850000000000004,0.0,0.0,0.0,0.0,-0.3014250592708197
1666088308242658430,0.6000000000000004,0.0,0.0,0.0,0.0,-0.3060241728765787
1666088308292780449,0.6150000000000004,0.0,0.0,0.0,0.0,-0.3106767122580826
1666088308342622067,0.6300000000000004,0.0,0.0,0.0,0.0,-0.3158357384796045
1666088308392670421,0.6450000000000005,0.0,0.0,0.0,0.0,-0.3209947647011264
1666088308443023920,0.6600000000000005,0.0,0.0,0.0,0.0,-0.32579726969334516
1666088308493035702,0.6750000000000005,0.0,0.0,0.0,0.0,-0.33002430753831685
1666088308542597588,0.6900000000000005,0.0,0.0,0.0,0.0,-0.33425134538328855
1666088308592887861,0.7050000000000005,0.0,0.0,0.0,0.0,-0.33847838322826024
1666088308642707923,0.7200000000000005,0.0,0.0,0.0,0.0,-0.3875889155958048
1666088308693106772,0.7350000000000005,0.0,0.0,0.0,0.0,-0.43669944796334925
1666088308742751802,0.7500000000000006,0.0,0.0,0.0,0.0,-0.4811819270106009
1666088308792777547,0.76430344581604,0.0,0.0,0.0,0.0,-0.5235987755982994
1666088308843931449,0.76430344581604,0.0,0.0,0.0,0.0,-0.5235987755982994
1666088308892795565,0.7643764615058899,0.0,0.0,0.0,0.0,-0.5235987755982994
1666088308942698430,0.7621070742607116,0.0,0.0,0.0,0.0,-0.5235987755982994
1666088308993325773,0.6976544260978699,0.0,0.0,0.0,0.0,-0.3490658503988664
1666088309043045435,0.6977965831756592,0.0,0.0,0.0,0.0,-0.3490658503988664
1666088309092873114,0.7127965831756592,0.0,0.0,0.0,0.0,-0.4066268988821365
1666088309142829822,0.7277965831756592,0.0,0.0,0.0,0.0,-0.46418794736540664
1666088309193307011,0.6807178854942322,0.0,0.0,0.0,0.0,-0.3490658503988664
1666088309244518098,0.6807178854942322,0.0,0.0,0.0,0.0,-0.3490658503988664
1666088309292837282,0.6957178854942322,0.0,0.0,0.0,0.0,-0.3490658503988664
1666088309342632837,0.7107178854942322,0.0,0.0,0.0,0.0,-0.3490658503988664
1666088309392878751,0.7257178854942322,0.0,0.0,0.0,0.0,-0.3490658503988664
1666088309442894963,0.7160624861717224,0.0,0.0,0.0,0.0,-0.2497377246618271
1666088309493291885,0.7106210857248069,0.0,0.0,0.0,0.0,-0.34973772466182707
1666088309542575158,0.7051388200374078,0.0,0.0,0.0,0.0,-0.44973772466182704
1666088309592880638,0.6975757263802169,0.0,0.0,0.0,0.0,-0.549737724661827
1666088309642768247,0.690012632723026,0.0,0.0,0.0,0.0,-0.649737724661827
1666088309693134044,0.6822704723202767,0.0,0.0,0.0,0.0,-0.749737724661827
1666088309742687421,0.6578422757655943,0.0,0.0,0.0,0.0,-0.849737724661827
1666088309793009769,0.6522416472434998,0.0,0.0,0.0,0.0,-0.8726646259971653
1666088309846294737,0.6522416472434998,0.0,0.0,0.0,0.0,-0.8726646259971653
1666088309892685766,0.6411251425743103,0.0,0.0,0.0,0.0,-0.8726646259971653
1666088309942848737,0.6289421916007996,0.0,0.0,0.0,0.0,-0.8726646259971653
1666088309992630153,0.6289421916007996,0.0,0.0,0.0,0.0,-0.8726646259971653
1666088310042547814,0.6061607003211975,0.0,0.0,0.0,0.0,-0.8726646259971653
1666088310093590533,0.6061607003211975,0.0,0.0,0.0,0.0,-0.8726646259971653
1666088310142729839,0.5899097323417664,0.0,0.0,0.0,0.0,-0.8726646259971653
1666088310193042948,0.5900518894195557,0.0,0.0,0.0,0.0,-0.8726646259971653
1666088310242909648,0.5900518894195557,0.0,0.0,0.0,0.0,-0.8726646259971653
1666088310292814176,0.5900518894195557,0.0,0.0,0.0,0.0,-0.8726646259971653
1666088310342888819,0.5460989475250244,0.0,0.0,0.0,0.0,-0.8726646259971653
1666088310392935515,0.5308101177215576,0.0,0.0,0.0,0.0,-0.8726646259971653
1666088310443007836,0.5308101177215576,0.0,0.0,0.0,0.0,-0.8726646259971653
1666088310492953745,0.5248526930809021,0.0,0.0,0.0,0.0,-0.8726646259971653
1666088310542665478,0.5248526930809021,0.0,0.0,0.0,0.0,-0.8726646259971653
1666088310592709559,0.4376800954341888,0.0,0.0,0.0,0.0,-0.6981317007977323
1666088310642606285,0.4376800954341888,0.0,0.0,0.0,0.0,-0.6981317007977323
1666088310693665045,0.4526800954341888,0.0,0.0,0.0,0.0,-0.6981317007977323
1666088310742656947,0.4676800954341888,0.0,0.0,0.0,0.0,-0.6981317007977323
1666088310792966058,0.4826800954341888,0.0,0.0,0.0,0.0,-0.6981317007977323
1666088310842624251,0.49768009543418884,0.0,0.0,0.0,0.0,-0.6981317007977323
1666088310892955826,0.49775594472885126,0.0,0.0,0.0,0.0,-0.5235987755982994
1666088310942737130,0.49775594472885126,0.0,0.0,0.0,0.0,-0.5235987755982994
1666088310993260315,0.4717057943344116,0.0,0.0,0.0,0.0,-0.5235987755982994
1666088311042637524,0.46370857954025263,0.0,0.0,0.0,0.0,-0.3490658503988664
1666088311092838117,0.46370857954025263,0.0,0.0,0.0,0.0,-0.3490658503988664
1666088311142702838,0.44572848081588745,0.0,0.0,0.0,0.0,-0.17453292519943345
1666088311192925471,0.44587066769599915,0.0,0.0,0.0,0.0,-0.17453292519943345
1666088311242782345,0.44587066769599915,0.0,0.0,0.0,0.0,-0.17453292519943345
1666088311292823374,0.4193869531154632,0.0,0.0,0.0,0.0,-0.17453292519943345
1666088311344029766,0.42937833070755005,0.0,0.0,0.0,0.0,-0.17453292519943345
1666088311395392436,0.42937833070755005,0.0,0.0,0.0,0.0,-0.17453292519943345
1666088311443839178,0.44437833070755006,0.0,0.0,0.0,0.0,-0.07977806281814481
1666088311492988505,0.44581708312034607,0.0,0.0,0.0,0.0,-0.07068947702646255
1666088311542973536,0.4420730471611023,0.0,0.0,0.0,0.0,-0.06073049455881119
1666088311593036573,0.44226804375648493,0.0,0.0,0.0,0.0,-0.05282978713512421
1666088311643823640,0.4467688037076218,0.0,0.0,0.0,0.0,0.0471702128648758
1666088311698594714,0.4479692876338959,0.0,0.0,0.0,0.0,0.07384312897920609
1666088311742796821,0.43277728394236314,0.0,0.0,0.0,0.0,-0.02615687102079392
1666088311793304503,0.43087100982666016,0.0,0.0,0.0,0.0,-0.03870474919676781
1666088311842703255,0.4193240702152252,0.0,0.0,0.0,0.0,-0.03437307849526405
1666088311892911515,0.4008321762084961,0.0,0.0,0.0,0.0,-0.03246573731303215
1666088311942703388,0.4008321762084961,0.0,0.0,0.0,0.0,-0.03246573731303215
1666088311992973357,0.38396936655044556,0.0,0.0,0.0,0.0,-0.03152298554778099
1666088312042756556,0.38396936655044556,0.0,0.0,0.0,0.0,-0.03152298554778099
1666088312093140193,0.23396936655044553,0.0,0.0,0.0,0.0,0.048974026205424334
1666088312142898198,0.08396936655044551,0.0,0.0,0.0,0.0,0.12947103795862966
1666088312192946710,0.0,0.0,0.0,0.0,0.0,0.17453292519943245
1666088312242721924,0.0,0.0,0.0,0.0,0.0,0.17453292519943245
1666088312292823450,0.0,0.0,0.0,0.0,0.0,0.17453292519943245
1666088312343133226,0.0,0.0,0.0,0.0,0.0,0.17453292519943245
1666088312392808608,0.0,0.0,0.0,0.0,0.0,0.17453292519943245
1666088312443005404,0.0,0.0,0.0,0.0,0.0,0.17453292519943245
1666088312492706605,0.0,0.0,0.0,0.0,0.0,0.17453292519943245
1666088312542626525,0.0,0.0,0.0,0.0,0.0,0.17453292519943245
1666088312592795975,0.0,0.0,0.0,0.0,0.0,0.17453292519943245
1666088312642648853,0.0,0.0,0.0,0.0,0.0,0.17453292519943245
1666088312693031173,0.0,0.0,0.0,0.0,0.0,0.17453292519943245
1666088312742594304,0.0,0.0,0.0,0.0,0.0,0.17453292519943245
1666088312793296641,0.0,0.0,0.0,0.0,0.0,0.17453292519943245
1666088312843289319,0.0,0.0,0.0,0.0,0.0,0.17453292519943245
1666088312892784963,0.0,0.0,0.0,0.0,0.0,0.17453292519943245
1666088312944451454,0.015,0.0,0.0,0.0,0.0,0.16721382048826283
1666088312992927171,0.03,0.0,0.0,0.0,0.0,0.1598774921544873
1666088313042715423,0.045,0.0,0.0,0.0,0.0,0.15291770580908604
1666088313093109581,0.06,0.0,0.0,0.0,0.0,0.14595791946368478
1666088313142768275,0.075,0.0,0.0,0.0,0.0,0.14010163910708848
1666088313193266898,0.09,0.0,0.0,0.0,0.0,0.1342453587504922
1666088313243272291,0.105,0.0,0.0,0.0,0.0,0.12894375667256053
1666088313292728475,0.12,0.0,0.0,0.0,0.0,0.12364215459462885
1666088313342592939,0.135,0.0,0.0,0.0,0.0,0.11930836512739106
1666088313392801543,0.15000000000000002,0.0,0.0,0.0,0.0,0.11496207268534138
1666088313442789917,0.16500000000000004,0.0,0.0,0.0,0.0,0.11539999924292361
1666088313492531187,0.18000000000000005,0.0,0.0,0.0,0.0,0.11583792580050585
1666088313542725940,0.19500000000000006,0.0,0.0,0.0,0.0,0.11173579826660046
1666088313592706318,0.21000000000000008,0.0,0.0,0.0,0.0,0.10763367073269507
1666088313642802001,0.2250000000000001,0.0,0.0,0.0,0.0,0.10411588258207896
1666088313692643874,0.2400000000000001,0.0,0.0,0.0,0.0,0.10059809443146285
1666088313743166568,0.2550000000000001,0.0,0.0,0.0,0.0,0.09752513692055226
1666088313792724129,0.27000000000000013,0.0,0.0,0.0,0.0,0.09445217940964167
1666088313842635466,0.28500000000000014,0.0,0.0,0.0,0.0,0.09588140492872532
1666088313892759096,0.30000000000000016,0.0,0.0,0.0,0.0,0.09730419931016827
1666088313942820393,0.31500000000000017,0.0,0.0,0.0,0.0,0.0942425025226255
1666088313992628258,0.3300000000000002,0.0,0.0,0.0,0.0,0.09118080573508273
1666088314042907547,0.3450000000000002,0.0,0.0,0.0,0.0,0.0887477254416111
1666088314092877260,0.3600000000000002,0.0,0.0,0.0,0.0,0.08630391489307569
1666088314142734524,0.3750000000000002,0.0,0.0,0.0,0.0,0.08386010434454029
1666088314193148443,0.39000000000000024,0.0,0.0,0.0,0.0,0.08141629379600489
1666088314242906533,0.40500000000000025,0.0,0.0,0.0,0.0,0.07923810804384784
1666088314293891542,0.42000000000000026,0.0,0.0,0.0,0.0,0.07732652592062952
1666088314342845976,0.4350000000000003,0.0,0.0,0.0,0.0,0.08072904488205992
1666088314392828806,0.4500000000000003,0.0,0.0,0.0,0.0,0.08413156384349033
1666088314442636214,0.4650000000000003,0.0,0.0,0.0,0.0,0.08753408280492073
1666088314493965716,0.4800000000000003,0.0,0.0,0.0,0.0,0.08520485831030587
1666088314543933850,0.49500000000000033,0.0,0.0,0.0,0.0,0.0832900731720521
1666088314592568024,0.5100000000000003,0.0,0.0,0.0,0.0,0.08161866739875727
1666088314642687348,0.5250000000000004,0.0,0.0,0.0,0.0,0.08022920547989586
1666088314692854916,0.5400000000000004,0.0,0.0,0.0,0.0,0.07882290220969564
1666088314742934876,0.5550000000000004,0.0,0.0,0.0,0.0,0.07741659893949542
1666088314792752602,0.5700000000000004,0.0,0.0,0.0,0.0,0.07724865463302714
1666088314843277416,0.5850000000000004,0.0,0.0,0.0,0.0,0.07707482835776254
1666088314892773062,0.6000000000000004,0.0,0.0,0.0,0.0,0.0793368803700639
1666088314943025748,0.6055956482887267,0.0,0.0,0.0,0.0,0.08670185506343842
1666088314992609676,0.6055956482887267,0.0,0.0,0.0,0.0,0.08670185506343842
1666088315042806836,0.5941575169563293,0.0,0.0,0.0,0.0,0.09003794193267822
1666088315096156444,0.5941575169563293,0.0,0.0,0.0,0.0,0.09003794193267822
1666088315143487534,0.586453378200531,0.0,0.0,0.0,0.0,0.09420619159936905
1666088315192625175,0.5848270058631897,0.0,0.0,0.0,0.0,0.10151123255491257
1666088315242851925,0.5783541202545165,0.0,0.0,0.0,0.0,0.17453292519943245
1666088315292782774,0.5933541202545165,0.0,0.0,0.0,0.0,0.2719974877564822
1666088315342794758,0.6083541202545165,0.0,0.0,0.0,0.0,0.36946205031353196
1666088315392991308,0.6080383427911792,0.0,0.0,0.0,0.0,0.46946205031353194
1666088315442866914,0.6076914948572212,0.0,0.0,0.0,0.0,0.5694620503135319
1666088315492637074,0.5429372224313777,0.0,0.0,0.0,0.0,0.6694620503135319
1666088315542750017,0.524372398853302,0.0,0.0,0.0,0.0,0.6981317007977313
1666088315592841496,0.5069549679756165,0.0,0.0,0.0,0.0,0.6981317007977313
1666088315642659170,0.5069549679756165,0.0,0.0,0.0,0.0,0.6981317007977313
1666088315692871598,0.4993777573108673,0.0,0.0,0.0,0.0,0.6981317007977313
1666088315743044412,0.5143777573108673,0.0,0.0,0.0,0.0,0.6981317007977313
1666088315792624729,0.5293777573108673,0.0,0.0,0.0,0.0,0.6981317007977313
1666088315842632394,0.5443777573108673,0.0,0.0,0.0,0.0,0.6981317007977313
1666088315892776717,0.5593777573108674,0.0,0.0,0.0,0.0,0.6981317007977313
1666088315942809284,0.5009111762046814,0.0,0.0,0.0,0.0,0.6981317007977313
1666088315992659931,0.5009111762046814,0.0,0.0,0.0,0.0,0.6981317007977313
1666088316042860931,0.5064581036567688,0.0,0.0,0.0,0.0,0.6981317007977313
1666088316092677284,0.5148003101348877,0.0,0.0,0.0,0.0,0.6981317007977313
1666088316142829634,0.5114926099777222,0.0,0.0,0.0,0.0,0.5235987755982984
1666088316192574081,0.5114926099777222,0.0,0.0,0.0,0.0,0.5235987755982984
1666088316242676510,0.5114926099777222,0.0,0.0,0.0,0.0,0.5235987755982984
1666088316292807861,0.517747700214386,0.0,0.0,0.0,0.0,0.5235987755982984
1666088316342687828,0.517747700214386,0.0,0.0,0.0,0.0,0.5235987755982984
1666088316392846788,0.5258738398551941,0.0,0.0,0.0,0.0,0.3490658503988654
1666088316442858919,0.5258738398551941,0.0,0.0,0.0,0.0,0.3490658503988654
1666088316492774791,0.5294787883758545,0.0,0.0,0.0,0.0,0.3490658503988654
1666088316542742505,0.5294787883758545,0.0,0.0,0.0,0.0,0.3490658503988654
1666088316592909415,0.5444787883758545,0.0,0.0,0.0,0.0,0.3490658503988654
1666088316643052981,0.5594787883758545,0.0,0.0,0.0,0.0,0.3490658503988654
1666088316692797860,0.5722075700759888,0.0,0.0,0.0,0.0,0.3490658503988654
1666088316742728997,0.5712303519248962,0.0,0.0,0.0,0.0,0.17453292519943245
1666088316792650252,0.5712303519248962,0.0,0.0,0.0,0.0,0.17453292519943245
1666088316843136797,0.5712303519248962,0.0,0.0,0.0,0.0,0.17453292519943245
1666088316892845822,0.5802178904952033,0.0,0.0,0.0,0.0,0.07453292519943244
1666088316942610001,0.5859081149101256,0.0,0.0,0.0,0.0,0.04636838287115097
1666088316992724300,0.5859792232513428,0.0,0.0,0.0,0.0,0.045523643493652344
1666088317043104016,0.5859792232513428,0.0,0.0,0.0,0.0,0.045523643493652344
1666088317093433592,0.5857461386875871,0.0,0.0,0.0,0.0,-0.05447635650634766
1666088317142699791,0.5857017636299133,0.0,0.0,0.0,0.0,-0.07351453602313995
1666088317192679603,0.5762224793434142,0.0,0.0,0.0,0.0,-0.08813445270061493
1666088317242835818,0.5762224793434142,0.0,0.0,0.0,0.0,-0.08813445270061493
1666088317292718372,0.5675103664398193,0.0,0.0,0.0,0.0,0.00847427174448967
1666088317342906609,0.5749302417587806,0.0,0.0,0.0,0.0,-0.09152572825551034
1666088317392702060,0.5761344432830809,0.0,0.0,0.0,0.0,-0.1077551320195198
1666088317443058655,0.5761344432830809,0.0,0.0,0.0,0.0,-0.1077551320195198
1666088317493583893,0.5643804669380188,0.0,0.0,0.0,0.0,-0.1187954768538475
1666088317542706422,0.5643804669380188,0.0,0.0,0.0,0.0,-0.1187954768538475
1666088317592835159,0.5509220957756042,0.0,0.0,0.0,0.0,-0.13073866069316864
1666088317642619265,0.5356428623199463,0.0,0.0,0.0,0.0,-0.13859817385673523
1666088317692627892,0.5356428623199463,0.0,0.0,0.0,0.0,-0.13859817385673523
1666088317742850636,0.5048564076423645,0.0,0.0,0.0,0.0,-0.1505695879459381
1666088317792803583,0.5048564076423645,0.0,0.0,0.0,0.0,-0.1505695879459381
1666088317842994331,0.4323964715003967,0.0,0.0,0.0,0.0,-0.0482054129242897
1666088317893638400,0.41764700412750244,0.0,0.0,0.0,0.0,-0.051484934985637665
1666088317942904118,0.41764700412750244,0.0,0.0,0.0,0.0,-0.051484934985637665
1666088317993381838,0.41764700412750244,0.0,0.0,0.0,0.0,-0.051484934985637665
1666088318043140513,0.43264700412750245,0.0,0.0,0.0,0.0,-0.0828082583964788
1666088318093316066,0.44764700412750247,0.0,0.0,0.0,0.0,-0.12048823871137948
1666088318143645328,0.4626470041275025,0.0,0.0,0.0,0.0,-0.15764178524611414
1666088318192662834,0.4578203558921814,0.0,0.0,0.0,0.0,-0.17364133894443512
1666088318242830732,0.4578203558921814,0.0,0.0,0.0,0.0,-0.17364133894443512
1666088318292920610,0.4578203558921814,0.0,0.0,0.0,0.0,-0.17364133894443512
1666088318342709806,0.4500882923603058,0.0,0.0,0.0,0.0,-0.17743563652038574
1666088318392899594,0.4423401951789856,0.0,0.0,0.0,0.0,-0.18061338365077972
1666088318442994750,0.33839628100395197,0.0,0.0,0.0,0.0,-0.07960926741361618
1666088318492705405,0.33839628100395197,0.0,0.0,0.0,0.0,-0.07960926741361618
1666088318543871475,0.353396281003952,0.0,0.0,0.0,0.0,-0.09779740021333874
1666088318592670814,0.368396281003952,0.0,0.0,0.0,0.0,-0.11885625388416746
1666088318642666957,0.383396281003952,0.0,0.0,0.0,0.0,-0.1399151075549962
1666088318692649717,0.3014932870864868,0.0,0.0,0.0,0.0,-0.09013435244560242
1666088318746096922,0.3014932870864868,0.0,0.0,0.0,0.0,-0.09013435244560242
1666088318792752282,0.31649328708648683,0.0,0.0,0.0,0.0,-0.10556604654367407
1666088318842757335,0.33149328708648684,0.0,0.0,0.0,0.0,-0.12099774064174573
1666088318893357154,0.34649328708648686,0.0,0.0,0.0,0.0,-0.14198201592243956
1666088318942952762,0.36149328708648687,0.0,0.0,0.0,0.0,-0.1630514855560515
1666088318993192588,0.3764932870864869,0.0,0.0,0.0,0.0,-0.19050507748106407
1666088319043086958,0.39052808284759516,0.0,0.0,0.0,0.0,-0.21548931300640106
1666088319092737181,0.38819428052753596,0.0,0.0,0.0,0.0,-0.31548931300640104
1666088319142714569,0.38741067051887507,0.0,0.0,0.0,0.0,-0.3490658503988664
1666088319193324205,0.3880409896373749,0.0,0.0,0.0,0.0,-0.3490658503988664
1666088319242703958,0.3880409896373749,0.0,0.0,0.0,0.0,-0.3490658503988664
1666088319292784058,0.3880409896373749,0.0,0.0,0.0,0.0,-0.3490658503988664
1666088319342708849,0.3831107371133117,0.0,0.0,0.0,0.0,-0.4490658503988664
1666088319392877592,0.345578327625279,0.0,0.0,0.0,0.0,-0.5490658503988664
1666088319445726962,0.35380017577496015,0.0,0.0,0.0,0.0,-0.6490658503988663
1666088319492622198,0.3620220239246413,0.0,0.0,0.0,0.0,-0.7490658503988663
1666088319543248954,0.37024387207432247,0.0,0.0,0.0,0.0,-0.8490658503988663
1666088319592673687,0.3317565623673579,0.0,0.0,0.0,0.0,-0.9490658503988663
1666088319642815952,0.29326925266039333,0.0,0.0,0.0,0.0,-1.0490658503988664
1666088319692675502,0.30826925266039334,0.0,0.0,0.0,0.0,-1.0804725548366303
1666088319743308656,0.32326925266039336,0.0,0.0,0.0,0.0,-1.1467224812466426
1666088319793433825,0.33826925266039337,0.0,0.0,0.0,0.0,-1.2129724076566546
1666088319842733063,0.3532692526603934,0.0,0.0,0.0,0.0,-1.27191797934959
1666088319892740949,0.25381776690483093,0.0,0.0,0.0,0.0,-1.2217304763960313
1666088319942728149,0.25381776690483093,0.0,0.0,0.0,0.0,-1.2217304763960313
1666088319992714940,0.26881776690483095,0.0,0.0,0.0,0.0,-1.23798279273974
1666088320042554053,0.28381776690483096,0.0,0.0,0.0,0.0,-1.2542351090834487
1666088320092654884,0.298817766904831,0.0,0.0,0.0,0.0,-1.2684123051809308
1666088320144962606,0.313817766904831,0.0,0.0,0.0,0.0,-1.2796302820871566
1666088320192711470,0.328817766904831,0.0,0.0,0.0,0.0,-1.2748469207142237
1666088320242994816,0.343817766904831,0.0,0.0,0.0,0.0,-1.2700348117200628
1666088320292668668,0.358817766904831,0.0,0.0,0.0,0.0,-1.265222702725902
1666088320342968640,0.37381776690483104,0.0,0.0,0.0,0.0,-1.2604105937317411
1666088320393309550,0.38881776690483105,0.0,0.0,0.0,0.0,-1.2564645243232326
1666088320442960351,0.40381776690483107,0.0,0.0,0.0,0.0,-1.2025443014072754
1666088320492688757,0.4188177669048311,0.0,0.0,0.0,0.0,-1.156872017229319
1666088320542774738,0.4338177669048311,0.0,0.0,0.0,0.0,-1.0004868497005306
1666088320593141842,0.4488177669048311,0.0,0.0,0.0,0.0,-0.9515117636933705
1666088320643121049,0.4638177669048311,0.0,0.0,0.0,0.0,-0.9025366776862105
1666088320693226836,0.47881776690483113,0.0,0.0,0.0,0.0,-0.8263888142714585
1666088320743519436,0.49381776690483115,0.0,0.0,0.0,0.0,-0.7502409508567065
1666088320793417876,0.5088177669048312,0.0,0.0,0.0,0.0,-0.7209621938877095
1666088320842875587,0.5238177669048312,0.0,0.0,0.0,0.0,-0.6942682368816154
1666088320892996482,0.5388177669048312,0.0,0.0,0.0,0.0,-0.6675742798755213
1666088320942821880,0.5538177669048312,0.0,0.0,0.0,0.0,-0.6423107681994911
1666088320992897685,0.5688177669048312,0.0,0.0,0.0,0.0,-0.6170472565234608
1666088321045030258,0.5838177669048312,0.0,0.0,0.0,0.0,-0.6108508161805861
1666088321093120232,0.5988177669048312,0.0,0.0,0.0,0.0,-0.6047967543365763
1666088321143528288,0.6138177669048313,0.0,0.0,0.0,0.0,-0.5857296453774514
1666088321192902406,0.6288177669048313,0.0,0.0,0.0,0.0,-0.5666625364183265
1666088321243843827,0.6438177669048313,0.0,0.0,0.0,0.0,-0.5475954274592016
1666088321293087181,0.6588177669048313,0.0,0.0,0.0,0.0,-0.5285283185000768
1666088321343549035,0.6738177669048313,0.0,0.0,0.0,0.0,-0.5094612095409519
1666088321392687193,0.6888177669048313,0.0,0.0,0.0,0.0,-0.4696463787055073
1666088321442854700,0.7038177669048313,0.0,0.0,0.0,0.0,-0.4298315478700627
1666088321492593536,0.7188177669048313,0.0,0.0,0.0,0.0,-0.3900167170346181
1666088321542833297,0.7338177669048314,0.0,0.0,0.0,0.0,-0.3502018861991735
1666088321592866318,0.7488177669048314,0.0,0.0,0.0,0.0,-0.31038705536372885
1666088321642848868,0.7638177669048314,0.0,0.0,0.0,0.0,-0.2431370741228619
1666088321692849028,0.7788177669048314,0.0,0.0,0.0,0.0,-0.17549926961800152
1666088321742908716,0.7938177669048314,0.0,0.0,0.0,0.0,-0.10095283533799108
1666088321793146372,0.7999999999999999,0.0,0.0,0.0,0.0,-0.07022860646247864
1666088321842980060,0.781833529472351,0.0,0.0,0.0,0.0,-4.996003610813204e-16
1666088321892847368,0.781833529472351,0.0,0.0,0.0,0.0,-4.996003610813204e-16
1666088321942797200,0.7478853464126587,0.0,0.0,0.0,0.0,-0.055492792278528214
1666088321992548912,0.7004311680793762,0.0,0.0,0.0,0.0,-0.05247652158141136
1666088322043596470,0.67544287443161,0.0,0.0,0.0,0.0,-0.04916243255138397
1666088322092935701,0.67544287443161,0.0,0.0,0.0,0.0,-0.04916243255138397
1666088322142665775,0.6569111347198486,0.0,0.0,0.0,0.0,-0.0459820032119751
1666088322192608234,0.6569111347198486,0.0,0.0,0.0,0.0,-0.0459820032119751
1666088322242927263,0.5982248783111572,0.0,0.0,0.0,0.0,-0.03983509913086891
1666088322292588630,0.5982248783111572,0.0,0.0,0.0,0.0,-0.03983509913086891
1666088322342721564,0.5982248783111572,0.0,0.0,0.0,0.0,-0.03983509913086891
1666088322392758779,0.556411623954773,0.0,0.0,0.0,0.0,-0.036381300538778305
1666088322442705581,0.556411623954773,0.0,0.0,0.0,0.0,-0.036381300538778305
1666088322492640233,0.5304687531206597,0.0,0.0,0.0,0.0,0.0636186994612217
1666088322542884957,0.4783514142036438,0.0,0.0,0.0,0.0,-0.03189142793416977
1666088322592655976,0.4783514142036438,0.0,0.0,0.0,0.0,-0.03189142793416977
1666088322643780476,0.4783514142036438,0.0,0.0,0.0,0.0,-0.03189142793416977
1666088322692911175,0.441358357667923,0.0,0.0,0.0,0.0,-0.029543079435825348
1666088322742717723,0.441358357667923,0.0,0.0,0.0,0.0,-0.029543079435825348
1666088322792643913,0.43551128515041737,0.0,0.0,0.0,0.0,0.07045692056417466
1666088322844347835,0.4341717064380646,0.0,0.0,0.0,0.0,0.09336716681718826
1666088322893477324,0.28417170643806455,0.0,0.0,0.0,0.0,0.13741592069413092
1666088322943627424,0.13417170643806453,0.0,0.0,0.0,0.0,0.18146467457107357
1666088322992778818,0.0,0.0,0.0,0.0,0.0,0.24966562333874293
1666088323043001375,0.0,0.0,0.0,0.0,0.0,0.28123243149556487
1666088323093008349,0.0,0.0,0.0,0.0,0.0,0.28123243149556487
1666088323143692432,0.0,0.0,0.0,0.0,0.0,0.31570195814501206
1666088323193803001,0.0,0.0,0.0,0.0,0.0,0.31570195814501206
1666088323242880995,0.0,0.0,0.0,0.0,0.0,0.3505520099575149
1666088323292669798,0.0,0.0,0.0,0.0,0.0,0.3505520099575149
1666088323343187904,0.0,0.0,0.0,0.0,0.0,0.3725106269022946
1666088323392928765,0.0,0.0,0.0,0.0,0.0,0.3725106269022946
1666088323442844912,0.0,0.0,0.0,0.0,0.0,0.40853304775944776
1666088323492755814,0.0,0.0,0.0,0.0,0.0,0.39383040681354853
1666088323542686147,0.0,0.0,0.0,0.0,0.0,0.39383040681354853
1666088323593186087,0.0,0.0,0.0,0.0,0.0,0.39291825310425926
1666088323643021994,0.0,0.0,0.0,0.0,0.0,0.39291825310425926
1666088323692788648,0.0,0.0,0.0,0.0,0.0,0.39291825310425926
1666088323743074158,0.0,0.0,0.0,0.0,0.0,0.3490658503988654
1666088323792647020,0.0,0.0,0.0,0.0,0.0,0.3490658503988654
1666088323842716105,0.0,0.0,0.0,0.0,0.0,0.3235120168807682
1666088323893069250,0.0,0.0,0.0,0.0,0.0,0.31067369000449085
1666088323942640680,0.0,0.0,0.0,0.0,0.0,0.31067369000449085
1666088323992743265,0.015,0.0,0.0,0.0,0.0,0.2985312613542252
1666088324042966492,0.03,0.0,0.0,0.0,0.0,0.2873663243986125
1666088324092584245,0.045,0.0,0.0,0.0,0.0,0.27620138744299977
1666088324143323419,0.06,0.0,0.0,0.0,0.0,0.2704965746947954
1666088324193396043,0.075,0.0,0.0,0.0,0.0,0.264791761946591
1666088324243631640,0.09,0.0,0.0,0.0,0.0,0.25469721764951725
1666088324292665945,0.105,0.0,0.0,0.0,0.0,0.24460267335244348
1666088324342870105,0.12,0.0,0.0,0.0,0.0,0.23493410232749679
1666088324394100078,0.135,0.0,0.0,0.0,0.0,0.22566496819152285
1666088324442806850,0.15000000000000002,0.0,0.0,0.0,0.0,0.2163958340555489
1666088324492562001,0.16500000000000004,0.0,0.0,0.0,0.0,0.20712669991957497
1666088324544170996,0.18000000000000005,0.0,0.0,0.0,0.0,0.1980606186870298
1666088324592637624,0.19500000000000006,0.0,0.0,0.0,0.0,0.18939156526002257
1666088324642883895,0.21000000000000008,0.0,0.0,0.0,0.0,0.18072251183301535
1666088324692860935,0.2250000000000001,0.0,0.0,0.0,0.0,0.17223939573089164
1666088324742796796,0.2400000000000001,0.0,0.0,0.0,0.0,0.16375627962876793
1666088324792620517,0.2550000000000001,0.0,0.0,0.0,0.0,0.15527316352664422
1666088324843045822,0.27000000000000013,0.0,0.0,0.0,0.0,0.1467900474245205
1666088324892583701,0.28500000000000014,0.0,0.0,0.0,0.0,0.1343007464548449
1666088324942739909,0.30000000000000016,0.0,0.0,0.0,0.0,0.12181144548516931
1666088324992820334,0.31500000000000017,0.0,0.0,0.0,0.0,0.10243590486525292
1666088325042718604,0.3300000000000002,0.0,0.0,0.0,0.0,0.08306036424533653
1666088325092627602,0.3450000000000002,0.0,0.0,0.0,0.0,0.06480755066272502
1666088325142723288,0.3600000000000002,0.0,0.0,0.0,0.0,0.04727764667323468
1666088325192636490,0.3750000000000002,0.0,0.0,0.0,0.0,0.02972567116144949
1666088325242914874,0.39000000000000024,0.0,0.0,0.0,0.0,0.0121736956496643
1666088325293040305,0.40500000000000025,0.0,0.0,0.0,0.0,-0.004926994872316112
1666088325344083673,0.42000000000000026,0.0,0.0,0.0,0.0,-0.021929496373415357
1666088325392721840,0.4350000000000003,0.0,0.0,0.0,0.0,-0.03893199787451461
1666088325442896627,0.4500000000000003,0.0,0.0,0.0,0.0,-0.06884629151777001
1666088325493047033,0.4650000000000003,0.0,0.0,0.0,0.0,-0.09876058516102541
1666088325543013825,0.4800000000000003,0.0,0.0,0.0,0.0,-0.1223423870915726
1666088325592598754,0.49500000000000033,0.0,0.0,0.0,0.0,-0.1459241890221198
1666088325642711275,0.5100000000000003,0.0,0.0,0.0,0.0,-0.16950599095266697
1666088325692809107,0.5250000000000004,0.0,0.0,0.0,0.0,-0.19308779288321415
1666088325743077556,0.5400000000000004,0.0,0.0,0.0,0.0,-0.21559658014426314
1666088325793301816,0.5550000000000004,0.0,0.0,0.0,0.0,-0.23823097523413683
1666088325842750014,0.5700000000000004,0.0,0.0,0.0,0.0,-0.2608653703240105
1666088325892601657,0.5850000000000004,0.0,0.0,0.0,0.0,-0.29385317000703487
1666088325943322376,0.6000000000000004,0.0,0.0,0.0,0.0,-0.3268409696900592
1666088325992726618,0.6150000000000004,0.0,0.0,0.0,0.0,-0.3496148358109933
1666088326043816677,0.6300000000000004,0.0,0.0,0.0,0.0,-0.3723887019319274
1666088326093345347,0.6450000000000005,0.0,0.0,0.0,0.0,-0.39765902339251
1666088326143133784,0.6600000000000005,0.0,0.0,0.0,0.0,-0.42292934485309264
1666088326192714893,0.6388369714451597,0.0,0.0,0.0,0.0,-0.5229293448530926
1666088326242941009,0.6386952996253967,0.0,0.0,0.0,0.0,-0.5235987755982994
1666088326293578419,0.6527928113937378,0.0,0.0,0.0,0.0,-0.5235987755982994
1666088326342611949,0.6535035371780394,0.0,0.0,0.0,0.0,-0.5235987755982994
1666088326392719970,0.6295261979103088,0.0,0.0,0.0,0.0,-0.5235987755982994
1666088326443584698,0.605703294277191,0.0,0.0,0.0,0.0,-0.5235987755982994
1666088326492782283,0.605703294277191,0.0,0.0,0.0,0.0,-0.5235987755982994
1666088326542598754,0.5187049508094788,0.0,0.0,0.0,0.0,-0.5235987755982994
1666088326592640079,0.5337049508094788,0.0,0.0,0.0,0.0,-0.5235987755982994
1666088326642790837,0.5487049508094788,0.0,0.0,0.0,0.0,-0.5235987755982994
1666088326692995033,0.39870495080947876,0.0,0.0,0.0,0.0,-0.5235987755982994
1666088326742694977,0.3838891386985779,0.0,0.0,0.0,0.0,-0.5235987755982994
1666088326792676071,0.3461621105670929,0.0,0.0,0.0,0.0,-0.5235987755982994
1666088326843953802,0.34843653440475464,0.0,0.0,0.0,0.0,-0.5235987755982994
1666088326892759589,0.34843653440475464,0.0,0.0,0.0,0.0,-0.5235987755982994
1666088326942894850,0.19843653440475462,0.0,0.0,0.0,0.0,-0.5128655416394001
1666088326992644820,0.048436534404754594,0.0,0.0,0.0,0.0,-0.5209788918279847
1666088327043016145,0.0,0.0,0.0,0.0,0.0,-0.5235987755982994
1666088327093216799,0.0,0.0,0.0,0.0,0.0,-0.5235987755982994
1666088327142806701,0.0,0.0,0.0,0.0,0.0,-0.5549051928994332
1666088327192582485,0.0,0.0,0.0,0.0,0.0,-0.5697872776965391
1666088327242966142,0.0,0.0,0.0,0.0,0.0,-0.567940163872087
1666088327292679741,0.0,0.0,0.0,0.0,0.0,-0.567940163872087
1666088327350941351,0.0,0.0,0.0,0.0,0.0,-0.5795296976315181
1666088327392761398,0.0,0.0,0.0,0.0,0.0,-0.5696545907406733
1666088327442803200,0.0,0.0,0.0,0.0,0.0,-0.5696545907406733
1666088327492759907,0.0,0.0,0.0,0.0,0.0,-0.6008221514931684
1666088327543469505,0.0,0.0,0.0,0.0,0.0,-0.6082910338339163
1666088327593188186,0.0,0.0,0.0,0.0,0.0,-0.6082910338339163
1666088327642782072,0.0,0.0,0.0,0.0,0.0,-0.6058803049148789
1666088327692943926,0.0,0.0,0.0,0.0,0.0,-0.6058803049148789
1666088327743394930,0.0,0.0,0.0,0.0,0.0,-0.5927175044884097
1666088327792725427,0.0,0.0,0.0,0.0,0.0,-0.5927175044884097
1666088327842946065,0.0,0.0,0.0,0.0,0.0,-0.45080614510471595
1666088327892589296,0.0,0.0,0.0,0.0,0.0,-0.45080614510471595
1666088327942778204,0.0,0.0,0.0,0.0,0.0,-0.45080614510471595
1666088327992902872,0.0,0.0,0.0,0.0,0.0,-0.3888804343309588
1666088328042712497,0.0,0.0,0.0,0.0,0.0,-0.3888804343309588
1666088328092808721,0.0,0.0,0.0,0.0,0.0,-0.3172594670201629
1666088328144491591,0.0,0.0,0.0,0.0,0.0,-0.3172594670201629
1666088328192843042,0.0,0.0,0.0,0.0,0.0,-0.28732612300291144
1666088328242656969,0.0,0.0,0.0,0.0,0.0,-0.28783335464523574
1666088328292901049,0.0,0.0,0.0,0.0,0.0,-0.2560650083979763
1666088328343112463,0.0,0.0,0.0,0.0,0.0,-0.17453292519943345
1666088328392735973,0.0,0.0,0.0,0.0,0.0,-0.17453292519943345
1666088328442970427,0.0,0.0,0.0,0.0,0.0,-0.17453292519943345
1666088328493588186,0.0,0.0,0.0,0.0,0.0,-0.17453292519943345
1666088328542890175,0.0,0.0,0.0,0.0,0.0,-0.17453292519943345
1666088328592710428,0.0,0.0,0.0,0.0,0.0,-0.17453292519943345
1666088328645563670,0.0,0.0,0.0,0.0,0.0,-0.17453292519943345
1666088328692810612,0.0,0.0,0.0,0.0,0.0,-4.996003610813204e-16
1666088328742731800,0.0,0.0,0.0,0.0,0.0,-4.996003610813204e-16
1666088328792990387,0.0,0.0,0.0,0.0,0.0,-4.996003610813204e-16
1666088328842784613,0.0,0.0,0.0,0.0,0.0,-4.996003610813204e-16
1666088328892634387,0.0,0.0,0.0,0.0,0.0,-4.996003610813204e-16
1666088328942593317,0.0,0.0,0.0,0.0,0.0,-4.996003610813204e-16
1666088328992760840,0.0,0.0,0.0,0.0,0.0,-4.996003610813204e-16
1666088329043036394,0.0,0.0,0.0,0.0,0.0,-4.996003610813204e-16
1666088329092731450,0.0,0.0,0.0,0.0,0.0,-4.996003610813204e-16
1666088329142690195,0.0,0.0,0.0,0.0,0.0,-4.996003610813204e-16
1666088329192752350,0.0,0.0,0.0,0.0,0.0,-4.996003610813204e-16
1666088329242979103,0.0,0.0,0.0,0.0,0.0,-4.996003610813204e-16
1666088329292707746,0.0,0.0,0.0,0.0,0.0,-4.996003610813204e-16
1666088329342615630,0.0,0.0,0.0,0.0,0.0,-4.996003610813204e-16
1666088329392561618,0.0,0.0,0.0,0.0,0.0,-4.996003610813204e-16
1666088329442910838,0.0,0.0,0.0,0.0,0.0,-4.996003610813204e-16
1666088329492707975,0.0,0.0,0.0,0.0,0.0,-4.996003610813204e-16
1666088329542856826,0.0,0.0,0.0,0.0,0.0,-4.996003610813204e-16
1666088329593400990,0.0,0.0,0.0,0.0,0.0,-4.996003610813204e-16
1666088329643453303,0.0,0.0,0.0,0.0,0.0,-4.996003610813204e-16
1666088329692622383,0.0,0.0,0.0,0.0,0.0,-4.996003610813204e-16
1666088329742794242,0.0,0.0,0.0,0.0,0.0,-4.996003610813204e-16
1666088329792767905,0.0,0.0,0.0,0.0,0.0,-4.996003610813204e-16
1666088329844272420,0.0,0.0,0.0,0.0,0.0,-4.996003610813204e-16
1666088329892729756,0.0,0.0,0.0,0.0,0.0,-0.1000000000000005
1666088329942651978,0.0,0.0,0.0,0.0,0.0,-0.17453292519943345
1666088329992695992,0.0,0.0,0.0,0.0,0.0,-0.17453292519943345
1666088330043070566,0.0,0.0,0.0,0.0,0.0,-0.17453292519943345
1666088330092595603,0.0,0.0,0.0,0.0,0.0,-0.17453292519943345
1666088330142601151,0.0,0.0,0.0,0.0,0.0,-0.17453292519943345
1666088330192770819,0.0,0.0,0.0,0.0,0.0,-0.17453292519943345
1666088330242656684,0.0,0.0,0.0,0.0,0.0,-0.17453292519943345
1666088330292778023,0.0,0.0,0.0,0.0,0.0,-0.17453292519943345
1666088330342709675,0.0,0.0,0.0,0.0,0.0,-0.17453292519943345
1666088330393109870,0.0,0.0,0.0,0.0,0.0,-0.17453292519943345
1666088330442813061,0.0,0.0,0.0,0.0,0.0,-0.17453292519943345
1666088330492572132,0.0,0.0,0.0,0.0,0.0,-0.17453292519943345
1666088330542831541,0.0,0.0,0.0,0.0,0.0,-0.17453292519943345
1666088330592586731,0.0,0.0,0.0,0.0,0.0,-0.17453292519943345
1666088330643121297,0.0,0.0,0.0,0.0,0.0,-0.17453292519943345
1666088330692946947,0.0,0.0,0.0,0.0,0.0,-0.17453292519943345
1666088330743487553,0.0,0.0,0.0,0.0,0.0,-0.17453292519943345
1666088330792654415,0.0,0.0,0.0,0.0,0.0,-0.17453292519943345
1666088330842771084,0.0,0.0,0.0,0.0,0.0,-0.17453292519943345
1666088330893428019,0.0,0.0,0.0,0.0,0.0,-0.17453292519943345
1666088330942600311,0.0,0.0,0.0,0.0,0.0,-0.17453292519943345
1666088330992650071,0.0,0.0,0.0,0.0,0.0,-0.17453292519943345
1666088331042806748,0.0,0.0,0.0,0.0,0.0,-0.17453292519943345
1666088331092942177,0.0,0.0,0.0,0.0,0.0,-0.17453292519943345
1666088331142600169,0.0,0.0,0.0,0.0,0.0,-0.17453292519943345
1666088331193001235,0.0,0.0,0.0,0.0,0.0,-0.17453292519943345
1666088331242861458,0.0,0.0,0.0,0.0,0.0,-0.17453292519943345
1666088331292827177,0.0,0.0,0.0,0.0,0.0,-0.17453292519943345
1666088331342649164,0.0,0.0,0.0,0.0,0.0,-0.17453292519943345
1666088331392662537,0.0,0.0,0.0,0.0,0.0,-0.17453292519943345
1666088331442643805,0.0,0.0,0.0,0.0,0.0,-0.17453292519943345
1666088331492752082,0.0,0.0,0.0,0.0,0.0,-0.17453292519943345
1666088331542698675,0.0,0.0,0.0,0.0,0.0,-0.17453292519943345
1666088331592757085,0.0,0.0,0.0,0.0,0.0,-0.17453292519943345
1666088331642646512,0.0,0.0,0.0,0.0,0.0,-0.17453292519943345
1666088331693002038,0.0,0.0,0.0,0.0,0.0,-0.17453292519943345
1666088331742599179,0.0,0.0,0.0,0.0,0.0,-0.17453292519943345
1666088331792827084,0.0,0.0,0.0,0.0,0.0,-0.17453292519943345
1666088331842661199,0.0,0.0,0.0,0.0,0.0,-0.17453292519943345
1666088331892615005,0.0,0.0,0.0,0.0,0.0,-0.17453292519943345
1666088331942927253,0.0,0.0,0.0,0.0,0.0,-0.17453292519943345
1666088331992728473,0.0,0.0,0.0,0.0,0.0,-0.17453292519943345
1666088332042614804,0.0,0.0,0.0,0.0,0.0,-0.17453292519943345
1666088332092650953,0.0,0.0,0.0,0.0,0.0,-0.17453292519943345
1666088332142726595,0.0,0.0,0.0,0.0,0.0,-0.17453292519943345
1666088332196506725,0.0,0.0,0.0,0.0,0.0,-0.17453292519943345
1666088332242753259,0.0,0.0,0.0,0.0,0.0,-0.17453292519943345
1666088332292724027,0.0,0.0,0.0,0.0,0.0,-0.17453292519943345
1666088332342686355,0.0,0.0,0.0,0.0,0.0,-0.17453292519943345
1666088332392569371,0.0,0.0,0.0,0.0,0.0,-0.17453292519943345
1666088332442667866,0.0,0.0,0.0,0.0,0.0,-0.17453292519943345
1666088332492917723,0.0,0.0,0.0,0.0,0.0,-0.17453292519943345
1666088332542661752,0.0,0.0,0.0,0.0,0.0,-0.17453292519943345
1666088332592709299,0.0,0.0,0.0,0.0,0.0,-0.17453292519943345
1666088332642640818,0.0,0.0,0.0,0.0,0.0,-0.17453292519943345
1666088332696136181,0.0,0.0,0.0,0.0,0.0,-0.17453292519943345
1666088332743166709,0.0,0.0,0.0,0.0,0.0,-0.17453292519943345
1666088332792822650,0.0,0.0,0.0,0.0,0.0,-0.17453292519943345
1666088332842959364,0.0,0.0,0.0,0.0,0.0,-0.17453292519943345
1666088332893112950,0.0,0.0,0.0,0.0,0.0,-0.17453292519943345
1666088332942694548,0.0,0.0,0.0,0.0,0.0,-0.17453292519943345
1666088332992607253,0.0,0.0,0.0,0.0,0.0,-0.17453292519943345
1666088333042670855,0.0,0.0,0.0,0.0,0.0,-4.996003610813204e-16
1666088333094452518,0.0,0.0,0.0,0.0,0.0,-4.996003610813204e-16
1666088333142719289,0.0,0.0,0.0,0.0,0.0,-4.996003610813204e-16
1666088333192906148,0.0,0.0,0.0,0.0,0.0,-4.996003610813204e-16
1666088333242648026,0.0,0.0,0.0,0.0,0.0,-4.996003610813204e-16
1666088333293503646,0.0,0.0,0.0,0.0,0.0,-4.996003610813204e-16
1666088333342584978,0.0,0.0,0.0,0.0,0.0,-4.996003610813204e-16
1666088333392762078,0.0,0.0,0.0,0.0,0.0,-4.996003610813204e-16
1666088333442625467,0.0,0.0,0.0,0.0,0.0,-4.996003610813204e-16
1666088333492870311,0.0,0.0,0.0,0.0,0.0,-4.996003610813204e-16
1666088333542679862,0.0,0.0,0.0,0.0,0.0,-4.996003610813204e-16
1666088333600808054,0.0,0.0,0.0,0.0,0.0,-4.996003610813204e-16
1666088333642654626,0.0,0.0,0.0,0.0,0.0,-4.996003610813204e-16
1666088333693195950,0.0,0.0,0.0,0.0,0.0,-4.996003610813204e-16
1666088333742615910,0.0,0.0,0.0,0.0,0.0,-4.996003610813204e-16
1666088333793435857,0.0,0.0,0.0,0.0,0.0,-4.996003610813204e-16
1666088333844741232,0.0,0.0,0.0,0.0,0.0,0.0999999999999995
1666088333892861866,0.0,0.0,0.0,0.0,0.0,0.17453292519943245
1666088333942867634,0.0,0.0,0.0,0.0,0.0,0.17453292519943245
1666088333992634699,0.0,0.0,0.0,0.0,0.0,0.23469227183979324
1666088334042622081,0.0,0.0,0.0,0.0,0.0,0.23469227183979324
1666088334092671948,0.0,0.0,0.0,0.0,0.0,0.2955849267783017
1666088334142707697,0.0,0.0,0.0,0.0,0.0,0.2955849267783017
1666088334192693814,0.0,0.0,0.0,0.0,0.0,0.317268297372718
1666088334243655778,0.0,0.0,0.0,0.0,0.0,0.31133120971744394
1666088334293862312,0.0,0.0,0.0,0.0,0.0,0.3254662691498475
1666088334342977816,0.0,0.0,0.0,0.0,0.0,0.3254662691498475
1666088334392792367,0.0,0.0,0.0,0.0,0.0,0.340058355195615
1666088334442745887,0.0,0.0,0.0,0.0,0.0,0.3349471370128536
1666088334492884416,0.0,0.0,0.0,0.0,0.0,0.3349471370128536
1666088334543566939,0.0,0.0,0.0,0.0,0.0,0.3314338669995683
1666088334593038723,0.0,0.0,0.0,0.0,0.0,0.30847875520085904
1666088334642686413,0.0,0.0,0.0,0.0,0.0,0.30847875520085904
1666088334692829610,0.0,0.0,0.0,0.0,0.0,0.30847875520085904
1666088334742892704,0.0,0.0,0.0,0.0,0.0,0.2643021889108671
1666088334792803754,0.0,0.0,0.0,0.0,0.0,0.22783178281434213
1666088334843431648,0.0,0.0,0.0,0.0,0.0,0.17453292519943245
1666088334894389433,0.0,0.0,0.0,0.0,0.0,0.17453292519943245
1666088334942866991,0.0,0.0,0.0,0.0,0.0,0.17453292519943245
1666088334992874645,0.0,0.0,0.0,0.0,0.0,0.17453292519943245
1666088335042654958,0.0,0.0,0.0,0.0,0.0,0.17453292519943245
1666088335094176432,0.0,0.0,0.0,0.0,0.0,0.17453292519943245
1666088335142851753,0.0,0.0,0.0,0.0,0.0,0.17453292519943245
1666088335192694298,0.0,0.0,0.0,0.0,0.0,0.07453292519943244
1666088335242849607,0.0,0.0,0.0,0.0,0.0,-4.996003610813204e-16
1666088335293763877,0.0,0.0,0.0,0.0,0.0,-4.996003610813204e-16
1666088335343021607,0.0,0.0,0.0,0.0,0.0,-4.996003610813204e-16
1666088335392652444,0.0,0.0,0.0,0.0,0.0,-4.996003610813204e-16
1666088335442791272,0.0,0.0,0.0,0.0,0.0,-4.996003610813204e-16
1666088335492707855,0.0,0.0,0.0,0.0,0.0,-4.996003610813204e-16
1666088335543199369,0.0,0.0,0.0,0.0,0.0,-4.996003610813204e-16
1666088335592882319,0.0,0.0,0.0,0.0,0.0,-4.996003610813204e-16
1666088335642745842,0.0,0.0,0.0,0.0,0.0,-4.996003610813204e-16
1666088335692814065,0.0,0.0,0.0,0.0,0.0,-4.996003610813204e-16
1666088335742708913,0.0,0.0,0.0,0.0,0.0,-4.996003610813204e-16
1666088335793050322,0.0,0.0,0.0,0.0,0.0,-0.1000000000000005
1666088335842667712,0.0,0.0,0.0,0.0,0.0,-0.17453292519943345
1666088335892691890,0.0,0.0,0.0,0.0,0.0,-0.17453292519943345
1666088335942644119,0.0,0.0,0.0,0.0,0.0,-0.17453292519943345
1666088335992663860,0.0,0.0,0.0,0.0,0.0,-0.22688546781236368
1666088336042700976,0.0,0.0,0.0,0.0,0.0,-0.22688546781236368
1666088336094058311,0.0,0.0,0.0,0.0,0.0,-0.27016296538597845
1666088336142907150,0.0,0.0,0.0,0.0,0.0,-0.266482528924071
1666088336193054545,0.0,0.0,0.0,0.0,0.0,-0.28919100035760104
1666088336244557012,0.0,0.0,0.0,0.0,0.0,-0.28919100035760104
1666088336294963871,0.0,0.0,0.0,0.0,0.0,-0.32990513901949237
1666088336342806168,0.0,0.0,0.0,0.0,0.0,-0.3750859405898532
1666088336392682320,0.0,0.0,0.0,0.0,0.0,-0.42467691445388195
1666088336443223214,0.0,0.0,0.0,0.0,0.0,-0.42467691445388195
1666088336492841158,0.0,0.0,0.0,0.0,0.0,-0.524676914453882
1666088336542580287,0.0,0.0,0.0,0.0,0.0,-0.5470872967591648
1666088336592960420,0.0,0.0,0.0,0.0,0.0,-0.5470872967591648
1666088336642831647,0.0,0.0,0.0,0.0,0.0,-0.6470872967591648
1666088336693259338,0.0,0.0,0.0,0.0,0.0,-0.7456982840889812
1666088336742676830,0.0,0.0,0.0,0.0,0.0,-0.8456982840889812
1666088336793306767,0.0,0.0,0.0,0.0,0.0,-0.8726646259971653
1666088336842972698,0.0,0.0,0.0,0.0,0.0,-0.8726646259971653
1666088336893377503,0.0,0.0,0.0,0.0,0.0,-0.9540429533225171
1666088336942763916,0.0,0.0,0.0,0.0,0.0,-1.0076680129375473
1666088336993493090,0.0,0.0,0.0,0.0,0.0,-1.0471975511965983
1666088337042796694,0.0,0.0,0.0,0.0,0.0,-1.0471975511965983
1666088337093913086,0.0,0.0,0.0,0.0,0.0,-1.0471975511965983
1666088337142961684,0.0,0.0,0.0,0.0,0.0,-1.0471975511965983
1666088337193361956,0.0,0.0,0.0,0.0,0.0,-1.0471975511965983
1666088337242573951,0.0,0.0,0.0,0.0,0.0,-1.0471975511965983
1666088337295087413,0.0,0.0,0.0,0.0,0.0,-1.0471975511965983
1666088337343571687,0.0,0.0,0.0,0.0,0.0,-1.0060262673232998
1666088337392797635,0.0,0.0,0.0,0.0,0.0,-1.0060262673232998
1666088337442719270,0.0,0.0,0.0,0.0,0.0,-0.9702341325038014
1666088337492867087,0.0,0.0,0.0,0.0,0.0,-0.9702341325038014
1666088337543131666,0.0,0.0,0.0,0.0,0.0,-0.8726646259971653
1666088337593126278,0.0,0.0,0.0,0.0,0.0,-0.8726646259971653
1666088337644104851,0.0,0.0,0.0,0.0,0.0,-0.8173438218911045
1666088337692908181,0.0,0.0,0.0,0.0,0.0,-0.8173438218911045
1666088337742786293,0.0,0.0,0.0,0.0,0.0,-0.8173438218911045
1666088337792924576,0.0,0.0,0.0,0.0,0.0,-0.7444718157724769
1666088337842745847,0.0,0.0,0.0,0.0,0.0,-0.5945034611319825
1666088337893324305,0.0,0.0,0.0,0.0,0.0,-0.5235987755982994
1666088337942699608,0.0,0.0,0.0,0.0,0.0,-0.5235987755982994
1666088337992662640,0.0,0.0,0.0,0.0,0.0,-0.5235987755982994
1666088338043295843,0.0,0.0,0.0,0.0,0.0,-0.40687457602033245
1666088338093514732,0.0,0.0,0.0,0.0,0.0,-0.40687457602033245
1666088338142781055,0.0,0.0,0.0,0.0,0.0,-0.31489968994643996
1666088338194475943,0.0,0.0,0.0,0.0,0.0,-0.23557265796330848
1666088338242603189,0.0,0.0,0.0,0.0,0.0,-0.23557265796330848
1666088338293399617,0.0,0.0,0.0,0.0,0.0,-4.996003610813204e-16
1666088338342679312,0.0,0.0,0.0,0.0,0.0,-4.996003610813204e-16
1666088338392638607,0.0,0.0,0.0,0.0,0.0,-4.996003610813204e-16
1666088338442682260,0.0,0.0,0.0,0.0,0.0,-4.996003610813204e-16
1666088338493374293,0.0,0.0,0.0,0.0,0.0,-4.996003610813204e-16
1666088338542831503,0.0,0.0,0.0,0.0,0.0,-4.996003610813204e-16
1666088338593711659,0.0,0.0,0.0,0.0,0.0,-4.996003610813204e-16
1666088338642616063,0.0,0.0,0.0,0.0,0.0,-4.996003610813204e-16
1666088338692697077,0.0,0.0,0.0,0.0,0.0,-4.996003610813204e-16
1666088338742762762,0.0,0.0,0.0,0.0,0.0,-4.996003610813204e-16
1666088338792928148,0.0,0.0,0.0,0.0,0.0,-4.996003610813204e-16
1666088338842918372,0.0,0.0,0.0,0.0,0.0,-4.996003610813204e-16
1666088338893019768,0.0,0.0,0.0,0.0,0.0,-4.996003610813204e-16
1666088338943299081,0.0,0.0,0.0,0.0,0.0,-0.1000000000000005
1666088338993539834,0.0,0.0,0.0,0.0,0.0,-0.17453292519943345
1666088339042742196,0.0,0.0,0.0,0.0,0.0,-0.27453292519943345
1666088339092754090,0.0,0.0,0.0,0.0,0.0,-0.3745329251994335
1666088339142706822,0.0,0.0,0.0,0.0,0.0,-0.39754648286704464
1666088339192969171,0.0,0.0,0.0,0.0,0.0,-0.4975464828670446
1666088339242698049,0.0,0.0,0.0,0.0,0.0,-0.49884051923277184
1666088339292969256,0.0,0.0,0.0,0.0,0.0,-0.49884051923277184
1666088339342673257,0.0,0.0,0.0,0.0,0.0,-0.49884051923277184
1666088339392726483,0.0,0.0,0.0,0.0,0.0,-0.5988405192327718
1666088339442718891,0.0,0.0,0.0,0.0,0.0,-0.693795220480326
1666088339493378832,0.0,0.0,0.0,0.0,0.0,-0.7684984047570824
1666088339542694549,0.0,0.0,0.0,0.0,0.0,-0.8141971115416461
