%time,field.linear.x,field.linear.y,field.linear.z,field.angular.x,field.angular.y,field.angular.z
1666088217161882268,0.0,0.0,0.0,0.0,0.0,0.0
1666088217181107541,0.0,0.0,0.0,0.0,0.0,0.0
1666088217200911686,0.0,0.0,0.0,0.0,0.0,0.0
1666088217221965358,0.0,0.0,0.0,0.0,0.0,0.0
1666088217241135060,0.0,0.0,0.0,0.0,0.0,0.0
1666088217261032378,0.0,0.0,0.0,0.0,0.0,0.0
1666088217281115511,0.0,0.0,0.0,0.0,0.0,0.0
1666088217302014851,0.0,0.0,0.0,0.0,0.0,0.0
1666088217321340572,0.0,0.0,0.0,0.0,0.0,0.0
1666088217364073521,0.0,0.0,0.0,0.0,0.0,0.0
1666088217364084251,0.0,0.0,0.0,0.0,0.0,0.0
1666088217408190510,0.0,0.0,0.0,0.0,0.0,0.0
1666088217408216713,0.0,0.0,0.0,0.0,0.0,0.0
1666088217452100276,0.0,0.0,0.0,0.0,0.0,0.0
1666088217452138182,0.0,0.0,0.0,0.0,0.0,0.0
1666088217496082552,0.0,0.0,0.0,0.0,0.0,0.0
1666088217496097645,0.0,0.0,0.0,0.0,0.0,0.0
1666088217540055415,0.0,0.0,0.0,0.0,0.0,0.0
1666088217540067875,0.0,0.0,0.0,0.0,0.0,0.0
1666088217584047180,0.0,0.0,0.0,0.0,0.0,0.0
1666088217584057751,0.0,0.0,0.0,0.0,0.0,0.0
1666088217584065968,0.0,0.0,0.0,0.0,0.0,0.0
1666088217628056225,0.0,0.0,0.0,0.0,0.0,0.0
1666088217628075908,0.0,0.0,0.0,0.0,0.0,0.0
1666088217642559278,0.0,0.0,0.0,0.0,0.0,0.0
1666088217662305546,0.0,0.0,0.0,0.0,0.0,0.0
1666088217708143051,0.0,0.0,0.0,0.0,0.0,0.0
1666088217708177919,0.0,0.0,0.0,0.0,0.0,0.0
1666088217752324534,0.0,0.0,0.0,0.0,0.0,0.0
1666088217752352307,0.0,0.0,0.0,0.0,0.0,0.0
1666088217796206507,0.0,0.0,0.0,0.0,0.0,0.0
1666088217796229040,0.0,0.0,0.0,0.0,0.0,0.0
1666088217845061912,0.0,0.0,0.0,0.0,0.0,0.0
1666088217845100639,0.0,0.0,0.0,0.0,0.0,0.0
1666088217845216928,0.0,0.0,0.0,0.0,0.0,0.0
1666088217888140580,0.0,0.0,0.0,0.0,0.0,0.0
1666088217888157525,0.0,0.0,0.0,0.0,0.0,0.0
1666088217901738861,0.0,0.0,0.0,0.0,0.0,0.0
1666088217923470016,0.0,0.0,0.0,0.0,0.0,0.0
1666088217968044819,0.0,0.0,0.0,0.0,0.0,0.0
1666088217968056391,0.0,0.0,0.0,0.0,0.0,0.0
1666088218012356308,0.0,0.0,0.0,0.0,0.0,0.0
1666088218012402956,0.0,0.0,0.0,0.0,0.0,0.0
1666088218063233948,0.0,0.0,0.0,0.0,0.0,0.0
1666088218063332314,0.0,0.0,0.0,0.0,0.0,0.0
1666088218104135398,0.0,0.0,0.0,0.0,0.0,0.0
1666088218104159870,0.0,0.0,0.0,0.0,0.0,0.0
1666088218104171226,0.0,0.0,0.0,0.0,0.0,0.0
1666088218148382215,0.0,0.0,0.0,0.0,0.0,0.0
1666088218148443906,0.0,0.0,0.0,0.0,0.0,0.0
1666088218162379703,0.0,0.0,0.0,0.0,0.0,0.0
1666088218182569119,0.0,0.0,0.0,0.0,0.0,0.0
1666088218224330676,0.0,0.0,0.0,0.0,0.0,0.0
1666088218224379305,0.0,0.0,0.0,0.0,0.0,0.0
1666088218268097272,0.0,0.0,0.0,0.0,0.0,0.0
1666088218268114267,0.0,0.0,0.0,0.0,0.0,0.0
1666088218312122537,0.0,0.0,0.0,0.0,0.0,0.0
1666088218312140117,0.0,0.0,0.0,0.0,0.0,0.0
1666088218356289329,0.0,0.0,0.0,0.0,0.0,0.0
1666088218356316147,0.0,0.0,0.0,0.0,0.0,0.0
1666088218400594748,0.0,0.0,0.0,0.0,0.0,0.0
1666088218400633212,0.0,0.0,0.0,0.0,0.0,0.0
1666088218448128540,0.0,0.0,0.0,0.0,0.0,0.0
1666088218448152155,0.0,0.0,0.0,0.0,0.0,0.0
1666088218448158216,0.0,0.0,0.0,0.0,0.0,0.0
1666088218492220560,0.0,0.0,0.0,0.0,0.0,0.0
1666088218492251105,0.0,0.0,0.0,0.0,0.0,0.0
1666088218501490622,0.0,0.0,0.0,0.0,0.0,0.0
1666088218522549738,0.0,0.0,0.0,0.0,0.0,0.0
1666088218564111456,0.0,0.0,0.0,0.0,0.0,0.0
1666088218564128286,0.0,0.0,0.0,0.0,0.0,0.0
1666088218612469729,0.0,0.0,0.0,0.0,0.0,0.0
1666088218612525357,0.0,0.0,0.0,0.0,0.0,0.0
1666088218660098774,0.0,0.0,0.0,0.0,0.0,0.0
1666088218660116823,0.0,0.0,0.0,0.0,0.0,0.0
1666088218704224118,0.0,0.0,0.0,0.0,0.0,0.0
1666088218704283778,0.0,0.0,0.0,0.0,0.0,0.0
1666088218704315384,0.0,0.0,0.0,0.0,0.0,0.0
1666088218748256189,0.0,0.0,0.0,0.0,0.0,0.0
1666088218748286541,0.0,0.0,0.0,0.0,0.0,0.0
1666088218761251005,0.0,0.0,0.0,0.0,0.0,0.0
1666088218781714026,0.0,0.0,0.0,0.0,0.0,0.0
1666088218824060762,0.0,0.0,0.0,0.0,0.0,0.0
1666088218824074199,0.0,0.0,0.0,0.0,0.0,0.0
1666088218872285444,0.0,0.0,0.0,0.0,0.0,0.0
1666088218872313144,0.0,0.0,0.0,0.0,0.0,0.0
1666088218916058586,0.0,0.0,0.0,0.0,0.0,0.0
1666088218916068835,0.0,0.0,0.0,0.0,0.0,0.0
1666088218960164419,0.0,0.0,0.0,0.0,0.0,0.0
1666088218960194031,0.0,0.0,0.0,0.0,0.0,0.0
1666088219004499903,0.0,0.0,0.0,0.0,0.0,0.0
1666088219004534357,0.0,0.0,0.0,0.0,0.0,0.0
1666088219004541269,0.0,0.0,0.0,0.0,0.0,0.0
1666088219052051551,0.0,0.0,0.0,0.0,0.0,0.0
1666088219052065026,0.0,0.0,0.0,0.0,0.0,0.0
1666088219062520916,0.0,0.0,0.0,0.0,0.0,0.0
1666088219083555331,0.0,0.0,0.0,0.0,0.0,0.0
1666088219124091107,0.0,0.0,0.0,0.0,0.0,0.0
1666088219124109951,0.0,0.0,0.0,0.0,0.0,0.0
1666088219168152825,0.0,0.0,0.0,0.0,0.0,0.0
1666088219168173164,0.0,0.0,0.0,0.0,0.0,0.0
1666088219216454190,0.0,0.0,0.0,0.0,0.0,0.0
1666088219216511628,0.0,0.0,0.0,0.0,0.0,0.0
1666088219260238010,0.0,0.0,0.0,0.0,0.0,0.0
1666088219260254693,0.0,0.0,0.0,0.0,0.0,0.0
1666088219304051471,0.0,0.0,0.0,0.0,0.0,0.0
1666088219304064813,0.0,0.0,0.0,0.0,0.0,0.0
1666088219304132287,0.0,0.0,0.0,0.0,0.0,0.0
1666088219348087627,0.0,0.0,0.0,0.0,0.0,0.0
1666088219348105414,0.0,0.0,0.0,0.0,0.0,0.0
1666088219362312373,0.0,0.0,0.0,0.0,0.0,0.0
1666088219383190313,0.0,0.0,0.0,0.0,0.0,0.0
1666088219424144405,0.0,0.0,0.0,0.0,0.0,0.0
1666088219424169120,0.0,0.0,0.0,0.0,0.0,0.0
1666088219468208139,0.0,0.0,0.0,0.0,0.0,0.0
1666088219468236898,0.0,0.0,0.0,0.0,0.0,0.0
1666088219512144468,0.0,0.0,0.0,0.0,0.0,0.0
1666088219512183588,0.0,0.0,0.0,0.0,0.0,0.0
1666088219556488799,0.0,0.0,0.0,0.0,0.0,0.0
1666088219556555858,0.0,0.0,0.0,0.0,0.0,0.0
1666088219600152968,0.0,0.0,0.0,0.0,0.0,0.0
1666088219600217610,0.0,0.0,0.0,0.0,0.0,0.0
1666088219644296423,0.0,0.0,0.0,0.0,0.0,0.0
1666088219644352206,0.0,0.0,0.0,0.0,0.0,0.0
1666088219644366341,0.0,0.0,0.0,0.0,0.0,0.0
1666088219688096747,0.0,0.0,0.0,0.0,0.0,0.0
1666088219688107748,0.0,0.0,0.0,0.0,0.0,0.0
1666088219702387593,0.0,0.0,0.0,0.0,0.0,0.0
1666088219722121797,0.0,0.0,0.0,0.0,0.0,0.0
1666088219768099318,0.0,0.0,0.0,0.0,0.0,0.0
1666088219768115938,0.0,0.0,0.0,0.0,0.0,0.0
1666088219813527689,0.0,0.0,0.0,0.0,0.0,0.0
1666088219813580937,0.0,0.0,0.0,0.0,0.0,0.0
1666088219856055628,0.0,0.0,0.0,0.0,0.0,0.0
1666088219856067969,0.0,0.0,0.0,0.0,0.0,0.0
1666088219900146054,0.0,0.0,0.0,0.0,0.0,0.0
1666088219900174194,0.0,0.0,0.0,0.0,0.0,0.0
1666088219944477840,0.0,0.0,0.0,0.0,0.0,0.0
1666088219944490414,0.0,0.0,0.0,0.0,0.0,0.0
1666088219944509080,0.0,0.0,0.0,0.0,0.0,0.0
1666088219988357135,0.0,0.0,0.0,0.0,0.0,0.0
1666088219988405057,0.0,0.0,0.0,0.0,0.0,0.0
1666088220003552131,0.0,0.0,0.0,0.0,0.0,0.0
1666088220025264998,0.0,0.0,0.0,0.0,0.0,0.0
1666088220068072740,0.0,0.0,0.0,0.0,0.0,0.0
1666088220068086357,0.0,0.0,0.0,0.0,0.0,0.0
1666088220116364664,0.0,0.0,0.0,0.0,0.0,0.0
1666088220116400460,0.0,0.0,0.0,0.0,0.0,0.0
1666088220160476215,0.0,0.0,0.0,0.0,0.0,0.0005235987755982988
1666088220160672383,0.0,0.0,0.0,0.0,0.0,0.0015707963267948967
1666088220204081528,0.0,0.0,0.0,0.0,0.0,0.0005235987755982988
1666088220204099479,0.0,0.0,0.0,0.0,0.0,0.0027925268031909274
1666088220204108559,0.0,0.0,0.0,0.0,0.0,0.0005235987755982988
1666088220248117532,0.0,0.0,0.0,0.0,0.0,0.0010471975511965976
1666088220248139857,-0.002132302208337933,0.0,0.0,0.0,0.0,0.0036651914291880917
1666088220264065164,-0.002132302208337933,0.0,0.0,0.0,0.0,0.0015707963267948967
1666088220283239751,0.004264604416675866,0.0,0.0,0.0,0.0,-0.0006981317007977319
1666088220328127154,-0.004264604416675866,0.0,0.0,0.0,0.0,-0.004886921905584123
1666088220328179656,0.002132302208337933,0.0,0.0,0.0,0.0,-0.0041887902047863905
1666088220372369070,-0.006396906625013799,0.0,0.0,0.0,0.0,0.0
1666088220372391964,-0.014926115458365532,0.0,0.0,0.0,0.0,0.0020943951023931952
1666088220416229186,-0.004264604416675866,0.0,0.0,0.0,0.0,-0.006981317007977318
1666088220416257827,0.0,0.0,0.0,0.0,0.0,-0.020943951023931952
1666088220464204505,-0.006396906625013799,0.0,0.0,0.0,0.0,-0.03228859116189509
1666088220464235052,-0.010661511041689664,0.0,0.0,0.0,0.0,-0.03159045946109736
1666088220464243833,-0.006396906625013799,0.0,0.0,0.0,0.0,-0.027401669256310976
1666088220508082476,0.002132302208337933,0.0,0.0,0.0,0.0,-0.03089232776029963
1666088220508106205,0.004264604416675866,0.0,0.0,0.0,0.0,-0.07539822368615504
1666088220523012963,-0.004264604416675866,0.0,0.0,0.0,0.0,-0.09756390518648302
1666088220542662693,-0.004264604416675866,0.0,0.0,0.0,0.0,-0.1340412865531645
1666088220584514487,0.008529208833351731,0.0,0.0,0.0,0.0,-0.19250981649497456
1666088220584549313,0.002132302208337933,0.0,0.0,0.0,0.0,-0.23282692221604356
1666088220633399709,-0.004264604416675866,0.0,0.0,0.0,0.0,-0.26930430358272506
1666088220633447969,0.0,0.0,0.0,0.0,0.0,-0.3033382239966145
1666088220676190604,0.002132302208337933,0.0,0.0,0.0,0.0,-0.3321361566545209
1666088220676228810,-0.004264604416675866,0.0,0.0,0.0,0.0,-0.4077089132658754
1666088220724245148,-0.006396906625013799,0.0,0.0,0.0,0.0,-0.4584979944989103
1666088220724280390,-0.004264604416675866,0.0,0.0,0.0,0.0,-0.5133013330115322
1666088220724296481,0.0,0.0,0.0,0.0,0.0,-0.5461135229490257
1666088220769710498,-0.006396906625013799,0.0,0.0,0.0,0.0,-0.5590289594137837
1666088220769745891,-0.004264604416675866,0.0,0.0,0.0,0.0,-0.5942846103040691
1666088220784216982,0.0,0.0,0.0,0.0,0.0,-0.6283185307179586
1666088220804451057,0.0,0.0,0.0,0.0,0.0,-0.64943701466709
1666088220844140506,-0.006396906625013799,0.0,0.0,0.0,0.0,-0.6721262949430162
1666088220844168470,0.0,0.0,0.0,0.0,0.0,-0.6934193118173471
1666088220888434150,0.002132302208337933,0.0,0.0,0.0,0.0,-0.7080800775340995
1666088220888494651,0.002132302208337933,0.0,0.0,0.0,0.0,-0.7178539213452677
1666088220932164114,-0.006396906625013799,0.0,0.0,0.0,0.0,-0.7285004297824331
1666088220932191060,-0.002132302208337933,0.0,0.0,0.0,0.0,-0.7452555906015788
1666088220976104999,-0.004264604416675866,0.0,0.0,0.0,0.0,-0.7524114405347555
1666088220976120932,0.0,0.0,0.0,0.0,0.0,-0.7244861725028462
1666088221020167089,-0.002132302208337933,0.0,0.0,0.0,0.0,-0.7178539213452677
1666088221020209406,-0.002132302208337933,0.0,0.0,0.0,0.0,-0.7216936456996552
1666088221064966347,-0.002132302208337933,0.0,0.0,0.0,0.0,-0.7260569688296411
1666088221065196199,-0.004264604416675866,0.0,0.0,0.0,0.0,-0.7152359274672762
1666088221108116301,0.002132302208337933,0.0,0.0,0.0,0.0,-0.6958627727701392
1666088221108135889,0.0,0.0,0.0,0.0,0.0,-0.6888814557621619
1666088221108270722,-0.002132302208337933,0.0,0.0,0.0,0.0,-0.686088928958971
1666088221152138567,-0.002132302208337933,0.0,0.0,0.0,0.0,-0.6965609044709369
1666088221152156162,-0.004264604416675866,0.0,0.0,0.0,0.0,-0.6998770300497261
1666088221163805870,-0.002132302208337933,0.0,0.0,0.0,0.0,-0.6976081020221335
1666088221183828758,0.004264604416675866,0.0,0.0,0.0,0.0,-0.7054620836561081
1666088221224160461,0.002132302208337933,0.0,0.0,0.0,0.0,-0.7049384848805097
1666088221224198682,0.0,0.0,0.0,0.0,0.0,-0.7110471372624899
1666088221269716031,-0.004264604416675866,0.0,0.0,0.0,0.0,-0.7112216701876892
1666088221269811877,-0.006396906625013799,0.0,0.0,0.0,0.0,-0.7115707360380883
1666088221316207923,0.002132302208337933,0.0,0.0,0.0,0.0,-0.7150613945420768
1666088221316241154,0.002132302208337933,0.0,0.0,0.0,0.0,-0.7185520530460655
1666088221360368636,-0.002132302208337933,0.0,0.0,0.0,0.0,-0.7234389749516497
1666088221360396675,-0.006396906625013799,0.0,0.0,0.0,0.0,-0.7298966931840286
1666088221404358427,-0.002132302208337933,0.0,0.0,0.0,0.0,-0.7408922674715929
1666088221404399297,0.002132302208337933,0.0,0.0,0.0,0.0,-0.7431611954991855
1666088221448502583,-0.002132302208337933,0.0,0.0,0.0,0.0,-0.7309438907352253
1666088221448555784,0.002132302208337933,0.0,0.0,0.0,0.0,-0.7093018080104956
1666088221448570991,0.002132302208337933,0.0,0.0,0.0,0.0,-0.6993534312741279
1666088221492214229,-0.002132302208337933,0.0,0.0,0.0,0.0,-0.6834709350809794
1666088221492248688,0.002132302208337933,0.0,0.0,0.0,0.0,-0.667588438887831
1666088221503561936,0.0,0.0,0.0,0.0,0.0,-0.6579891280018623
1666088221523432336,0.002132302208337933,0.0,0.0,0.0,0.0,-0.6578145950766627
1666088221568408201,0.002132302208337933,0.0,0.0,0.0,0.0,-0.6532767390214775
1666088221568437066,0.0,0.0,0.0,0.0,0.0,-0.6387905062299246
1666088221612103315,-0.002132302208337933,0.0,0.0,0.0,0.0,-0.6326818538479444
1666088221612119833,0.0,0.0,0.0,0.0,0.0,-0.6068509809184285
1666088221660102039,-0.002132302208337933,0.0,0.0,0.0,0.0,-0.5787511799613196
1666088221660119523,0.0,0.0,0.0,0.0,0.0,-0.5590289594137837
1666088221704218069,0.0,0.0,0.0,0.0,0.0,-0.5206317158699084
1666088221704235592,0.0,0.0,0.0,0.0,0.0,-0.4792674125976429
1666088221704241994,0.0,0.0,0.0,0.0,0.0,-0.4494222823885398
1666088221752126153,-0.002132302208337933,0.0,0.0,0.0,0.0,-0.4293509959906051
1666088221752144038,0.002132302208337933,0.0,0.0,0.0,0.0,-0.4153883619746504
1666088221763387502,-0.002132302208337933,0.0,0.0,0.0,0.0,-0.40369465598628845
1666088221784742837,0.0,0.0,0.0,0.0,0.0,-0.4016002608838952
1666088221833059827,0.002132302208337933,0.0,0.0,0.0,0.0,-0.39950586578150205
1666088221833088652,0.002132302208337933,0.0,0.0,0.0,0.0,-0.4009021291830974
1666088221880134160,0.004264604416675866,0.0,0.0,0.0,0.0,-0.38554323176554733
1666088221880177716,0.004264604416675866,0.0,0.0,0.0,0.0,-0.34243359924128747
1666088221924183309,-0.002132302208337933,0.0,0.0,0.0,0.0,-0.313635666583381
1666088221924214402,0.002132302208337933,0.0,0.0,0.0,0.0,-0.32253684576855207
1666088221968420651,0.0,0.0,0.0,0.0,0.0,-0.3186971214141646
1666088221968440719,0.002132302208337933,0.0,0.0,0.0,0.0,-0.28588493147667116
1666088221968457452,-0.004264604416675866,0.0,0.0,0.0,0.0,-0.24626595745639987
1666088222012249398,-0.002132302208337933,0.0,0.0,0.0,0.0,-0.24207716725161352
1666088222012270098,-0.004264604416675866,0.0,0.0,0.0,0.0,-0.25394540616517497
1666088222025149513,0.004264604416675866,0.0,0.0,0.0,0.0,-0.244695161129605
1666088222045591199,-0.004264604416675866,0.0,0.0,0.0,0.0,-0.19041542139258136
1666088222092270023,0.002132302208337933,0.0,0.0,0.0,0.0,-0.15585790220309362
1666088222092292536,-0.002132302208337933,0.0,0.0,0.0,0.0,-0.1551597705022959
1666088222136155947,0.002132302208337933,0.0,0.0,0.0,0.0,-0.1658062789394613
1666088222136179086,0.0,0.0,0.0,0.0,0.0,-0.15533430342749532
1666088222180149811,-0.002132302208337933,0.0,0.0,0.0,0.0,-0.12793263417118436
1666088222180167696,-0.002132302208337933,0.0,0.0,0.0,0.0,-0.10629055144645466
1666088222224212073,0.002132302208337933,0.0,0.0,0.0,0.0,-0.08674286382411817
1666088222224229873,0.0,0.0,0.0,0.0,0.0,-0.06579891280018622
1666088222268275010,0.0,0.0,0.0,0.0,0.0,-0.0466002910282486
1666088222268303123,0.0,0.0,0.0,0.0,0.0,-0.0291469985083053
1666088222268312380,0.002132302208337933,0.0,0.0,0.0,0.0,-0.02391101075232232
1666088222312245804,0.002132302208337933,0.0,0.0,0.0,0.0,-0.01658062789394613
1666088222312285064,0.0,0.0,0.0,0.0,0.0,-0.008726646259971648
1666088222324194183,0.002132302208337933,0.0,0.0,0.0,0.0,-0.0054105206811824215
1666088222346206535,0.0,0.0,0.0,0.0,0.0,-0.006632251157578452
1666088222388507739,0.0,0.0,0.0,0.0,0.0,0.0
1666088222388585809,0.0,0.0,0.0,0.0,0.0,0.0
1666088222432126080,0.0,0.0,0.0,0.0,0.0,0.0
1666088222432142836,0.0,0.0,0.0,0.0,0.0,0.0
1666088222476486161,0.0,0.0,0.0,0.0,0.0,0.0
1666088222476635307,0.0,0.0,0.0,0.0,0.0,0.0
1666088222520292965,0.0,0.0,0.0,0.0,0.0,0.0
1666088222520347613,0.0,0.0,0.0,0.0,0.0,0.0
1666088222564079014,0.0,0.0,0.0,0.0,0.0,0.0
1666088222564090399,0.0,0.0,0.0,0.0,0.0,0.0
1666088222608217427,0.0,0.0,0.0,0.0,0.0,0.0
1666088222608249904,0.0,0.0,0.0,0.0,0.0,0.0
1666088222608295758,0.0,0.0,0.0,0.0,0.0,0.0
1666088222656438308,0.0,0.0,0.0,0.0,0.0,0.0
1666088222656483200,0.0,0.0,0.0,0.0,0.0,0.0
1666088222664086351,0.0,0.0,0.0,0.0,0.0,0.0
1666088222685001871,0.0,0.0,0.0,0.0,0.0,0.0
1666088222732188891,0.0,0.0,0.0,0.0,0.0,0.0
1666088222732212326,0.0,0.0,0.0,0.0,0.0,0.0
1666088222776754252,0.0,0.0,0.0,0.0,0.0,0.0
1666088222776812399,0.0,0.0,0.0,0.0,0.0,0.0
1666088222820385595,0.0,0.0,0.0,0.0,0.0,0.0
1666088222820413002,0.0,0.0,0.0,0.0,0.0,0.0
1666088222868211274,0.0,0.0,0.0,0.0,0.0,0.0
1666088222868230469,0.0,0.0,0.0,0.0,0.0,0.0
1666088222868246427,0.0,0.0,0.0,0.0,0.0,0.0
1666088222912547826,0.0,0.0,0.0,0.0,0.0,0.0
1666088222912620096,0.0,0.0,0.0,0.0,0.0,0.0
1666088222924204406,0.0,0.0,0.0,0.0,0.0,0.0
1666088222945582326,0.0,0.0,0.0,0.0,0.0,0.0
1666088222988053178,0.0,0.0,0.0,0.0,0.0,0.0
1666088222988065754,0.0,0.0,0.0,0.0,0.0,0.0
1666088223032315692,0.0,0.0,0.0,0.0,0.0,0.0
1666088223032343612,0.0,0.0,0.0,0.0,0.0,0.0
1666088223076528539,0.0,0.0,0.0,0.0,0.0,0.0
1666088223076605179,0.0,0.0,0.0,0.0,0.0,0.0
1666088223120158923,0.0,0.0,0.0,0.0,0.0,0.0
1666088223120175003,0.0,0.0,0.0,0.0,0.0,0.0
1666088223167007253,0.0,0.0,0.0,0.0,0.0,0.0
1666088223167033967,0.0,0.0,0.0,0.0,0.0,0.0
1666088223212336284,0.0,0.0,0.0,0.0,0.0,0.0
1666088223212394233,0.0,0.0,0.0,0.0,0.0,0.0
1666088223212414169,0.0,0.0,0.0,0.0,0.0,0.0
1666088223256150723,0.0,0.0,0.0,0.0,0.0,0.0
1666088223256178884,0.0,0.0,0.0,0.0,0.0,0.0
1666088223265817976,0.0,0.0,0.0,0.0,0.0,0.0
1666088223285354521,0.0,0.0,0.0,0.0,0.0,0.0
1666088223328224706,0.0,0.0,0.0,0.0,0.0,0.0
1666088223328253984,0.0,0.0,0.0,0.0,0.0,0.0
1666088223372187932,0.0,0.0,0.0,0.0,0.0,0.0
1666088223372213912,0.0,0.0,0.0,0.0,0.0,0.0
1666088223416485333,0.0,0.0,0.0,0.0,0.0,0.0
1666088223416558420,0.0,0.0,0.0,0.0,0.0,0.0
1666088223460244614,0.0,0.0,0.0,0.0,0.0,0.0
1666088223460265840,0.0,0.0,0.0,0.0,0.0,0.0
1666088223504167515,0.0,0.0,0.0,0.0,0.0,0.0
1666088223504199291,0.0,0.0,0.0,0.0,0.0,0.0
1666088223548230398,0.0,0.0,0.0,0.0,0.0,0.0
1666088223548248245,0.0,0.0,0.0,0.0,0.0,0.0
1666088223548272364,0.0,0.0,0.0,0.0,0.0,0.0
1666088223592233553,0.0,0.0,0.0,0.0,0.0,0.0
1666088223592265049,0.0,0.0,0.0,0.0,0.0,0.0
1666088223604678797,0.0,0.0,0.0,0.0,0.0,0.0
1666088223625555571,0.0,0.0,0.0,0.0,0.0,0.0
1666088223668066315,0.0,0.0,0.0,0.0,0.0,0.0
1666088223668077488,0.0,0.0,0.0,0.0,0.0,0.0
1666088223716326925,0.0,0.0,0.0,0.0,0.0,0.0
1666088223716353513,0.0,0.0,0.0,0.0,0.0,0.0
1666088223764621280,0.0,0.0,0.0,0.0,0.0,0.0
1666088223764682524,0.0,0.0,0.0,0.0,0.0,0.0
1666088223812234953,0.0,0.0,0.0,0.0,0.0,0.0
1666088223812266662,0.0,0.0,0.0,0.0,0.0,0.0
1666088223812287964,0.0,0.0,0.0,0.0,0.0,0.0
1666088223856137275,0.0,0.0,0.0,0.0,0.0,0.0
1666088223856150510,0.0,0.0,0.0,0.0,0.0,0.0
1666088223865463956,0.0,0.0,0.0,0.0,0.0,0.0
1666088223885916615,0.0,0.0,0.0,0.0,0.0,-0.0031415926535897933
1666088223928048232,0.0,0.0,0.0,0.0,0.0,-0.0020943951023931952
1666088223928061449,0.0,0.0,0.0,0.0,0.0,-0.0020943951023931952
1666088223972213165,0.0,0.0,0.0,0.0,0.0,-0.0020943951023931952
1666088223972233777,0.0,0.0,0.0,0.0,0.0,-0.0024434609527920616
1666088224016138883,0.0,0.0,0.0,0.0,0.0,-0.006283185307179587
1666088224016155913,0.0,0.0,0.0,0.0,0.0,-0.0005235987755982988
1666088224060235043,0.0,0.0,0.0,0.0,0.0,0.007679448708775049
1666088224060257346,0.0,0.0,0.0,0.0,0.0,0.0038397243543875246
1666088224104216046,0.0,0.0,0.0,0.0,0.0,-0.002617993877991494
1666088224104235081,0.0,0.0,0.0,0.0,0.0,-0.0017453292519943296
1666088224148261715,0.0,0.0,0.0,0.0,0.0,-0.002617993877991494
1666088224148317119,0.0,0.0,0.0,0.0,0.0,-0.0022689280275926286
1666088224148325291,0.0,0.0,0.0,0.0,0.0,0.0008726646259971648
1666088224192098445,0.0,0.0,0.0,0.0,0.0,-0.0012217304763960308
1666088224192113416,0.0,0.0,0.0,0.0,0.0,-0.003316125578789226
1666088224205298623,0.004264604416675866,0.0,0.0,0.0,0.0,-0.0010471975511965976
1666088224225928171,0.004264604416675866,0.0,0.0,0.0,0.0,0.0020943951023931952
1666088224268072634,0.006396906625013799,0.0,0.0,0.0,0.0,0.0012217304763960308
1666088224268088918,0.002132302208337933,0.0,0.0,0.0,0.0,0.0
1666088224312135301,0.008529208833351731,0.0,0.0,0.0,0.0,-0.00034906585039886593
1666088224312155102,0.017058417666703463,0.0,0.0,0.0,0.0,-0.0020943951023931952
1666088224356728438,0.021323022083379328,0.0,0.0,0.0,0.0,-0.004886921905584123
1666088224356786280,0.025587626500055197,0.0,0.0,0.0,0.0,-0.002967059728390361
1666088224400087160,0.027719928708393127,0.0,0.0,0.0,0.0,-0.0024434609527920616
1666088224400094883,0.027719928708393127,0.0,0.0,0.0,0.0,-0.002967059728390361
1666088224444173629,0.03624913754174486,0.0,0.0,0.0,0.0,-0.008377580409572781
1666088224444203710,0.044778346375096596,0.0,0.0,0.0,0.0,-0.00890117918517108
1666088224492188459,0.05330755520844832,0.0,0.0,0.0,0.0,-0.00034906585039886593
1666088224492217492,0.04691064858343452,0.0,0.0,0.0,0.0,0.0010471975511965976
1666088224492242329,0.05330755520844832,0.0,0.0,0.0,0.0,-0.0041887902047863905
1666088224536474859,0.06183676404180006,0.0,0.0,0.0,0.0,-0.0038397243543875246
1666088224536544621,0.0703659728751518,0.0,0.0,0.0,0.0,0.0
1666088224545684065,0.08102748391684146,0.0,0.0,0.0,0.0,-0.007679448708775049
1666088224565995166,0.07676287950016558,0.0,0.0,0.0,0.0,-0.01291543646475804
1666088224608091914,0.08102748391684146,0.0,0.0,0.0,0.0,-0.004886921905584123
1666088224608108324,0.09808590158354492,0.0,0.0,0.0,0.0,0.0020943951023931952
1666088224656096124,0.10021820379188286,0.0,0.0,0.0,0.0,-0.0017453292519943296
1666088224656136069,0.11301201704191044,0.0,0.0,0.0,0.0,-0.004886921905584123
1666088224696423370,0.09808590158354492,0.0,0.0,0.0,0.0,-0.0024434609527920616
1666088224696468941,0.10448280820855872,0.0,0.0,0.0,0.0,0.0012217304763960308
1666088224740158101,0.11940892366692425,0.0,0.0,0.0,0.0,0.002617993877991494
1666088224740180988,0.12793813250027597,0.0,0.0,0.0,0.0,-0.0008726646259971648
1666088224784231286,0.1300704347086139,0.0,0.0,0.0,0.0,-0.006632251157578452
1666088224784247745,0.12580583029193804,0.0,0.0,0.0,0.0,-0.0038397243543875246
1666088224828128086,0.13220273691695184,0.0,0.0,0.0,0.0,0.0024434609527920616
1666088224828147556,0.1556580612086691,0.0,0.0,0.0,0.0,-0.0024434609527920616
1666088224828162718,0.15139345679199323,0.0,0.0,0.0,0.0,-0.0015707963267948967
1666088224872198722,0.1556580612086691,0.0,0.0,0.0,0.0,-0.003316125578789226
1666088224872237598,0.15352575900033116,0.0,0.0,0.0,0.0,-0.006632251157578452
1666088224885706112,0.1556580612086691,0.0,0.0,0.0,0.0,-0.008726646259971648
1666088224905298007,0.17484878108371052,0.0,0.0,0.0,0.0,-0.006108652381980153
1666088224952157298,0.17271647887537256,0.0,0.0,0.0,0.0,-0.0005235987755982988
1666088224952184475,0.18124568770872432,0.0,0.0,0.0,0.0,-0.003316125578789226
1666088224996500677,0.18551029212540016,0.0,0.0,0.0,0.0,-0.0010471975511965976
1666088224996542623,0.18977489654207602,0.0,0.0,0.0,0.0,-0.003316125578789226
1666088225040164328,0.20470101200044158,0.0,0.0,0.0,0.0,-0.0054105206811824215
1666088225040194131,0.19830410537542775,0.0,0.0,0.0,0.0,-0.007330382858376183
1666088225084201280,0.20256870979210362,0.0,0.0,0.0,0.0,-0.004537856055185257
1666088225084220154,0.20470101200044158,0.0,0.0,0.0,0.0,0.0020943951023931952
1666088225128218191,0.21109791862545538,0.0,0.0,0.0,0.0,-0.009075712110370514
1666088225128250059,0.23028863850049677,0.0,0.0,0.0,0.0,-0.011868238913561443
1666088225128272495,0.221759429667145,0.0,0.0,0.0,0.0,-0.009948376736367677
1666088225172471650,0.23028863850049677,0.0,0.0,0.0,0.0,-0.008203047484373348
1666088225172525765,0.23028863850049677,0.0,0.0,0.0,0.0,-0.008203047484373348
1666088225188877607,0.2388178473338485,0.0,0.0,0.0,0.0,-0.004537856055185257
1666088225206073489,0.2516116605838761,0.0,0.0,0.0,0.0,-0.0036651914291880917
1666088225249552150,0.25587626500055194,0.0,0.0,0.0,0.0,-0.005061454830783556
1666088225249585976,0.25800856720888987,0.0,0.0,0.0,0.0,0.0031415926535897933
1666088225292504014,0.2601408694172278,0.0,0.0,0.0,0.0,-0.005585053606381855
1666088225292569689,0.26440547383390367,0.0,0.0,0.0,0.0,-0.01308996938995747
1666088225336188288,0.28359619370894507,0.0,0.0,0.0,0.0,-0.009599310885968814
1666088225336207528,0.2771992870839313,0.0,0.0,0.0,0.0,-0.002617993877991494
1666088225380178448,0.28999310033395886,0.0,0.0,0.0,0.0,-0.004363323129985824
1666088225380201747,0.28359619370894507,0.0,0.0,0.0,0.0,-0.009075712110370514
1666088225424173346,0.28999310033395886,0.0,0.0,0.0,0.0,-0.005235987755982988
1666088225424202030,0.3155807268340141,0.0,0.0,0.0,0.0,-0.003316125578789226
1666088225468190813,0.3006546113756486,0.0,0.0,0.0,0.0,-0.00471238898038469
1666088225468209113,0.3134484246256761,0.0,0.0,0.0,0.0,-0.006806784082777885
1666088225468218917,0.3113161224173382,0.0,0.0,0.0,0.0,-0.0036651914291880917
1666088225512136079,0.3134484246256761,0.0,0.0,0.0,0.0,-0.003316125578789226
1666088225512162614,0.33050684229237964,0.0,0.0,0.0,0.0,-0.005934119456780722
1666088225526422918,0.3262422378757037,0.0,0.0,0.0,0.0,-0.007504915783575617
1666088225547037865,0.34116835333406925,0.0,0.0,0.0,0.0,-0.008028514559173916
1666088225592472056,0.34116835333406925,0.0,0.0,0.0,0.0,0.00017453292519943296
1666088225592513982,0.34116835333406925,0.0,0.0,0.0,0.0,0.003490658503988659
1666088225636348139,0.36035907320911065,0.0,0.0,0.0,0.0,-0.0019198621771937623
1666088225636392894,0.3560944687924348,0.0,0.0,0.0,0.0,0.004014257279586958
1666088225684489238,0.36675597983412445,0.0,0.0,0.0,0.0,0.008028514559173916
1666088225684591150,0.36249137541744864,0.0,0.0,0.0,0.0,0.00034906585039886593
1666088225728188151,0.37741749087581417,0.0,0.0,0.0,0.0,-0.005585053606381855
1666088225728212557,0.3902113041258417,0.0,0.0,0.0,0.0,-0.0020943951023931952
1666088225728270114,0.3838143975008279,0.0,0.0,0.0,0.0,-0.0008726646259971648
1666088225772292424,0.3902113041258417,0.0,0.0,0.0,0.0,-0.005235987755982988
1666088225772337537,0.3902113041258417,0.0,0.0,0.0,0.0,-0.005585053606381855
1666088225786691233,0.3923436063341797,0.0,0.0,0.0,0.0,-0.004014257279586958
1666088225806308746,0.41153432620922104,0.0,0.0,0.0,0.0,-0.011693705988362009
1666088225848659846,0.40513741958420724,0.0,0.0,0.0,0.0,-0.01780235837034216
1666088225848714345,0.4243281394592487,0.0,0.0,0.0,0.0,-0.01361356816555577
1666088225896238799,0.4243281394592487,0.0,0.0,0.0,0.0,-0.012740903539558606
1666088225896266210,0.4179312328342349,0.0,0.0,0.0,0.0,-0.0143116998663535
1666088225944136196,0.4392542549176142,0.0,0.0,0.0,0.0,-0.005585053606381855
1666088225944156446,0.44138655712595215,0.0,0.0,0.0,0.0,-0.005061454830783556
1666088225988282967,0.44138655712595215,0.0,0.0,0.0,0.0,-0.009075712110370514
1666088225988312094,0.45204806816764176,0.0,0.0,0.0,0.0,-0.004886921905584123
1666088225988332349,0.44778346375096595,0.0,0.0,0.0,0.0,-0.013264502315156903
1666088226032210054,0.4669741836260073,0.0,0.0,0.0,0.0,-0.020420352248333655
1666088226032266883,0.45844497479265556,0.0,0.0,0.0,0.0,-0.009948376736367677
1666088226046927313,0.4755033924593591,0.0,0.0,0.0,0.0,-0.00942477796076938
1666088226067530723,0.477635694667697,0.0,0.0,0.0,0.0,-0.010122909661567111
1666088226108361493,0.4691064858343453,0.0,0.0,0.0,0.0,-0.010821041362364843
1666088226108404841,0.48616490350104874,0.0,0.0,0.0,0.0,-0.007853981633974483
1666088226156923973,0.49042950791772455,0.0,0.0,0.0,0.0,-0.0054105206811824215
1666088226156948157,0.48616490350104874,0.0,0.0,0.0,0.0,-0.008203047484373348
1666088226204158737,0.4882972057093866,0.0,0.0,0.0,0.0,-0.003490658503988659
1666088226204173660,0.49042950791772455,0.0,0.0,0.0,0.0,-0.009948376736367677
1666088226252244195,0.4819002990843728,0.0,0.0,0.0,0.0,-0.009773843811168246
1666088226252270635,0.48616490350104874,0.0,0.0,0.0,0.0,0.009773843811168246
1666088226252285767,0.48616490350104874,0.0,0.0,0.0,0.0,0.0015707963267948967
1666088226301801124,0.49042950791772455,0.0,0.0,0.0,0.0,-0.006632251157578452
1666088226301831157,0.49042950791772455,0.0,0.0,0.0,0.0,0.0020943951023931952
1666088226307524499,0.49256181012606254,0.0,0.0,0.0,0.0,-0.0010471975511965976
1666088226326444988,0.49256181012606254,0.0,0.0,0.0,0.0,-0.006108652381980153
1666088226372175203,0.47976799687603494,0.0,0.0,0.0,0.0,-0.0022689280275926286
1666088226372210498,0.4819002990843728,0.0,0.0,0.0,0.0,-0.01832595714594046
1666088226420463154,0.4819002990843728,0.0,0.0,0.0,0.0,-0.02600540585471551
1666088226420526364,0.4819002990843728,0.0,0.0,0.0,0.0,-0.008028514559173916
1666088226464122652,0.4819002990843728,0.0,0.0,0.0,0.0,-0.00890117918517108
1666088226464143755,0.4712387880426832,0.0,0.0,0.0,0.0,-0.014486232791552934
1666088226512146610,0.49042950791772455,0.0,0.0,0.0,0.0,-0.006806784082777885
1666088226512163855,0.4755033924593591,0.0,0.0,0.0,0.0,-0.015533430342749534
1666088226512170953,0.4733710902510211,0.0,0.0,0.0,0.0,-0.005061454830783556
1666088226560138950,0.4755033924593591,0.0,0.0,0.0,0.0,0.003490658503988659
1666088226560189273,0.4733710902510211,0.0,0.0,0.0,0.0,-0.009948376736367677
1666088226566606405,0.4819002990843728,0.0,0.0,0.0,0.0,-0.01658062789394613
1666088226587211937,0.4733710902510211,0.0,0.0,0.0,0.0,-0.01064650843716541
1666088226628202506,0.477635694667697,0.0,0.0,0.0,0.0,-0.008377580409572781
1666088226628245053,0.4819002990843728,0.0,0.0,0.0,0.0,-0.006283185307179587
1666088226672086635,0.41579893062589696,0.0,0.0,0.0,0.0,-0.011868238913561443
1666088226672101901,0.40513741958420724,0.0,0.0,0.0,0.0,-0.0024434609527920616
1666088226716290341,0.42006353504257277,0.0,0.0,0.0,0.0,-0.004886921905584123
1666088226716324640,0.44138655712595215,0.0,0.0,0.0,0.0,-0.014835298641951801
1666088226764158799,0.44351885933429,0.0,0.0,0.0,0.0,-0.006806784082777885
1666088226764183888,0.4285927438759245,0.0,0.0,0.0,0.0,-0.010122909661567111
1666088226808202031,0.42646044166758657,0.0,0.0,0.0,0.0,0.0
1666088226808228372,0.43712195270927623,0.0,0.0,0.0,0.0,-0.0017453292519943296
1666088226808235335,0.445651161542628,0.0,0.0,0.0,0.0,-0.007330382858376183
1666088226856266777,0.44138655712595215,0.0,0.0,0.0,0.0,-0.008028514559173916
1666088226856317307,0.44138655712595215,0.0,0.0,0.0,0.0,-0.004886921905584123
1666088226867573558,0.4392542549176142,0.0,0.0,0.0,0.0,-0.015358897417550098
1666088226889745397,0.44351885933429,0.0,0.0,0.0,0.0,-0.023387411976724018
1666088226936235726,0.45844497479265556,0.0,0.0,0.0,0.0,-0.030543261909900768
1666088226936271262,0.46057727700099355,0.0,0.0,0.0,0.0,-0.01902408884673819
1666088226984362985,0.44778346375096595,0.0,0.0,0.0,0.0,-0.018500490071139894
1666088226984383986,0.44778346375096595,0.0,0.0,0.0,0.0,-0.02757620218151041
1666088227029434828,0.4563126725843177,0.0,0.0,0.0,0.0,-0.022514747350726852
1666088227029590471,0.45418037037597975,0.0,0.0,0.0,0.0,-0.01064650843716541
1666088227072162414,0.4499157659593038,0.0,0.0,0.0,0.0,-0.009948376736367677
1666088227072181637,0.4627095792093315,0.0,0.0,0.0,0.0,-0.012217304763960306
1666088227072186738,0.46057727700099355,0.0,0.0,0.0,0.0,-0.006283185307179587
1666088227120420247,0.4669741836260073,0.0,0.0,0.0,0.0,-0.002967059728390361
1666088227120457903,0.45418037037597975,0.0,0.0,0.0,0.0,-0.00942477796076938
1666088227128122372,0.4499157659593038,0.0,0.0,0.0,0.0,-0.017278759594743863
1666088227147222818,0.45418037037597975,0.0,0.0,0.0,0.0,-0.017627825445142728
1666088227188142783,0.445651161542628,0.0,0.0,0.0,0.0,-0.023387411976724018
1666088227188155101,0.45204806816764176,0.0,0.0,0.0,0.0,-0.022165681500327987
1666088227232183342,0.445651161542628,0.0,0.0,0.0,0.0,-0.018675022996339326
1666088227232204178,0.445651161542628,0.0,0.0,0.0,0.0,-0.025132741228718346
1666088227276289015,0.44351885933429,0.0,0.0,0.0,0.0,-0.022165681500327987
1666088227276317120,0.44778346375096595,0.0,0.0,0.0,0.0,-0.014660765716752367
1666088227320262110,0.44138655712595215,0.0,0.0,0.0,0.0,-0.015358897417550098
1666088227320327793,0.42646044166758657,0.0,0.0,0.0,0.0,-0.016231562043547268
1666088227368408014,0.42219583725091075,0.0,0.0,0.0,0.0,-0.015533430342749534
1666088227368463559,0.4392542549176142,0.0,0.0,0.0,0.0,-0.019198621771937627
1666088227368492093,0.43712195270927623,0.0,0.0,0.0,0.0,-0.023212879051524585
1666088227412169146,0.4307250460842625,0.0,0.0,0.0,0.0,-0.035430183815484885
1666088227412187209,0.4285927438759245,0.0,0.0,0.0,0.0,-0.054105206811824215
1666088227427112630,0.4307250460842625,0.0,0.0,0.0,0.0,-0.056025068989017976
1666088227447220733,0.43712195270927623,0.0,0.0,0.0,0.0,-0.046949356878647465
1666088227488444018,0.4307250460842625,0.0,0.0,0.0,0.0,-0.06544984694978735
1666088227532195525,0.4285927438759245,0.0,0.0,0.0,0.0,-0.10192722831646885
1666088227532211962,0.4307250460842625,0.0,0.0,0.0,0.0,-0.11414453308042916
1666088227532219670,0.4349896505009383,0.0,0.0,0.0,0.0,-0.1303760951239764
1666088227580047648,0.4328573482926004,0.0,0.0,0.0,0.0,-0.14014993893514466
1666088227580055782,0.43712195270927623,0.0,0.0,0.0,0.0,-0.17366026057343578
1666088227588221348,0.4307250460842625,0.0,0.0,0.0,0.0,-0.21868975527488949
1666088227607529136,0.42219583725091075,0.0,0.0,0.0,0.0,-0.23596851486963336
1666088227648063013,0.4328573482926004,0.0,0.0,0.0,0.0,-0.23945917337362205
1666088227648074197,0.4328573482926004,0.0,0.0,0.0,0.0,-0.2621484536495483
1666088227692255796,0.4392542549176142,0.0,0.0,0.0,0.0,-0.312413936106985
1666088227692292319,0.43712195270927623,0.0,0.0,0.0,0.0,-0.403520123061089
1666088227736135621,0.4328573482926004,0.0,0.0,0.0,0.0,-0.4380776422505767
1666088227736155696,0.4328573482926004,0.0,0.0,0.0,0.0,-0.46949356878647464
1666088227780064121,0.4392542549176142,0.0,0.0,0.0,0.0,-0.5117305366847374
1666088227780075496,0.4307250460842625,0.0,0.0,0.0,0.0,-0.5742133239061344
1666088227824454130,0.4307250460842625,0.0,0.0,0.0,0.0,-0.6283185307179586
1666088227824504763,0.4349896505009383,0.0,0.0,0.0,0.0,-0.6529276731710786
1666088227868123573,0.4349896505009383,0.0,0.0,0.0,0.0,-0.6686356364390277
1666088227868143927,0.43712195270927623,0.0,0.0,0.0,0.0,-0.6668903071870333
1666088227868157371,0.4285927438759245,0.0,0.0,0.0,0.0,-0.6908013179393555
1666088227912156858,0.4349896505009383,0.0,0.0,0.0,0.0,-0.7117452689632876
1666088227912191398,0.4392542549176142,0.0,0.0,0.0,0.0,-0.7080800775340995
1666088227929134034,0.42646044166758657,0.0,0.0,0.0,0.0,-0.7157595262428745
1666088227947822526,0.3454329577507451,0.0,0.0,0.0,0.0,-0.7286749627076327
1666088227988321845,0.30491921579232445,0.0,0.0,0.0,0.0,-0.7604399550939293
1666088228032070828,0.3646236776257865,0.0,0.0,0.0,0.0,-0.789761486527434
1666088228032084369,0.3923436063341797,0.0,0.0,0.0,0.0,-0.8585274590560107
1666088228032091985,0.36035907320911065,0.0,0.0,0.0,0.0,-0.9004153611038747
1666088228076243260,0.34116835333406925,0.0,0.0,0.0,0.0,-0.8765043503515522
1666088228076295636,0.34116835333406925,0.0,0.0,0.0,0.0,-0.8625417163355976
1666088228088573460,0.3646236776257865,0.0,0.0,0.0,0.0,-0.8815658051823357
1666088228108305551,0.3731528864591383,0.0,0.0,0.0,0.0,-0.9126326658678349
1666088228152152606,0.35822677100077277,0.0,0.0,0.0,0.0,-0.908269342737849
1666088228152178695,0.3710205842508003,0.0,0.0,0.0,0.0,-0.8655087760639881
1666088228200135305,0.36249137541744864,0.0,0.0,0.0,0.0,-0.8895943197415098
1666088228200149635,0.36675597983412445,0.0,0.0,0.0,0.0,-0.8833111344343302
1666088228244151406,0.38168209529249003,0.0,0.0,0.0,0.0,-0.8883725892651138
1666088228244171578,0.3752851886674762,0.0,0.0,0.0,0.0,-0.888896188040712
1666088228288167493,0.3923436063341797,0.0,0.0,0.0,0.0,-0.8770279491271507
1666088228288180657,0.37741749087581417,0.0,0.0,0.0,0.0,-0.8810422064067376
1666088228288205092,0.37954979308415204,0.0,0.0,0.0,0.0,-0.8936085770210968
1666088228332233351,0.40940202400088316,0.0,0.0,0.0,0.0,-0.8920377806943018
1666088228332260925,0.4243281394592487,0.0,0.0,0.0,0.0,-0.8848819307611251
1666088228348102934,0.4285927438759245,0.0,0.0,0.0,0.0,-0.8878489904895154
1666088228367978456,0.42006353504257277,0.0,0.0,0.0,0.0,-0.8970992355250854
1666088228408877602,0.41153432620922104,0.0,0.0,0.0,0.0,-0.8878489904895154
1666088228452263868,0.43712195270927623,0.0,0.0,0.0,0.0,-0.8738863564735608
1666088228452314969,0.445651161542628,0.0,0.0,0.0,0.0,-0.8597491895324068
1666088228452326279,0.45844497479265556,0.0,0.0,0.0,0.0,-0.8388052385084748
1666088228496272281,0.45204806816764176,0.0,0.0,0.0,0.0,-0.8541641359260248
1666088228496317221,0.44351885933429,0.0,0.0,0.0,0.0,-0.8644615785127914
1666088228508885014,0.45418037037597975,0.0,0.0,0.0,0.0,-0.887674457564316
1666088228529008222,0.46484188141766936,0.0,0.0,0.0,0.0,-0.8826130027335324
1666088228572378755,0.47976799687603494,0.0,0.0,0.0,0.0,-0.879995008855541
1666088228616036964,0.4712387880426832,0.0,0.0,0.0,0.0,-0.8909905831431052
1666088228616046532,0.4627095792093315,0.0,0.0,0.0,0.0,-0.9000662952534757
1666088228616050360,0.49042950791772455,0.0,0.0,0.0,0.0,-0.8883725892651138
1666088228660189989,0.49682641454273835,0.0,0.0,0.0,0.0,-0.8676031711663812
1666088228660219435,0.5138848322094418,0.0,0.0,0.0,0.0,-0.868301302867179
1666088228668765479,0.5010910189594143,0.0,0.0,0.0,0.0,-0.8564330639536176
1666088228688688852,0.4882972057093866,0.0,0.0,0.0,0.0,-0.8196066167365371
1666088228732376022,0.5053556233760901,0.0,0.0,0.0,0.0,-0.7590436916923339
1666088228732415318,0.5245463432511316,0.0,0.0,0.0,0.0,-0.6995279641993273
1666088228776129835,0.5437370631261729,0.0,0.0,0.0,0.0,-0.6724753607934152
1666088228776158187,0.5330755520844833,0.0,0.0,0.0,0.0,-0.655894732899469
1666088228820222168,0.5160171344177797,0.0,0.0,0.0,0.0,-0.5867796945204935
1666088228820251632,0.5309432498761453,0.0,0.0,0.0,0.0,-0.5290092962794812
1666088228864620457,0.5501339697511867,0.0,0.0,0.0,0.0,-0.47595128701885364
1666088228864694505,0.5671923874178901,0.0,0.0,0.0,0.0,-0.4106759729942658
1666088228908043105,0.5586631785845384,0.0,0.0,0.0,0.0,-0.39549160850191506
1666088228908055155,0.5501339697511867,0.0,0.0,0.0,0.0,-0.3110176727053895
1666088228952083135,0.5650600852095522,0.0,0.0,0.0,0.0,-0.25010568181078746
1666088228952094432,0.5778538984595799,0.0,0.0,0.0,0.0,-0.23876104167282428
1666088228952099803,0.5842508050845936,0.0,0.0,0.0,0.0,-0.20874137853852182
1666088228996102919,0.5693246896262281,0.0,0.0,0.0,0.0,-0.19024088846738194
1666088228996134599,0.5565308763762006,0.0,0.0,0.0,0.0,-0.1593485607070823
1666088229009480078,0.5693246896262281,0.0,0.0,0.0,0.0,-0.08988445647770799
1666088229028892875,0.5842508050845936,0.0,0.0,0.0,0.0,-0.04921828490624009
1666088229072183951,0.603441524959635,0.0,0.0,0.0,0.0,-0.034033920413889425
1666088229072213826,0.6098384315846489,0.0,0.0,0.0,0.0,0.009773843811168246
1666088229116286371,0.5906477117096074,0.0,0.0,0.0,0.0,-0.02600540585471551
1666088229116328156,0.5863831072929316,0.0,0.0,0.0,0.0,-0.022165681500327987
1666088229160144764,0.5927800139179454,0.0,0.0,0.0,0.0,-0.019896753472735354
1666088229160156820,0.5927800139179454,0.0,0.0,0.0,0.0,-0.008028514559173916
1666088229208294879,0.5949123161262834,0.0,0.0,0.0,0.0,-0.009773843811168246
1666088229208335779,0.5842508050845936,0.0,0.0,0.0,0.0,-0.005235987755982988
1666088229252955953,0.5885154095012695,0.0,0.0,0.0,0.0,-0.023038346126325153
1666088229252996797,0.5842508050845936,0.0,0.0,0.0,0.0,-0.01117010721276371
1666088229296213344,0.5970446183346212,0.0,0.0,0.0,0.0,-0.002617993877991494
1666088229296274346,0.5906477117096074,0.0,0.0,0.0,0.0,0.00645771823237902
1666088229296491093,0.5735892940429039,0.0,0.0,0.0,0.0,0.002967059728390361
1666088229340455717,0.5735892940429039,0.0,0.0,0.0,0.0,-0.008203047484373348
1666088229340534168,0.5863831072929316,0.0,0.0,0.0,0.0,-0.00715584993317675
1666088229348855278,0.5949123161262834,0.0,0.0,0.0,0.0,0.0
1666088229369577893,0.5927800139179454,0.0,0.0,0.0,0.0,-0.009075712110370514
1666088229416468731,0.5842508050845936,0.0,0.0,0.0,0.0,-0.011868238913561443
1666088229416487857,0.5949123161262834,0.0,0.0,0.0,0.0,-0.004886921905584123
1666088229460243015,0.6055738271679729,0.0,0.0,0.0,0.0,0.005061454830783556
1666088229460275086,0.6013092227512972,0.0,0.0,0.0,0.0,0.0012217304763960308
1666088229508198273,0.603441524959635,0.0,0.0,0.0,0.0,0.0022689280275926286
1666088229508216320,0.6013092227512972,0.0,0.0,0.0,0.0,0.0143116998663535
1666088229552453665,0.6119707337929867,0.0,0.0,0.0,0.0,0.01291543646475804
1666088229552494618,0.6204999426263385,0.0,0.0,0.0,0.0,-0.016755160819145562
1666088229552518238,0.6162353382096627,0.0,0.0,0.0,0.0,-0.01064650843716541
1666088229596231165,0.6098384315846489,0.0,0.0,0.0,0.0,-0.0020943951023931952
1666088229596255218,0.6119707337929867,0.0,0.0,0.0,0.0,0.0036651914291880917
1666088229608204566,0.5778538984595799,0.0,0.0,0.0,0.0,0.008377580409572781
1666088229629888371,0.5586631785845384,0.0,0.0,0.0,0.0,0.012042771838760872
1666088229676088284,0.5543985741678626,0.0,0.0,0.0,0.0,0.0013962634015954637
1666088229676104942,0.5693246896262281,0.0,0.0,0.0,0.0,-0.0020943951023931952
1666088229720090685,0.5778538984595799,0.0,0.0,0.0,0.0,0.0038397243543875246
1666088229720106377,0.5629277830012144,0.0,0.0,0.0,0.0,0.008377580409572781
1666088229764150855,0.5480016675428488,0.0,0.0,0.0,0.0,0.006108652381980153
1666088229764182903,0.5437370631261729,0.0,0.0,0.0,0.0,0.006283185307179587
1666088229812108386,0.5543985741678626,0.0,0.0,0.0,0.0,0.02600540585471551
1666088229812129032,0.5522662719595246,0.0,0.0,0.0,0.0,0.020071286397934786
1666088229812146268,0.5288109476678073,0.0,0.0,0.0,0.0,0.0143116998663535
1666088229856204721,0.5181494366261178,0.0,0.0,0.0,0.0,0.009948376736367677
1666088229856238483,0.5181494366261178,0.0,0.0,0.0,0.0,-0.00471238898038469
1666088229869132228,0.5245463432511316,0.0,0.0,0.0,0.0,-0.0017453292519943296
1666088229890810440,0.5245463432511316,0.0,0.0,0.0,0.0,-0.0010471975511965976
1666088229932578430,0.507487925584428,0.0,0.0,0.0,0.0,-0.006806784082777885
1666088229932737094,0.49895871675107634,0.0,0.0,0.0,0.0,0.0012217304763960308
1666088229976178327,0.49895871675107634,0.0,0.0,0.0,0.0,0.0027925268031909274
1666088229976195334,0.49469411233440047,0.0,0.0,0.0,0.0,-0.0005235987755982988
1666088230024428226,0.5010910189594143,0.0,0.0,0.0,0.0,0.020420352248333655
1666088230024471523,0.49042950791772455,0.0,0.0,0.0,0.0,0.00890117918517108
1666088230068523425,0.4733710902510211,0.0,0.0,0.0,0.0,-0.010122909661567111
1666088230068551372,0.4627095792093315,0.0,0.0,0.0,0.0,0.009773843811168246
1666088230112154023,0.4669741836260073,0.0,0.0,0.0,0.0,0.020420352248333655
1666088230112178104,0.4733710902510211,0.0,0.0,0.0,0.0,0.024609142453120045
1666088230112185105,0.4563126725843177,0.0,0.0,0.0,0.0,0.031415926535897934
1666088230156589268,0.4563126725843177,0.0,0.0,0.0,0.0,0.029845130209103034
1666088230156626361,0.46057727700099355,0.0,0.0,0.0,0.0,0.031415926535897934
1666088230169700303,0.46484188141766936,0.0,0.0,0.0,0.0,0.02897246558310587
1666088230189732184,0.45418037037597975,0.0,0.0,0.0,0.0,0.01780235837034216
1666088230232062927,0.44351885933429,0.0,0.0,0.0,0.0,0.021118483949131385
1666088230232075850,0.44778346375096595,0.0,0.0,0.0,0.0,0.017278759594743863
1666088230280088824,0.4285927438759245,0.0,0.0,0.0,0.0,0.022863813201125717
1666088230280100574,0.4328573482926004,0.0,0.0,0.0,0.0,0.029845130209103034
1666088230324416517,0.4349896505009383,0.0,0.0,0.0,0.0,0.03682644721708035
1666088230324447584,0.40940202400088316,0.0,0.0,0.0,0.0,0.04258603374866164
1666088230368115024,0.41153432620922104,0.0,0.0,0.0,0.0,0.04223696789826277
1666088230368134969,0.40513741958420724,0.0,0.0,0.0,0.0,0.05183627878423159
1666088230412111761,0.40300511737586936,0.0,0.0,0.0,0.0,0.07592182246175333
1666088230412124074,0.4072697217925452,0.0,0.0,0.0,0.0,0.10088003076527224
1666088230412128052,0.35822677100077277,0.0,0.0,0.0,0.0,0.12356931104119852
1666088230456194467,0.36249137541744864,0.0,0.0,0.0,0.0,0.13002702927357757
1666088230456228822,0.38168209529249003,0.0,0.0,0.0,0.0,0.15917402778188283
1666088230472140110,0.3838143975008279,0.0,0.0,0.0,0.0,0.17802358370342158
1666088230490395794,0.36675597983412445,0.0,0.0,0.0,0.0,0.18884462506578648
1666088230532212571,0.36888828204246243,0.0,0.0,0.0,0.0,0.18797196043978925
1666088230532244149,0.3752851886674762,0.0,0.0,0.0,0.0,0.20786871391252465
1666088230580352949,0.3326391445007175,0.0,0.0,0.0,0.0,0.244695161129605
1666088230580419946,0.3369037489173934,0.0,0.0,0.0,0.0,0.2740166925631097
1666088230625112719,0.3539621665840969,0.0,0.0,0.0,0.0,0.3310889591033243
1666088230625151903,0.3646236776257865,0.0,0.0,0.0,0.0,0.33667401270970615
1666088230672025136,0.34756525995908305,0.0,0.0,0.0,0.0,0.3204424506661589
1666088230672065033,0.35822677100077277,0.0,0.0,0.0,0.0,0.3467969223712733
1666088230712178868,0.36035907320911065,0.0,0.0,0.0,0.0,0.40264745843509187
1666088230712209459,0.37741749087581417,0.0,0.0,0.0,0.0,0.4070107815650777
1666088230712234019,0.36888828204246243,0.0,0.0,0.0,0.0,0.3928736146239236
1666088230758980908,0.3710205842508003,0.0,0.0,0.0,0.0,0.38763762686794057
1666088230759012771,0.38807900191750383,0.0,0.0,0.0,0.0,0.41922808632903796
1666088230770441234,0.37954979308415204,0.0,0.0,0.0,0.0,0.42830379843940847
1666088230790037206,0.3070515180006623,0.0,0.0,0.0,0.0,0.4387757739513744
1666088230836202442,0.2771992870839313,0.0,0.0,0.0,0.0,0.4482005519121438
1666088230836220377,0.32197763345902786,0.0,0.0,0.0,0.0,0.4639085151800928
1666088230880207272,0.32197763345902786,0.0,0.0,0.0,0.0,0.5040510879759623
1666088230880236487,0.2985223091673106,0.0,0.0,0.0,0.0,0.5448917924726296
1666088230924288653,0.28999310033395886,0.0,0.0,0.0,0.0,0.5391322059410484
1666088230924337212,0.3070515180006623,0.0,0.0,0.0,0.0,0.5551892350593962
1666088230968390672,0.32410993566736584,0.0,0.0,0.0,0.0,0.5710717312525446
1666088230968401327,0.30491921579232445,0.0,0.0,0.0,0.0,0.5335471523346665
1666088231012213468,0.28786079812562093,0.0,0.0,0.0,0.0,0.5164429256651221
1666088231012245345,0.2921254025422968,0.0,0.0,0.0,0.0,0.5201081170943103
1666088231012254517,0.3006546113756486,0.0,0.0,0.0,0.0,0.5040510879759623
1666088231056226169,0.28572849591728305,0.0,0.0,0.0,0.0,0.49026298688520714
1666088231056244051,0.2814638915006072,0.0,0.0,0.0,0.0,0.43703044469938007
1666088231070019859,0.27506698487559333,0.0,0.0,0.0,0.0,0.4392993727269727
1666088231090226386,0.2729346826672554,0.0,0.0,0.0,0.0,0.44628068973495005
1666088231136187801,0.2729346826672554,0.0,0.0,0.0,0.0,0.43528511544738585
1666088231136223117,0.2793315892922692,0.0,0.0,0.0,0.0,0.425685804561417
1666088231184113281,0.2963900069589727,0.0,0.0,0.0,0.0,0.42900193014020616
1666088231184126080,0.30491921579232445,0.0,0.0,0.0,0.0,0.43423791789618915
1666088231228491260,0.3070515180006623,0.0,0.0,0.0,0.0,0.4303981935418017
1666088231228540477,0.3113161224173382,0.0,0.0,0.0,0.0,0.41922808632903796
1666088231272540369,0.3134484246256761,0.0,0.0,0.0,0.0,0.4270820679630124
1666088231272566353,0.32197763345902786,0.0,0.0,0.0,0.0,0.4305727264670011
1666088231272574965,0.3155807268340141,0.0,0.0,0.0,0.0,0.42690753503781304
1666088231316265415,0.2409501495421864,0.0,0.0,0.0,0.0,0.4244640740850209
1666088231316346499,0.2622731716255658,0.0,0.0,0.0,0.0,0.4125958351714595
1666088231329722171,0.28572849591728305,0.0,0.0,0.0,0.0,0.40683624863987816
1666088231351687212,0.30278691358398646,0.0,0.0,0.0,0.0,0.4492477494633404
1666088231396283581,0.26867007825057954,0.0,0.0,0.0,0.0,0.42795473258900957
1666088231396315662,0.2622731716255658,0.0,0.0,0.0,0.0,0.39741147067910887
1666088231440409220,0.29425770475063473,0.0,0.0,0.0,0.0,0.4173082241518442
1666088231440449700,0.3006546113756486,0.0,0.0,0.0,0.0,0.4406956361285682
1666088231484111929,0.28786079812562093,0.0,0.0,0.0,0.0,0.4406956361285682
1666088231484131333,0.28359619370894507,0.0,0.0,0.0,0.0,0.445058959258554
1666088231532492284,0.28999310033395886,0.0,0.0,0.0,0.0,0.4529129408925285
1666088231532604672,0.28786079812562093,0.0,0.0,0.0,0.0,0.4347615166717875
1666088231532656649,0.2771992870839313,0.0,0.0,0.0,0.0,0.4476769531365455
1666088231576203706,0.2814638915006072,0.0,0.0,0.0,0.0,0.4660029102824859
1666088231576236647,0.28359619370894507,0.0,0.0,0.0,0.0,0.4647811798060899
1666088231589947882,0.2793315892922692,0.0,0.0,0.0,0.0,0.45169121041613247
1666088231610851951,0.28786079812562093,0.0,0.0,0.0,0.0,0.44244096538056255
1666088231652060467,0.28999310033395886,0.0,0.0,0.0,0.0,0.4504694799397364
1666088231652075746,0.30278691358398646,0.0,0.0,0.0,0.0,0.4522148091917308
1666088231696183018,0.30918382020900026,0.0,0.0,0.0,0.0,0.4054399852382828
1666088231696222678,0.3155807268340141,0.0,0.0,0.0,0.0,0.40177479380909464
1666088231740453087,0.30918382020900026,0.0,0.0,0.0,0.0,0.4080579791162742
1666088231740544312,0.30918382020900026,0.0,0.0,0.0,0.0,0.3907792195215304
1666088231784139012,0.32410993566736584,0.0,0.0,0.0,0.0,0.3794345793835672
1666088231784156657,0.3262422378757037,0.0,0.0,0.0,0.0,0.3829252378875559
1666088231828481451,0.3070515180006623,0.0,0.0,0.0,0.0,0.3869394951671429
1666088231828582580,0.1556580612086691,0.0,0.0,0.0,0.0,0.37105699897399447
1666088231872092599,0.17058417666703463,0.0,0.0,0.0,0.0,0.35988689176123073
1666088231872127502,0.10661511041689664,0.0,0.0,0.0,0.0,0.3684390050960029
1666088231872158767,0.0703659728751518,0.0,0.0,0.0,0.0,0.41399209857305497
1666088231916174867,0.08529208833351731,0.0,0.0,0.0,0.0,0.4249876728606192
1666088231916195967,0.09808590158354492,0.0,0.0,0.0,0.0,0.3747221904031825
1666088231932333748,0.10235050600022079,0.0,0.0,0.0,0.0,0.35046211380046133
1666088231950855759,0.10021820379188286,0.0,0.0,0.0,0.0,0.3665191429188092
1666088231992178761,0.09808590158354492,0.0,0.0,0.0,0.0,0.3077015471266003
1666088231992206776,0.11727662145858632,0.0,0.0,0.0,0.0,0.2740166925631097
1666088232036099203,0.12367352808360012,0.0,0.0,0.0,0.0,0.272096830385916
1666088232036116269,0.10661511041689664,0.0,0.0,0.0,0.0,0.2727949620867137
1666088232084287517,0.09808590158354492,0.0,0.0,0.0,0.0,0.2764601535159018
1666088232084316766,0.08742439054185526,0.0,0.0,0.0,0.0,0.3152064629101759
1666088232128339917,0.08742439054185526,0.0,0.0,0.0,0.0,0.3583160954344358
1666088232128371134,0.09168899495853111,0.0,0.0,0.0,0.0,0.4082325120414737
1666088232176456154,0.09382129716686904,0.0,0.0,0.0,0.0,0.477696616270848
1666088232176529820,0.09808590158354492,0.0,0.0,0.0,0.0,0.46006879082570523
1666088232176568806,0.08529208833351731,0.0,0.0,0.0,0.0,0.48397980157802756
1666088232220058356,0.09595359937520698,0.0,0.0,0.0,0.0,0.5033529562751646
1666088232220072828,0.10235050600022079,0.0,0.0,0.0,0.0,0.48589966375522137
1666088232232049222,0.11514431925024839,0.0,0.0,0.0,0.0,0.4970697709679851
1666088232250422327,0.11940892366692425,0.0,0.0,0.0,0.0,0.48589966375522137
1666088232292198551,0.1364673413336277,0.0,0.0,0.0,0.0,0.40683624863987816
1666088232292264211,0.15352575900033116,0.0,0.0,0.0,0.0,0.4201007509550351
1666088232336406567,0.15139345679199323,0.0,0.0,0.0,0.0,0.3972369377539094
1666088232336457321,0.159922665625345,0.0,0.0,0.0,0.0,0.3672172746196069
1666088232381462235,0.16631957225035876,0.0,0.0,0.0,0.0,0.3675663404700058
1666088232381544674,0.18977489654207602,0.0,0.0,0.0,0.0,0.3260275042725408
1666088232424511238,0.19830410537542775,0.0,0.0,0.0,0.0,0.2982767691658309
1666088232424568284,0.20256870979210362,0.0,0.0,0.0,0.0,0.29670597283903605
1666088232468216542,0.2004364075837657,0.0,0.0,0.0,0.0,0.2960078411382383
1666088232468241239,0.20896561641711744,0.0,0.0,0.0,0.0,0.285012266850674
1666088232512117907,0.21109791862545538,0.0,0.0,0.0,0.0,0.27087509990951997
1666088232512149900,0.21536252304213124,0.0,0.0,0.0,0.0,0.2663372438543347
1666088232512173982,0.20256870979210362,0.0,0.0,0.0,0.0,0.26267205242514663
1666088232556121948,0.21109791862545538,0.0,0.0,0.0,0.0,0.26529004630313807
1666088232556138615,0.21536252304213124,0.0,0.0,0.0,0.0,0.285012266850674
1666088232571578642,0.21749482525046915,0.0,0.0,0.0,0.0,0.2822197400474831
1666088232594698489,0.23028863850049677,0.0,0.0,0.0,0.0,0.3040363556974122
1666088232640191739,0.23028863850049677,0.0,0.0,0.0,0.0,0.30229102644541783
1666088232640255067,0.22602403408382088,0.0,0.0,0.0,0.0,0.30438542154781106
1666088232684287723,0.24521475395886227,0.0,0.0,0.0,0.0,0.32759830059933565
1666088232684312149,0.2409501495421864,0.0,0.0,0.0,0.0,0.3234095103945493
1666088232728112525,0.26440547383390367,0.0,0.0,0.0,0.0,0.30159289474462014
1666088232728134997,0.2601408694172278,0.0,0.0,0.0,0.0,0.3066543495754037
1666088232772381525,0.2622731716255658,0.0,0.0,0.0,0.0,0.2816961412718848
1666088232772429151,0.2771992870839313,0.0,0.0,0.0,0.0,0.27157323161031766
1666088232772473043,0.28359619370894507,0.0,0.0,0.0,0.0,0.2504547476611863
1666088232816072362,0.28999310033395886,0.0,0.0,0.0,0.0,0.2349213173184368
1666088232816088526,0.2793315892922692,0.0,0.0,0.0,0.0,0.2284635990860577
1666088232831488947,0.2793315892922692,0.0,0.0,0.0,0.0,0.22427480888127135
1666088232851091308,0.2963900069589727,0.0,0.0,0.0,0.0,0.21746802479849348
1666088232892461185,0.3070515180006623,0.0,0.0,0.0,0.0,0.20874137853852182
1666088232936522816,0.3155807268340141,0.0,0.0,0.0,0.0,0.19181168479417682
1666088232936554052,0.30491921579232445,0.0,0.0,0.0,0.0,0.18291050560900574
1666088232936562373,0.30491921579232445,0.0,0.0,0.0,0.0,0.17819811662862106
1666088232980107177,0.3262422378757037,0.0,0.0,0.0,0.0,0.17086773377024486
1666088232980123627,0.33050684229237964,0.0,0.0,0.0,0.0,0.1562069680534925
1666088232991765019,0.3390360511257314,0.0,0.0,0.0,0.0,0.158824961931484
1666088233011085569,0.3326391445007175,0.0,0.0,0.0,0.0,0.15777776438028737
1666088233052137423,0.34116835333406925,0.0,0.0,0.0,0.0,0.12479104151759457
1666088233052161406,0.3518298643757589,0.0,0.0,0.0,0.0,0.11065387457644049
1666088233096450409,0.3518298643757589,0.0,0.0,0.0,0.0,0.1218239817892042
1666088233096522175,0.36035907320911065,0.0,0.0,0.0,0.0,0.143116998663535
1666088233140107559,0.3560944687924348,0.0,0.0,0.0,0.0,0.14049900478554353
1666088233140150571,0.36249137541744864,0.0,0.0,0.0,0.0,0.13596114873035825
1666088233188502050,0.38168209529249003,0.0,0.0,0.0,0.0,0.13386675362796507
1666088233188555433,0.38594669970916584,0.0,0.0,0.0,0.0,0.13857914260834978
1666088233232131270,0.3966082107508555,0.0,0.0,0.0,0.0,0.12531464029319286
1666088233232158699,0.38807900191750383,0.0,0.0,0.0,0.0,0.11920598791121272
1666088233232175824,0.3902113041258417,0.0,0.0,0.0,0.0,0.10000736613927509
1666088233276243865,0.4072697217925452,0.0,0.0,0.0,0.0,0.08691739674931762
1666088233276262533,0.40513741958420724,0.0,0.0,0.0,0.0,0.07557275661135446
1666088233291680910,0.41366662841755897,0.0,0.0,0.0,0.0,0.06998770300497262
1666088233310949349,0.41153432620922104,0.0,0.0,0.0,0.0,0.06422811647339133
1666088233352866742,0.41579893062589696,0.0,0.0,0.0,0.0,0.05044001538263612
1666088233400102573,0.43712195270927623,0.0,0.0,0.0,0.0,0.05759586531581287
1666088233400130731,0.4285927438759245,0.0,0.0,0.0,0.0,0.06841690667817771
1666088233400147641,0.44138655712595215,0.0,0.0,0.0,0.0,0.06440264939859076
1666088233448107837,0.44778346375096595,0.0,0.0,0.0,0.0,0.0651007810993885
1666088233448126367,0.43712195270927623,0.0,0.0,0.0,0.0,0.05480333851262195
1666088233450874695,0.4563126725843177,0.0,0.0,0.0,0.0,0.03961897402027128
1666088233470981280,0.4563126725843177,0.0,0.0,0.0,0.0,0.029845130209103034
1666088233512535985,0.477635694667697,0.0,0.0,0.0,0.0,0.02722713633111154
1666088233556114284,0.4691064858343453,0.0,0.0,0.0,0.0,0.018500490071139894
1666088233556126811,0.4627095792093315,0.0,0.0,0.0,0.0,0.024434609527920613
1666088233556161487,0.47976799687603494,0.0,0.0,0.0,0.0,0.029321531433504733
1666088233608651563,0.4840326012927108,0.0,0.0,0.0,0.0,0.02076941809873252
1666088233608698426,0.5010910189594143,0.0,0.0,0.0,0.0,0.016755160819145562
1666088233612711816,0.49682641454273835,0.0,0.0,0.0,0.0,0.016057029118347832
1666088233631866684,0.49042950791772455,0.0,0.0,0.0,0.0,0.015009831567151233
1666088233676334607,0.5096202277927661,0.0,0.0,0.0,0.0,0.01361356816555577
1666088233676376179,0.5181494366261178,0.0,0.0,0.0,0.0,0.017976891295541593
1666088233724287090,0.5288109476678073,0.0,0.0,0.0,0.0,0.015358897417550098
1666088233724341197,0.5245463432511316,0.0,0.0,0.0,0.0,0.009773843811168246
1666088233772156557,0.5096202277927661,0.0,0.0,0.0,0.0,0.012217304763960306
1666088233772180210,0.5309432498761453,0.0,0.0,0.0,0.0,0.012566370614359173
1666088233772186304,0.5373401565011591,0.0,0.0,0.0,0.0,0.005934119456780722
1666088233816183574,0.5458693653345108,0.0,0.0,0.0,0.0,0.012391837689159739
1666088233816214565,0.5416047609178349,0.0,0.0,0.0,0.0,0.021118483949131385
1666088233832764988,0.5437370631261729,0.0,0.0,0.0,0.0,0.01832595714594046
1666088233852171179,0.5629277830012144,0.0,0.0,0.0,0.0,0.02775073510670984
1666088233892178823,0.5671923874178901,0.0,0.0,0.0,0.0,0.021118483949131385
1666088233892214685,0.5671923874178901,0.0,0.0,0.0,0.0,0.023561944901923447
1666088233936283224,0.5650600852095522,0.0,0.0,0.0,0.0,0.01815142422074103
1666088233936320900,0.5693246896262281,0.0,0.0,0.0,0.0,0.003316125578789226
1666088233980141060,0.5970446183346212,0.0,0.0,0.0,0.0,0.0
1666088233980168553,0.5906477117096074,0.0,0.0,0.0,0.0,-0.0005235987755982988
1666088234024239376,0.5842508050845936,0.0,0.0,0.0,0.0,-0.015358897417550098
1666088234024267054,0.5863831072929316,0.0,0.0,0.0,0.0,-0.01064650843716541
1666088234068228162,0.5821185028762557,0.0,0.0,0.0,0.0,0.00034906585039886593
1666088234068269447,0.603441524959635,0.0,0.0,0.0,0.0,-0.0017453292519943296
1666088234112144203,0.5949123161262834,0.0,0.0,0.0,0.0,-0.00942477796076938
1666088234112156068,0.5991769205429591,0.0,0.0,0.0,0.0,-0.010995574287564275
1666088234156207271,0.6013092227512972,0.0,0.0,0.0,0.0,-0.033510321638291124
1666088234156244265,0.5991769205429591,0.0,0.0,0.0,0.0,-0.0054105206811824215
1666088234156268219,0.5970446183346212,0.0,0.0,0.0,0.0,0.0013962634015954637
1666088234200132822,0.6055738271679729,0.0,0.0,0.0,0.0,0.00471238898038469
1666088234200149265,0.5885154095012695,0.0,0.0,0.0,0.0,0.0020943951023931952
1666088234211801842,0.5927800139179454,0.0,0.0,0.0,0.0,0.005759586531581288
1666088234231634345,0.5970446183346212,0.0,0.0,0.0,0.0,0.007679448708775049
1666088234272464115,0.607706129376311,0.0,0.0,0.0,0.0,-0.00715584993317675
1666088234272517693,0.5970446183346212,0.0,0.0,0.0,0.0,-0.011519173063162576
1666088234320485553,0.5949123161262834,0.0,0.0,0.0,0.0,-0.007679448708775049
1666088234320553697,0.5885154095012695,0.0,0.0,0.0,0.0,-0.0036651914291880917
1666088234364355689,0.5949123161262834,0.0,0.0,0.0,0.0,-0.006981317007977318
1666088234364418539,0.5501339697511867,0.0,0.0,0.0,0.0,-0.008203047484373348
1666088234412495351,0.5416047609178349,0.0,0.0,0.0,0.0,-0.0005235987755982988
1666088234412563699,0.5607954807928763,0.0,0.0,0.0,0.0,-0.016231562043547268
1666088234456248762,0.5906477117096074,0.0,0.0,0.0,0.0,0.0
1666088234456280288,0.5799862006679177,0.0,0.0,0.0,0.0,0.0012217304763960308
1666088234456289923,0.5394724587094971,0.0,0.0,0.0,0.0,0.00034906585039886593
1666088234500150744,0.5096202277927661,0.0,0.0,0.0,0.0,-0.0020943951023931952
1666088234500172606,0.5053556233760901,0.0,0.0,0.0,0.0,-0.017104226669544427
1666088234511325916,0.5245463432511316,0.0,0.0,0.0,0.0,-0.00645771823237902
1666088234532120983,0.5330755520844833,0.0,0.0,0.0,0.0,-0.0005235987755982988
1666088234572105399,0.5245463432511316,0.0,0.0,0.0,0.0,0.01117010721276371
1666088234620370574,0.5181494366261178,0.0,0.0,0.0,0.0,0.027052603405912107
1666088234620414465,0.4712387880426832,0.0,0.0,0.0,0.0,0.024783675378319478
1666088234620442297,0.4669741836260073,0.0,0.0,0.0,0.0,0.015533430342749534
1666088234664350754,0.4627095792093315,0.0,0.0,0.0,0.0,0.013788101090755204
1666088234664366996,0.4669741836260073,0.0,0.0,0.0,0.0,0.019547687622336492
1666088234672798580,0.4669741836260073,0.0,0.0,0.0,0.0,0.016057029118347832
1666088234693351319,0.4669741836260073,0.0,0.0,0.0,0.0,0.0027925268031909274
1666088234740089839,0.4733710902510211,0.0,0.0,0.0,0.0,0.009948376736367677
1666088234740110772,0.46484188141766936,0.0,0.0,0.0,0.0,0.014660765716752367
1666088234788230095,0.46484188141766936,0.0,0.0,0.0,0.0,0.006981317007977318
1666088234788254100,0.46484188141766936,0.0,0.0,0.0,0.0,-0.002967059728390361
1666088234832416562,0.445651161542628,0.0,0.0,0.0,0.0,-0.002617993877991494
1666088234832482505,0.44351885933429,0.0,0.0,0.0,0.0,0.004014257279586958
1666088234880101287,0.44351885933429,0.0,0.0,0.0,0.0,-0.0015707963267948967
1666088234880116089,0.45204806816764176,0.0,0.0,0.0,0.0,-0.0027925268031909274
1666088234880121536,0.46057727700099355,0.0,0.0,0.0,0.0,0.009599310885968814
1666088234928549900,0.44138655712595215,0.0,0.0,0.0,0.0,0.007330382858376183
1666088234928584904,0.4392542549176142,0.0,0.0,0.0,0.0,-0.004014257279586958
1666088234934807700,0.4499157659593038,0.0,0.0,0.0,0.0,-0.007330382858376183
