%time,field.linear.x,field.linear.y,field.linear.z,field.angular.x,field.angular.y,field.angular.z
1666088220100363049,0.0,0.0,0.0,0.0,0.0,-0.1
1666088220149760950,0.0,0.0,0.0,0.0,0.0,-0.2
1666088220199325264,0.0,0.0,0.0,0.0,0.0,-0.30000000000000004
1666088220249401433,0.0,0.0,0.0,0.0,0.0,-0.4
1666088220299492205,0.0,0.0,0.0,0.0,0.0,-0.5
1666088220349372588,0.0,0.0,0.0,0.0,0.0,-0.6
1666088220399352904,0.0,0.0,0.0,0.0,0.0,-0.7
1666088220449721396,0.0,0.0,0.0,0.0,0.0,-0.7999999999999999
1666088220499372709,0.0,0.0,0.0,0.0,0.0,-0.8999999999999999
1666088220549380097,0.0,0.0,0.0,0.0,0.0,-0.9999999999999999
1666088220599243007,0.0,0.0,0.0,0.0,0.0,-1.0999999999999999
1666088220649534501,0.0,0.0,0.0,0.0,0.0,-1.2
1666088220699403600,0.0,0.0,0.0,0.0,0.0,-1.2217304763960306
1666088220749274001,0.0,0.0,0.0,0.0,0.0,-1.2217304763960306
1666088220799535260,0.0,0.0,0.0,0.0,0.0,-1.3217304763960307
1666088220849252159,0.0,0.0,0.0,0.0,0.0,-1.2217304763960306
1666088220899297384,0.0,0.0,0.0,0.0,0.0,-1.2217304763960306
1666088220949367118,0.0,0.0,0.0,0.0,0.0,-1.2217304763960306
1666088220999328016,0.0,0.0,0.0,0.0,0.0,-1.2217304763960313
1666088221049175569,0.0,0.0,0.0,0.0,0.0,-1.2217304763960313
1666088221099233248,0.0,0.0,0.0,0.0,0.0,-1.2217304763960313
1666088221150102682,0.0,0.0,0.0,0.0,0.0,-1.2217304763960313
1666088221199198966,0.0,0.0,0.0,0.0,0.0,-1.2217304763960313
1666088221249253812,0.0,0.0,0.0,0.0,0.0,-1.2217304763960313
1666088221299548991,0.0,0.0,0.0,0.0,0.0,-1.1539941650721868
1666088221349997419,0.0,0.0,0.0,0.0,0.0,-1.092177960765277
1666088221399474946,0.0,0.0,0.0,0.0,0.0,-1.092177960765277
1666088221449610826,0.0,0.0,0.0,0.0,0.0,-1.0471975511965983
1666088221499322097,0.0,0.0,0.0,0.0,0.0,-0.9476722732013119
1666088221550613510,0.0,0.0,0.0,0.0,0.0,-0.8726646259971653
1666088221599772399,0.0,0.0,0.0,0.0,0.0,-0.7960863392553453
1666088221650007599,0.0,0.0,0.0,0.0,0.0,-0.7960863392553453
1666088221699219008,0.0,0.0,0.0,0.0,0.0,-0.7960863392553453
1666088221749470601,0.0,0.0,0.0,0.0,0.0,-0.6210130711610369
1666088221799219746,0.0,0.0,0.0,0.0,0.0,-0.6210130711610369
1666088221850452207,0.0,0.0,0.0,0.0,0.0,-0.5262865522907317
1666088221899461961,0.0,0.0,0.0,0.0,0.0,-0.5262865522907317
1666088221949578265,0.0,0.0,0.0,0.0,0.0,-0.43700820322090644
1666088221999620108,0.0,0.0,0.0,0.0,0.0,-0.43700820322090644
1666088222049649010,0.0,0.0,0.0,0.0,0.0,-0.3490658503988664
1666088222099295548,0.0,0.0,0.0,0.0,0.0,-0.2675646222080379
1666088222149465659,0.0,0.0,0.0,0.0,0.0,-0.2675646222080379
1666088222199817811,0.0,0.0,0.0,0.0,0.0,-0.2675646222080379
1666088222250179598,0.0,0.0,0.0,0.0,0.0,-4.996003610813204e-16
1666088222299441664,0.0,0.0,0.0,0.0,0.0,-4.996003610813204e-16
1666088222349374632,0.0,0.0,0.0,0.0,0.0,-4.996003610813204e-16
1666088222399406030,0.0,0.0,0.0,0.0,0.0,-4.996003610813204e-16
1666088222449229912,0.0,0.0,0.0,0.0,0.0,-4.996003610813204e-16
1666088222499256565,0.0,0.0,0.0,0.0,0.0,-4.996003610813204e-16
1666088222550098583,0.0,0.0,0.0,0.0,0.0,-4.996003610813204e-16
1666088222599292895,0.0,0.0,0.0,0.0,0.0,-4.996003610813204e-16
1666088222649368000,0.0,0.0,0.0,0.0,0.0,-4.996003610813204e-16
1666088222699223103,0.0,0.0,0.0,0.0,0.0,-4.996003610813204e-16
1666088222750473447,0.0,0.0,0.0,0.0,0.0,-4.996003610813204e-16
1666088222799331988,0.0,0.0,0.0,0.0,0.0,-4.996003610813204e-16
1666088222849972404,0.0,0.0,0.0,0.0,0.0,-4.996003610813204e-16
1666088222900872667,0.0,0.0,0.0,0.0,0.0,-4.996003610813204e-16
1666088222949208224,0.0,0.0,0.0,0.0,0.0,-4.996003610813204e-16
1666088222999329909,0.0,0.0,0.0,0.0,0.0,-4.996003610813204e-16
1666088223049398373,0.0,0.0,0.0,0.0,0.0,-4.996003610813204e-16
1666088223099259307,0.0,0.0,0.0,0.0,0.0,-4.996003610813204e-16
1666088223149862478,0.0,0.0,0.0,0.0,0.0,-4.996003610813204e-16
1666088223199324175,0.0,0.0,0.0,0.0,0.0,-4.996003610813204e-16
1666088223249222585,0.0,0.0,0.0,0.0,0.0,-4.996003610813204e-16
1666088223299265982,0.0,0.0,0.0,0.0,0.0,-4.996003610813204e-16
1666088223349596858,0.0,0.0,0.0,0.0,0.0,-4.996003610813204e-16
1666088223399190327,0.0,0.0,0.0,0.0,0.0,-4.996003610813204e-16
1666088223450207884,0.0,0.0,0.0,0.0,0.0,-4.996003610813204e-16
1666088223499483828,0.0,0.0,0.0,0.0,0.0,-4.996003610813204e-16
1666088223549398926,0.0,0.0,0.0,0.0,0.0,-4.996003610813204e-16
1666088223599271144,0.0,0.0,0.0,0.0,0.0,-4.996003610813204e-16
1666088223651791183,0.0,0.0,0.0,0.0,0.0,-4.996003610813204e-16
1666088223699931879,0.0,0.0,0.0,0.0,0.0,-4.996003610813204e-16
1666088223749232722,0.0,0.0,0.0,0.0,0.0,-4.996003610813204e-16
1666088223799320814,0.0,0.0,0.0,0.0,0.0,-4.996003610813204e-16
1666088223849557673,0.0,0.0,0.0,0.0,0.0,-0.1000000000000005
1666088223899423492,0.0,0.0,0.0,0.0,0.0,-0.17453292519943345
1666088223949381826,0.0,0.0,0.0,0.0,0.0,-0.17453292519943345
1666088223999267169,0.0,0.0,0.0,0.0,0.0,-0.17453292519943345
1666088224049595879,0.0,0.0,0.0,0.0,0.0,-0.17453292519943345
1666088224099298370,0.0,0.0,0.0,0.0,0.0,-0.17453292519943345
1666088224149323983,0.015,0.0,0.0,0.0,0.0,-0.16673655951329175
1666088224199151225,0.03,0.0,0.0,0.0,0.0,-0.15894019382715005
1666088224249200786,0.045,0.0,0.0,0.0,0.0,-0.15114382814100835
1666088224300039355,0.06,0.0,0.0,0.0,0.0,-0.14928998696715987
1666088224349957131,0.075,0.0,0.0,0.0,0.0,-0.14173380006972386
1666088224399362695,0.09,0.0,0.0,0.0,0.0,-0.13417761317228785
1666088224452526008,0.105,0.0,0.0,0.0,0.0,-0.12662142627485184
1666088224500080545,0.12,0.0,0.0,0.0,0.0,-0.12586159353662793
1666088224549301944,0.135,0.0,0.0,0.0,0.0,-0.1253298968916927
1666088224599230163,0.15000000000000002,0.0,0.0,0.0,0.0,-0.12479820024675743
1666088224649388255,0.16500000000000004,0.0,0.0,0.0,0.0,-0.12454093160721776
1666088224699466110,0.18000000000000005,0.0,0.0,0.0,0.0,-0.12426910596260715
1666088224749495200,0.19500000000000006,0.0,0.0,0.0,0.0,-0.12399728031799655
1666088224799638364,0.21000000000000008,0.0,0.0,0.0,0.0,-0.11796061828843878
1666088224849433368,0.2250000000000001,0.0,0.0,0.0,0.0,-0.11852609766736219
1666088224900184103,0.2400000000000001,0.0,0.0,0.0,0.0,-0.11365748759100579
1666088224949335239,0.2550000000000001,0.0,0.0,0.0,0.0,-0.10878887751464938
1666088224999339367,0.27000000000000013,0.0,0.0,0.0,0.0,-0.11039943185914493
1666088225049449999,0.28500000000000014,0.0,0.0,0.0,0.0,-0.11222142152377593
1666088225099299186,0.30000000000000016,0.0,0.0,0.0,0.0,-0.11404341118840693
1666088225149226934,0.31500000000000017,0.0,0.0,0.0,0.0,-0.11055797189171292
1666088225199513383,0.3300000000000002,0.0,0.0,0.0,0.0,-0.10707253259501891
1666088225251621375,0.3450000000000002,0.0,0.0,0.0,0.0,-0.1035870932983249
1666088225299141944,0.3600000000000002,0.0,0.0,0.0,0.0,-0.10090631030736642
1666088225349778064,0.3750000000000002,0.0,0.0,0.0,0.0,-0.09822552731640795
1666088225400182700,0.39000000000000024,0.0,0.0,0.0,0.0,-0.09605933526773701
1666088225450318583,0.40500000000000025,0.0,0.0,0.0,0.0,-0.10193045259438688
1666088225499908447,0.42000000000000026,0.0,0.0,0.0,0.0,-0.10780156992103676
1666088225550604178,0.4350000000000003,0.0,0.0,0.0,0.0,-0.10567390312354245
1666088225599247536,0.4500000000000003,0.0,0.0,0.0,0.0,-0.13607435371625543
1666088225649345091,0.4650000000000003,0.0,0.0,0.0,0.0,-0.15527943989239087
1666088225699699963,0.4800000000000003,0.0,0.0,0.0,0.0,-0.17454787081139442
1666088225749197856,0.49500000000000033,0.0,0.0,0.0,0.0,-0.19381630173039796
1666088225799271585,0.5100000000000003,0.0,0.0,0.0,0.0,-0.1663037807016477
1666088225849449261,0.5250000000000004,0.0,0.0,0.0,0.0,-0.1387912596728974
1666088225899613731,0.5400000000000004,0.0,0.0,0.0,0.0,-0.15353060318923206
1666088225949202888,0.5550000000000004,0.0,0.0,0.0,0.0,-0.17096921142072652
1666088225999107043,0.5700000000000004,0.0,0.0,0.0,0.0,-0.18840781965222098
1666088226049242679,0.5826795101165771,0.0,0.0,0.0,0.0,-0.22342047095298767
1666088226099262176,0.5826795101165771,0.0,0.0,0.0,0.0,-0.22342047095298767
1666088226149326815,0.5751768350601196,0.0,0.0,0.0,0.0,-0.22507794201374054
1666088226199187215,0.5742528438568115,0.0,0.0,0.0,0.0,-0.22503603994846344
1666088226249159233,0.5742528438568115,0.0,0.0,0.0,0.0,-0.22503603994846344
1666088226301850080,0.5606233477592468,0.0,0.0,0.0,0.0,-0.22883664071559906
1666088226349152631,0.5606233477592468,0.0,0.0,0.0,0.0,-0.22883664071559906
1666088226399237392,0.5606233477592468,0.0,0.0,0.0,0.0,-0.22883664071559906
1666088226449382511,0.5596778988838196,0.0,0.0,0.0,0.0,-0.24071957170963287
1666088226499247944,0.5593531131744385,0.0,0.0,0.0,0.0,-0.24672725796699524
1666088226549148477,0.5593531131744385,0.0,0.0,0.0,0.0,-0.24672725796699524
1666088226599127181,0.46455541253089905,0.0,0.0,0.0,0.0,-0.1693020612001419
1666088226649536862,0.47955541253089906,0.0,0.0,0.0,0.0,-0.18367756496950366
1666088226699270456,0.4945554125308991,0.0,0.0,0.0,0.0,-0.1995046237900159
1666088226749699751,0.5095554125308991,0.0,0.0,0.0,0.0,-0.21469143403502805
1666088226799368271,0.5245554125308991,0.0,0.0,0.0,0.0,-0.22987824428004022
1666088226849212109,0.5395554125308991,0.0,0.0,0.0,0.0,-0.2450650545250524
1666088226899227838,0.5403963923454284,0.0,0.0,0.0,0.0,-0.27120158076286316
1666088226949345587,0.5297678709030151,0.0,0.0,0.0,0.0,-0.27350062131881714
1666088226999135308,0.5297678709030151,0.0,0.0,0.0,0.0,-0.27350062131881714
1666088227049257344,0.521160364151001,0.0,0.0,0.0,0.0,-0.2759508788585663
1666088227099579666,0.521160364151001,0.0,0.0,0.0,0.0,-0.2759508788585663
1666088227149175834,0.5091320276260376,0.0,0.0,0.0,0.0,-0.2774554491043091
1666088227199239872,0.5091320276260376,0.0,0.0,0.0,0.0,-0.2774554491043091
1666088227249472391,0.4928041994571686,0.0,0.0,0.0,0.0,-0.3490658503988664
1666088227299383316,0.4930656761740696,0.0,0.0,0.0,0.0,-0.4490658503988664
1666088227349252362,0.49332715289097057,0.0,0.0,0.0,0.0,-0.5490658503988664
1666088227399397699,0.4943132328539374,0.0,0.0,0.0,0.0,-0.6490658503988663
1666088227449295412,0.49529931281690426,0.0,0.0,0.0,0.0,-0.7490658503988663
1666088227499375234,0.496504022603435,0.0,0.0,0.0,0.0,-0.8490658503988663
1666088227549278393,0.4977087323899657,0.0,0.0,0.0,0.0,-0.9490658503988663
1666088227599353754,0.49891344217649647,0.0,0.0,0.0,0.0,-1.0490658503988664
1666088227649147185,0.49906669289042976,0.0,0.0,0.0,0.0,-1.1490658503988664
1666088227699362140,0.49822869896888733,0.0,0.0,0.0,0.0,-1.2217304763960313
1666088227749226677,0.49822869896888733,0.0,0.0,0.0,0.0,-1.2217304763960313
1666088227799311021,0.4969536662101745,0.0,0.0,0.0,0.0,-1.2217304763960313
1666088227849275958,0.4969536662101745,0.0,0.0,0.0,0.0,-1.2217304763960313
1666088227904452797,0.38226115703582764,0.0,0.0,0.0,0.0,-1.2217304763960313
1666088227949135491,0.38226115703582764,0.0,0.0,0.0,0.0,-1.2217304763960313
1666088228000019258,0.39726115703582765,0.0,0.0,0.0,0.0,-1.2217304763960313
1666088228049168856,0.41226115703582766,0.0,0.0,0.0,0.0,-1.2217304763960313
1666088228099224822,0.4272611570358277,0.0,0.0,0.0,0.0,-1.2217304763960313
1666088228149283707,0.4422611570358277,0.0,0.0,0.0,0.0,-1.2217304763960313
1666088228199372935,0.4572611570358277,0.0,0.0,0.0,0.0,-1.2217304763960313
1666088228250315559,0.4722611570358277,0.0,0.0,0.0,0.0,-1.2012701501826324
1666088228299503140,0.48726115703582773,0.0,0.0,0.0,0.0,-1.180627983019913
1666088228349188141,0.5022611570358277,0.0,0.0,0.0,0.0,-1.1599858158571934
1666088228399781359,0.5172611570358278,0.0,0.0,0.0,0.0,-1.1419638480156178
1666088228449377295,0.5322611570358278,0.0,0.0,0.0,0.0,-1.1239418801740422
1666088228500029918,0.5472611570358278,0.0,0.0,0.0,0.0,-1.1085067596279583
1666088228549800025,0.5622611570358278,0.0,0.0,0.0,0.0,-1.0930716390818747
1666088228599785621,0.5772611570358278,0.0,0.0,0.0,0.0,-1.0390830967498759
1666088228649560966,0.5922611570358278,0.0,0.0,0.0,0.0,-0.9580367906818179
1666088228699481886,0.6072611570358278,0.0,0.0,0.0,0.0,-0.87699048461376
1666088228749285787,0.6222611570358278,0.0,0.0,0.0,0.0,-0.7375018947531994
1666088228799326460,0.6372611570358279,0.0,0.0,0.0,0.0,-0.5396459584176296
1666088228849208294,0.6517095565795898,0.0,0.0,0.0,0.0,-0.3490658503988664
1666088228899881151,0.6594763398170471,0.0,0.0,0.0,0.0,-0.3490658503988664
1666088228949200499,0.6594763398170471,0.0,0.0,0.0,0.0,-0.3490658503988664
1666088228999196953,0.6643728017807007,0.0,0.0,0.0,0.0,-0.08058560639619827
1666088229049250209,0.670529305934906,0.0,0.0,0.0,0.0,-0.043107762932777405
1666088229099228412,0.6615667343139648,0.0,0.0,0.0,0.0,0.0017799634952098131
1666088229149207351,0.6615667343139648,0.0,0.0,0.0,0.0,0.0017799634952098131
1666088229199363078,0.6615667343139648,0.0,0.0,0.0,0.0,0.0017799634952098131
1666088229250129063,0.6473860144615173,0.0,0.0,0.0,0.0,0.03692356124520302
1666088229299516168,0.6473860144615173,0.0,0.0,0.0,0.0,0.03692356124520302
1666088229349250996,0.6623860144615173,0.0,0.0,0.0,0.0,0.07713688437255092
1666088229399288732,0.6773860144615174,0.0,0.0,0.0,0.0,0.11735020749989884
1666088229449575462,0.6841327548027039,0.0,0.0,0.0,0.0,0.18976053595542908
1666088229499202975,0.6841327548027039,0.0,0.0,0.0,0.0,0.18976053595542908
1666088229550344752,0.6385582739320773,0.0,0.0,0.0,0.0,0.28976053595542905
1666088229599279326,0.611923336982727,0.0,0.0,0.0,0.0,0.17453292519943245
1666088229649755896,0.5933551788330078,0.0,0.0,0.0,0.0,0.1365421712398529
1666088229699804288,0.5933551788330078,0.0,0.0,0.0,0.0,0.1365421712398529
1666088229749353071,0.5579003095626831,0.0,0.0,0.0,0.0,0.17453292519943245
1666088229799478299,0.5581135153770447,0.0,0.0,0.0,0.0,0.17453292519943245
1666088229849392173,0.5500536872507545,0.0,0.0,0.0,0.0,0.27453292519943245
1666088229899505647,0.5368682742118835,0.0,0.0,0.0,0.0,0.3490658503988654
1666088229949327667,0.5181185170156064,0.0,0.0,0.0,0.0,0.4490658503988654
1666088229999146529,0.5041437745094299,0.0,0.0,0.0,0.0,0.5235987755982984
1666088230049446261,0.4882847666740417,0.0,0.0,0.0,0.0,0.5235987755982984
1666088230099519682,0.4882847666740417,0.0,0.0,0.0,0.0,0.5235987755982984
1666088230149221883,0.47682188217115734,0.0,0.0,0.0,0.0,0.6235987755982983
1666088230199471046,0.45705951028442426,0.0,0.0,0.0,0.0,0.7235987755982983
1666088230249406987,0.43729713839769124,0.0,0.0,0.0,0.0,0.8235987755982983
1666088230299301884,0.42760056257247925,0.0,0.0,0.0,0.0,0.8726646259971643
1666088230349267510,0.3860616385936737,0.0,0.0,0.0,0.0,0.8726646259971643
1666088230399377408,0.3860616385936737,0.0,0.0,0.0,0.0,0.8726646259971643
1666088230449526223,0.4010616385936737,0.0,0.0,0.0,0.0,0.901667203371659
1666088230499287391,0.3540121018886566,0.0,0.0,0.0,0.0,0.8726646259971643
1666088230549360764,0.36901210188865663,0.0,0.0,0.0,0.0,0.8980521195828974
1666088230599405088,0.38401210188865664,0.0,0.0,0.0,0.0,0.9234396131686305
1666088230649313791,0.39901210188865666,0.0,0.0,0.0,0.0,0.9511046260036012
1666088230699367497,0.41401210188865667,0.0,0.0,0.0,0.0,0.978769638838572
1666088230750179086,0.31742337346076965,0.0,0.0,0.0,0.0,1.0471975511965972
1666088230799291006,0.2941603362560272,0.0,0.0,0.0,0.0,1.0471975511965972
1666088230849155958,0.30001509189605713,0.0,0.0,0.0,0.0,0.8726646259971643
1666088230899231361,0.29951757192611694,0.0,0.0,0.0,0.0,0.8726646259971643
1666088230949232425,0.29951757192611694,0.0,0.0,0.0,0.0,0.8726646259971643
1666088230999371526,0.29951757192611694,0.0,0.0,0.0,0.0,0.8726646259971643
1666088231049585637,0.28756773471832275,0.0,0.0,0.0,0.0,0.8726646259971643
1666088231099565033,0.30256773471832277,0.0,0.0,0.0,0.0,0.8726646259971643
1666088231149244734,0.3175677347183228,0.0,0.0,0.0,0.0,0.8726646259971643
1666088231199222871,0.3325677347183228,0.0,0.0,0.0,0.0,0.8726646259971643
1666088231249204388,0.26844337582588196,0.0,0.0,0.0,0.0,0.8726646259971643
1666088231299364796,0.2788364589214325,0.0,0.0,0.0,0.0,0.8726646259971643
1666088231350887395,0.2938364589214325,0.0,0.0,0.0,0.0,0.8726646259971643
1666088231399521164,0.2940358519554138,0.0,0.0,0.0,0.0,0.8726646259971643
1666088231449461674,0.292511910200119,0.0,0.0,0.0,0.0,0.8726646259971643
1666088231499302634,0.292511910200119,0.0,0.0,0.0,0.0,0.8726646259971643
1666088231550546665,0.2961401343345642,0.0,0.0,0.0,0.0,0.6981317007977313
1666088231599465101,0.3111401343345642,0.0,0.0,0.0,0.0,0.6981317007977313
1666088231649132166,0.32614013433456424,0.0,0.0,0.0,0.0,0.6981317007977313
1666088231700030921,0.34114013433456425,0.0,0.0,0.0,0.0,0.6573527055771267
1666088231749622149,0.19114013433456423,0.0,0.0,0.0,0.0,0.6373850260719871
1666088231799689553,0.041140134334564205,0.0,0.0,0.0,0.0,0.6174173465668474
1666088231849280896,0.056140134334564204,0.0,0.0,0.0,0.0,0.612549862442491
1666088231899239005,0.0711401343345642,0.0,0.0,0.0,0.0,0.5900051923283344
1666088231949250774,0.0861401343345642,0.0,0.0,0.0,0.0,0.5674605222141778
1666088231999300907,0.1011401343345642,0.0,0.0,0.0,0.0,0.5382370783999219
1666088232049249245,0.1161401343345642,0.0,0.0,0.0,0.0,0.509013634585666
1666088232099173226,0.1311401343345642,0.0,0.0,0.0,0.0,0.4810794809054302
1666088232149131182,0.1461401343345642,0.0,0.0,0.0,0.0,0.45582150122385967
1666088232199702725,0.1611401343345642,0.0,0.0,0.0,0.0,0.4306436660591797
1666088232249272898,0.1761401343345642,0.0,0.0,0.0,0.0,0.4054658308944997
1666088232299293013,0.19114013433456423,0.0,0.0,0.0,0.0,0.38028799572981975
1666088232349462963,0.20614013433456424,0.0,0.0,0.0,0.0,0.35694664292818135
1666088232399495733,0.22114013433456425,0.0,0.0,0.0,0.0,0.33788588341223774
1666088232449284616,0.23614013433456427,0.0,0.0,0.0,0.0,0.31882512389629414
1666088232499541302,0.2511401343345643,0.0,0.0,0.0,0.0,0.3014474485471875
1666088232549727496,0.2661401343345643,0.0,0.0,0.0,0.0,0.2840233583943908
1666088232599196830,0.2811401343345643,0.0,0.0,0.0,0.0,0.27411348344942277
1666088232649284294,0.2961401343345643,0.0,0.0,0.0,0.0,0.26456087642122894
1666088232699227883,0.31114013433456433,0.0,0.0,0.0,0.0,0.25532937430372454
1666088232749217604,0.32614013433456435,0.0,0.0,0.0,0.0,0.24609787218622012
1666088232799915323,0.34114013433456436,0.0,0.0,0.0,0.0,0.23388958586809977
1666088232849370662,0.3561401343345644,0.0,0.0,0.0,0.0,0.22033049011697667
1666088232899267619,0.3711401343345644,0.0,0.0,0.0,0.0,0.207459441665988
1666088232949200128,0.3861401343345644,0.0,0.0,0.0,0.0,0.19782607294477011
1666088232999310454,0.4011401343345644,0.0,0.0,0.0,0.0,0.18661208781890026
1666088233049346914,0.4161401343345644,0.0,0.0,0.0,0.0,0.1753981026930304
1666088233099483283,0.43114013433456444,0.0,0.0,0.0,0.0,0.16418411756716056
1666088233149283820,0.44614013433456445,0.0,0.0,0.0,0.0,0.14750772686090471
1666088233202189807,0.46114013433456447,0.0,0.0,0.0,0.0,0.13083133615464887
1666088233249235613,0.4761401343345645,0.0,0.0,0.0,0.0,0.11598865028450875
1666088233299396075,0.4911401343345645,0.0,0.0,0.0,0.0,0.10114596441436863
1666088233349400257,0.5061401343345645,0.0,0.0,0.0,0.0,0.08668493094765597
1666088233399386710,0.5211401343345645,0.0,0.0,0.0,0.0,0.07222389748094332
1666088233449230479,0.5361401343345645,0.0,0.0,0.0,0.0,0.05776286401423067
1666088233499705028,0.5511401343345645,0.0,0.0,0.0,0.0,0.04043245409630786
1666088233549275949,0.5661401343345646,0.0,0.0,0.0,0.0,0.02310204417838505
1666088233602536371,0.5811401343345646,0.0,0.0,0.0,0.0,-0.011249003738637745
1666088233649895551,0.5961401343345646,0.0,0.0,0.0,0.0,-0.04853601104854127
1666088233699569140,0.6111401343345646,0.0,0.0,0.0,0.0,-0.0858230183584448
1666088233749668628,0.6261401343345646,0.0,0.0,0.0,0.0,-0.13394413153804535
1666088233799476705,0.6411401343345646,0.0,0.0,0.0,0.0,-0.1820652447176459
1666088233849550770,0.6561401343345646,0.0,0.0,0.0,0.0,-0.23317576205074003
1666088233899400355,0.6711401343345647,0.0,0.0,0.0,0.0,-0.3238661670803204
1666088233949316495,0.6753081083297728,0.0,0.0,0.0,0.0,-0.3490658503988664
1666088233999464500,0.6826751828193663,0.0,0.0,0.0,0.0,-0.3490658503988664
1666088234049181020,0.6826751828193663,0.0,0.0,0.0,0.0,-0.3490658503988664
1666088234099796641,0.6826751828193663,0.0,0.0,0.0,0.0,-0.3490658503988664
1666088234150382326,0.6730800271034241,0.0,0.0,0.0,0.0,-0.3490658503988664
1666088234199465635,0.6730800271034241,0.0,0.0,0.0,0.0,-0.3490658503988664
1666088234249305520,0.6730800271034241,0.0,0.0,0.0,0.0,-0.3490658503988664
1666088234299820413,0.6266395449638367,0.0,0.0,0.0,0.0,-0.3490658503988664
1666088234349307140,0.6266395449638367,0.0,0.0,0.0,0.0,-0.3490658503988664
1666088234399463767,0.5874532461166382,0.0,0.0,0.0,0.0,-0.3490658503988664
1666088234449236773,0.566513180732727,0.0,0.0,0.0,0.0,-0.14787118136882782
1666088234499504182,0.566513180732727,0.0,0.0,0.0,0.0,-0.14787118136882782
1666088234549476129,0.49113771319389343,0.0,0.0,0.0,0.0,-0.04645771160721779
1666088234599311109,0.49113771319389343,0.0,0.0,0.0,0.0,-0.04645771160721779
1666088234649382578,0.5061377131938934,0.0,0.0,0.0,0.0,-0.09068159494161433
1666088234699486908,0.5096652507781982,0.0,0.0,0.0,0.0,-0.15313030779361725
1666088234750303953,0.49591350555419916,0.0,0.0,0.0,0.0,-0.15505148470401764
1666088234799552248,0.49591350555419916,0.0,0.0,0.0,0.0,-0.15505148470401764
1666088234849280002,0.49591350555419916,0.0,0.0,0.0,0.0,-0.15505148470401764
1666088234899508304,0.49591350555419916,0.0,0.0,0.0,0.0,-0.15505148470401764
1666088234949549138,0.47102758288383484,0.0,0.0,0.0,0.0,-0.1595524102449417
1666088234999336833,0.46156367659568787,0.0,0.0,0.0,0.0,-0.1644362360239029
1666088235049290830,0.46206122636795044,0.0,0.0,0.0,0.0,-0.16411159932613373
1666088235100114822,0.46206122636795044,0.0,0.0,0.0,0.0,-0.16411159932613373
1666088235149391462,0.34783414006233215,0.0,0.0,0.0,0.0,-0.0617491640150547
1666088235199474908,0.34783414006233215,0.0,0.0,0.0,0.0,-0.0617491640150547
1666088235249308506,0.34783414006233215,0.0,0.0,0.0,0.0,-0.0617491640150547
1666088235299393291,0.36283414006233217,0.0,0.0,0.0,0.0,-0.11387835479415408
1666088235349265824,0.373482496154092,0.0,0.0,0.0,0.0,-0.21387835479415407
1666088235399420783,0.38061194551871197,0.0,0.0,0.0,0.0,-0.31387835479415405
1666088235449921708,0.3876014837288375,0.0,0.0,0.0,0.0,-0.413878354794154
1666088235499259460,0.39459102193896306,0.0,0.0,0.0,0.0,-0.513878354794154
1666088235549911277,0.4023495775364384,0.0,0.0,0.0,0.0,-0.613878354794154
1666088235599659032,0.4083871995512996,0.0,0.0,0.0,0.0,-0.713878354794154
1666088235649490539,0.4144248215661608,0.0,0.0,0.0,0.0,-0.8138783547941539
1666088235699332881,0.3052288889884949,0.0,0.0,0.0,0.0,-0.8726646259971653
1666088235749242917,0.3052288889884949,0.0,0.0,0.0,0.0,-0.8726646259971653
1666088235799210575,0.3052288889884949,0.0,0.0,0.0,0.0,-0.8726646259971653
1666088235849709697,0.30092091792423853,0.0,0.0,0.0,0.0,-0.9726646259971653
1666088235899158258,0.29771006107330317,0.0,0.0,0.0,0.0,-1.0471975511965983
1666088235949310552,0.3127100610733032,0.0,0.0,0.0,0.0,-1.0471975511965983
1666088236000017454,0.3277100610733032,0.0,0.0,0.0,0.0,-1.0471975511965983
1666088236049184198,0.3427100610733032,0.0,0.0,0.0,0.0,-1.0471975511965983
1666088236099306825,0.3577100610733032,0.0,0.0,0.0,0.0,-1.0471975511965983
1666088236149323071,0.37271006107330323,0.0,0.0,0.0,0.0,-1.0471975511965983
1666088236199504555,0.38771006107330325,0.0,0.0,0.0,0.0,-1.0471975511965983
1666088236249321594,0.40271006107330326,0.0,0.0,0.0,0.0,-1.0471975511965983
1666088236299795341,0.4177100610733033,0.0,0.0,0.0,0.0,-1.0471975511965983
1666088236349220295,0.4327100610733033,0.0,0.0,0.0,0.0,-1.0471975511965983
1666088236399290597,0.43548050522804255,0.0,0.0,0.0,0.0,-1.0471975511965983
1666088236449364946,0.4451735913753509,0.0,0.0,0.0,0.0,-1.0471975511965983
1666088236499478203,0.4451735913753509,0.0,0.0,0.0,0.0,-1.0471975511965983
1666088236549815233,0.3476462960243225,0.0,0.0,0.0,0.0,-0.8726646259971653
1666088236599224158,0.3476462960243225,0.0,0.0,0.0,0.0,-0.8726646259971653
1666088236649284856,0.3626462960243225,0.0,0.0,0.0,0.0,-0.8726646259971653
1666088236699976347,0.37764629602432254,0.0,0.0,0.0,0.0,-0.8726646259971653
1666088236750196027,0.39264629602432255,0.0,0.0,0.0,0.0,-0.8726646259971653
1666088236799898790,0.40764629602432256,0.0,0.0,0.0,0.0,-0.8726646259971653
1666088236849543103,0.4226462960243226,0.0,0.0,0.0,0.0,-0.8726646259971653
1666088236899315672,0.4376462960243226,0.0,0.0,0.0,0.0,-0.8726646259971653
1666088236949405648,0.4526462960243226,0.0,0.0,0.0,0.0,-0.8726646259971653
1666088236999745906,0.4676462960243226,0.0,0.0,0.0,0.0,-0.8356583196858095
1666088237049389715,0.48264629602432263,0.0,0.0,0.0,0.0,-0.7986520133744537
1666088237099244372,0.49764629602432264,0.0,0.0,0.0,0.0,-0.7633243872754178
1666088237149556741,0.5126462960243227,0.0,0.0,0.0,0.0,-0.726969935935967
1666088237199936034,0.44649478793144226,0.0,0.0,0.0,0.0,-0.6981317007977323
1666088237249279831,0.44649478793144226,0.0,0.0,0.0,0.0,-0.6981317007977323
1666088237299422195,0.4614947879314423,0.0,0.0,0.0,0.0,-0.6981317007977323
1666088237349346382,0.4764947879314423,0.0,0.0,0.0,0.0,-0.6981317007977323
1666088237399368401,0.46577686071395874,0.0,0.0,0.0,0.0,-0.6981317007977323
1666088237449570472,0.46670088171958923,0.0,0.0,0.0,0.0,-0.6981317007977323
1666088237499469222,0.48170088171958925,0.0,0.0,0.0,0.0,-0.6981317007977323
1666088237549339110,0.49670088171958926,0.0,0.0,0.0,0.0,-0.6530364519900088
1666088237599328760,0.4648288488388061,0.0,0.0,0.0,0.0,-0.5235987755982994
1666088237649290647,0.4648288488388061,0.0,0.0,0.0,0.0,-0.5235987755982994
1666088237699623358,0.4648288488388061,0.0,0.0,0.0,0.0,-0.5235987755982994
1666088237749677230,0.4798288488388061,0.0,0.0,0.0,0.0,-0.5235987755982994
1666088237799643175,0.46150681376457214,0.0,0.0,0.0,0.0,-0.5235987755982994
1666088237849368642,0.47650681376457216,0.0,0.0,0.0,0.0,-0.5235987755982994
1666088237900268249,0.49150681376457217,0.0,0.0,0.0,0.0,-0.5235987755982994
1666088237949433555,0.4467753767967224,0.0,0.0,0.0,0.0,-0.5235987755982994
1666088237999425437,0.4460645914077758,0.0,0.0,0.0,0.0,-0.5235987755982994
1666088238049371505,0.46106459140777584,0.0,0.0,0.0,0.0,-0.5235987755982994
1666088238099698362,0.47606459140777585,0.0,0.0,0.0,0.0,-0.5235987755982994
1666088238149225650,0.49106459140777586,0.0,0.0,0.0,0.0,-0.5235987755982994
1666088238200451115,0.5060645914077758,0.0,0.0,0.0,0.0,-0.5235987755982994
1666088238250230687,0.5210645914077758,0.0,0.0,0.0,0.0,-0.5235987755982994
1666088238301475812,0.4819777309894561,0.0,0.0,0.0,0.0,-0.5235987755982994
1666088238350171467,0.4819777309894561,0.0,0.0,0.0,0.0,-0.5235987755982994
1666088238399226144,0.49697773098945613,0.0,0.0,0.0,0.0,-0.5235987755982994
1666088238449628789,0.5119777309894561,0.0,0.0,0.0,0.0,-0.4841810331792724
1666088238499656335,0.5269777309894561,0.0,0.0,0.0,0.0,-0.44476329076024546
1666088238549550070,0.4877086877822876,0.0,0.0,0.0,0.0,-0.3490658503988664
1666088238599311623,0.4877086877822876,0.0,0.0,0.0,0.0,-0.3490658503988664
1666088238649167678,0.4877086877822876,0.0,0.0,0.0,0.0,-0.3490658503988664
1666088238699260694,0.5027086877822876,0.0,0.0,0.0,0.0,-0.31454967385168825
1666088238749226420,0.5177086877822876,0.0,0.0,0.0,0.0,-0.28043389423361753
1666088238799622191,0.5327086877822876,0.0,0.0,0.0,0.0,-0.25331129075238024
1666088238849540338,0.5477086877822877,0.0,0.0,0.0,0.0,-0.2261886872711429
1666088238899510457,0.5532708764076233,0.0,0.0,0.0,0.0,-0.2161312848329544
1666088238949307629,0.5632392168045044,0.0,0.0,0.0,0.0,-0.2239842265844345
1666088239002643030,0.5632392168045044,0.0,0.0,0.0,0.0,-0.2239842265844345
1666088239049520944,0.5632392168045044,0.0,0.0,0.0,0.0,-0.2239842265844345
1666088239099295064,0.5675525069236755,0.0,0.0,0.0,0.0,-0.22830501198768616
1666088239149143113,0.48208925127983093,0.0,0.0,0.0,0.0,-0.14456921815872192
1666088239201598806,0.482160359621048,0.0,0.0,0.0,0.0,-0.14480659365653992
1666088239250698778,0.482160359621048,0.0,0.0,0.0,0.0,-0.14480659365653992
1666088239301403001,0.48184906794053517,0.0,0.0,0.0,0.0,-0.24480659365653992
1666088239349257157,0.4815377762600223,0.0,0.0,0.0,0.0,-0.34480659365653993
1666088239399411779,0.4933635340276472,0.0,0.0,0.0,0.0,-0.44480659365653996
1666088239449510935,0.5051892917952722,0.0,0.0,0.0,0.0,-0.5448065936565399
1666088239499560776,0.5170150495628971,0.0,0.0,0.0,0.0,-0.6448065936565399
1666088239550027502,0.5291918044471831,0.0,0.0,0.0,0.0,-0.7448065936565399
1666088239599248671,0.541368559331469,0.0,0.0,0.0,0.0,-0.8448065936565399
1666088239649157977,0.5447607636451721,0.0,0.0,0.0,0.0,-0.8726646259971653
1666088239699478344,0.5297496914863586,0.0,0.0,0.0,0.0,-0.8726646259971653
1666088239750333159,0.5209082365036011,0.0,0.0,0.0,0.0,-0.8726646259971653
1666088239799309434,0.5209082365036011,0.0,0.0,0.0,0.0,-0.8726646259971653
1666088239849139299,0.5209082365036011,0.0,0.0,0.0,0.0,-0.8726646259971653
1666088239899454051,0.4224197268486023,0.0,0.0,0.0,0.0,-0.6981317007977323
1666088239949358847,0.4224197268486023,0.0,0.0,0.0,0.0,-0.6981317007977323
1666088239999418283,0.4374197268486023,0.0,0.0,0.0,0.0,-0.7320787272907692
1666088240049129904,0.4524197268486023,0.0,0.0,0.0,0.0,-0.722042006071233
1666088240099514834,0.46741972684860233,0.0,0.0,0.0,0.0,-0.712005284851697
1666088240150250375,0.48241972684860235,0.0,0.0,0.0,0.0,-0.7019685636321609
1666088240199779348,0.4749631881713867,0.0,0.0,0.0,0.0,-0.6981317007977323
1666088240249237611,0.3696343004703522,0.0,0.0,0.0,0.0,-0.6981317007977323
1666088240299543613,0.3696343004703522,0.0,0.0,0.0,0.0,-0.6981317007977323
1666088240349248984,0.3846343004703522,0.0,0.0,0.0,0.0,-0.6981317007977323
1666088240399524637,0.3757416009902954,0.0,0.0,0.0,0.0,-0.5235987755982994
1666088240451084225,0.3757416009902954,0.0,0.0,0.0,0.0,-0.5235987755982994
1666088240500632338,0.3757416009902954,0.0,0.0,0.0,0.0,-0.5235987755982994
1666088240549141659,0.38165217638015747,0.0,0.0,0.0,0.0,-0.5235987755982994
1666088240599638359,0.38165217638015747,0.0,0.0,0.0,0.0,-0.5235987755982994
1666088240649356164,0.3966521763801575,0.0,0.0,0.0,0.0,-0.4794221109991131
1666088240699219936,0.4116521763801575,0.0,0.0,0.0,0.0,-0.37243685262698106
1666088240749349881,0.4266521763801575,0.0,0.0,0.0,0.0,-0.265451594254849
1666088240799297278,0.4373898506164551,0.0,0.0,0.0,0.0,-0.17453292519943345
1666088240849113531,0.4373898506164551,0.0,0.0,0.0,0.0,-0.17453292519943345
1666088240899616754,0.4254585206508636,0.0,0.0,0.0,0.0,-0.06412860751152039
1666088240949372058,0.4254585206508636,0.0,0.0,0.0,0.0,-0.06412860751152039
1666088240999674991,0.41241657733917236,0.0,0.0,0.0,0.0,-0.04898938164114952
1666088241049593145,0.39706417918205256,0.0,0.0,0.0,0.0,-0.03564347326755524
1666088241099445717,0.39706417918205256,0.0,0.0,0.0,0.0,-0.03564347326755524
1666088241149510421,0.3999369442462921,0.0,0.0,0.0,0.0,-0.02247489057481289
1666088241199172194,0.40071877837181086,0.0,0.0,0.0,0.0,-0.022426020354032516
1666088241249217663,0.38698646426200867,0.0,0.0,0.0,0.0,-0.009199892170727253
1666088241299258922,0.38698646426200867,0.0,0.0,0.0,0.0,-0.009199892170727253
1666088241349430544,0.4019864642620087,0.0,0.0,0.0,0.0,0.059631886287392785
1666088241399508365,0.4149717092514038,0.0,0.0,0.0,0.0,0.1192183867096901
1666088241449767815,0.4149717092514038,0.0,0.0,0.0,0.0,0.1192183867096901
1666088241499191646,0.3428579270839691,0.0,0.0,0.0,0.0,0.011838882230222225
1666088241549188946,0.3428579270839691,0.0,0.0,0.0,0.0,0.011838882230222225
1666088241599584807,0.25955907359969255,0.0,0.0,0.0,0.0,0.11183888223022223
1666088241649307688,0.17626022011541595,0.0,0.0,0.0,0.0,0.21183888223022224
1666088241699404024,0.10265042953924391,0.0,0.0,0.0,0.0,0.31183888223022227
1666088241749156300,0.029040638963071866,0.0,0.0,0.0,0.0,0.41183888223022225
1666088241799735990,0.0,0.0,0.0,0.0,0.0,0.500735818443887
1666088241850029293,0.0,0.0,0.0,0.0,0.0,0.5235987755982984
1666088241899214996,0.0,0.0,0.0,0.0,0.0,0.5235987755982984
1666088241949251123,0.0,0.0,0.0,0.0,0.0,0.5235987755982984
1666088241999172854,0.0,0.0,0.0,0.0,0.0,0.5235987755982984
1666088242050032105,0.015,0.0,0.0,0.0,0.0,0.5014425056896902
1666088242099518377,0.03,0.0,0.0,0.0,0.0,0.48123801924492365
1666088242149353589,0.045,0.0,0.0,0.0,0.0,0.4610917742640172
1666088242199162006,0.06,0.0,0.0,0.0,0.0,0.4424652342777239
1666088242249135278,0.075,0.0,0.0,0.0,0.0,0.42383869429143056
1666088242299138534,0.09,0.0,0.0,0.0,0.0,0.40521215430513724
1666088242349438642,0.105,0.0,0.0,0.0,0.0,0.38822006930993114
1666088242399268119,0.12,0.0,0.0,0.0,0.0,0.37122798431472503
1666088242449501707,0.135,0.0,0.0,0.0,0.0,0.3569821435211274
1666088242499419823,0.15000000000000002,0.0,0.0,0.0,0.0,0.34409373884713634
1666088242549218885,0.16500000000000004,0.0,0.0,0.0,0.0,0.3312053341731453
1666088242599246619,0.18000000000000005,0.0,0.0,0.0,0.0,0.31831692949915424
1666088242649262966,0.19500000000000006,0.0,0.0,0.0,0.0,0.30641253260231843
1666088242699152079,0.21000000000000008,0.0,0.0,0.0,0.0,0.2945081357054826
1666088242749212255,0.2250000000000001,0.0,0.0,0.0,0.0,0.2840558962842675
1666088242799773964,0.2400000000000001,0.0,0.0,0.0,0.0,0.2741231965184733
1666088242849971933,0.2550000000000001,0.0,0.0,0.0,0.0,0.264190496752679
1666088242899267968,0.27000000000000013,0.0,0.0,0.0,0.0,0.2546043496020108
1666088242949438926,0.28500000000000014,0.0,0.0,0.0,0.0,0.24501820245134256
1666088242999226743,0.30000000000000016,0.0,0.0,0.0,0.0,0.23543205530067435
1666088243049222056,0.31500000000000017,0.0,0.0,0.0,0.0,0.22646919748008287
1666088243099160435,0.3300000000000002,0.0,0.0,0.0,0.0,0.2175063396594914
1666088243149157168,0.3450000000000002,0.0,0.0,0.0,0.0,0.20863812727145023
1666088243199146231,0.3600000000000002,0.0,0.0,0.0,0.0,0.19976991488340906
1666088243249473170,0.3750000000000002,0.0,0.0,0.0,0.0,0.19098260271104373
1666088243299157547,0.39000000000000024,0.0,0.0,0.0,0.0,0.1821952905386784
1666088243350215857,0.40500000000000025,0.0,0.0,0.0,0.0,0.17788280239526497
1666088243399288882,0.42000000000000026,0.0,0.0,0.0,0.0,0.17357031425185154
1666088243449403504,0.4350000000000003,0.0,0.0,0.0,0.0,0.16399881354216372
1666088243499773578,0.4500000000000003,0.0,0.0,0.0,0.0,0.15442731283247588
1666088243549162207,0.4650000000000003,0.0,0.0,0.0,0.0,0.14483563614631587
1666088243599253741,0.4800000000000003,0.0,0.0,0.0,0.0,0.13524395946015585
1666088243652094912,0.49500000000000033,0.0,0.0,0.0,0.0,0.1260395287049093
1666088243699395232,0.5100000000000003,0.0,0.0,0.0,0.0,0.11683509794966278
1666088243749512857,0.5250000000000004,0.0,0.0,0.0,0.0,0.10728067244099986
1666088243799209788,0.5400000000000004,0.0,0.0,0.0,0.0,0.09769451247650804
1666088243849449205,0.5550000000000004,0.0,0.0,0.0,0.0,0.08771917044339589
1666088243899141670,0.5700000000000004,0.0,0.0,0.0,0.0,0.07743634209600123
1666088243949897990,0.5850000000000004,0.0,0.0,0.0,0.0,0.06715351374860656
1666088244000351472,0.6000000000000004,0.0,0.0,0.0,0.0,0.04883300342921658
1666088244049402967,0.6150000000000004,0.0,0.0,0.0,0.0,0.030512493109826594
1666088244099474282,0.6300000000000004,0.0,0.0,0.0,0.0,0.011132426261271935
1666088244151097509,0.6450000000000005,0.0,0.0,0.0,0.0,-0.010222100602210758
1666088244199201027,0.6600000000000005,0.0,0.0,0.0,0.0,-0.03851006187574052
1666088244249209771,0.6750000000000005,0.0,0.0,0.0,0.0,-0.06679802314927029
1666088244300579982,0.6900000000000005,0.0,0.0,0.0,0.0,-0.09348274430755998
1666088244349255411,0.7006879448890685,0.0,0.0,0.0,0.0,-0.17453292519943345
1666088244400148033,0.7006879448890685,0.0,0.0,0.0,0.0,-0.17453292519943345
1666088244452239028,0.699490189552307,0.0,0.0,0.0,0.0,-0.17453292519943345
1666088244499219500,0.6544994115829468,0.0,0.0,0.0,0.0,-0.17453292519943345
1666088244549330914,0.6262480616569519,0.0,0.0,0.0,0.0,-0.17453292519943345
1666088244600101226,0.6262480616569519,0.0,0.0,0.0,0.0,-0.17453292519943345
1666088244649179160,0.616933286190033,0.0,0.0,0.0,0.0,-0.17453292519943345
1666088244699125404,0.616933286190033,0.0,0.0,0.0,0.0,-0.17453292519943345
1666088244749383982,0.5790228247642517,0.0,0.0,0.0,0.0,-0.17453292519943345
1666088244799885473,0.5790228247642517,0.0,0.0,0.0,0.0,-0.17453292519943345
1666088244849309840,0.5130442380905151,0.0,0.0,0.0,0.0,-0.17453292519943345
1666088244899213843,0.5015731453895569,0.0,0.0,0.0,0.0,-0.17453292519943345
1666088244949481404,0.5015731453895569,0.0,0.0,0.0,0.0,-0.17453292519943345
1666088244999201023,0.4353735148906708,0.0,0.0,0.0,0.0,-0.17453292519943345
1666088245049389201,0.4367918372154236,0.0,0.0,0.0,0.0,-0.17453292519943345
1666088245099328129,0.41743101714505126,0.0,0.0,0.0,0.0,-0.27453292519943345
1666088245149328819,0.40300083160400385,0.0,0.0,0.0,0.0,-0.3490658503988664
1666088245199259977,0.40300083160400385,0.0,0.0,0.0,0.0,-0.3490658503988664
1666088245249214075,0.25300083160400383,0.0,0.0,0.0,0.0,-0.31438452909421155
1666088245300767993,0.1030008316040038,0.0,0.0,0.0,0.0,-0.28442264390446526
1666088245350075691,0.0,0.0,0.0,0.0,0.0,-0.2638486499646816
1666088245399277485,0.0,0.0,0.0,0.0,0.0,-0.2771490078582978
1666088245449349547,0.0,0.0,0.0,0.0,0.0,-0.2771490078582978
1666088245499299739,0.0,0.0,0.0,0.0,0.0,-0.2771490078582978
1666088245549465209,0.0,0.0,0.0,0.0,0.0,-0.2987961045356934
1666088245599445899,0.0,0.0,0.0,0.0,0.0,-0.2987961045356934
1666088245649289204,0.0,0.0,0.0,0.0,0.0,-0.305066376668926
1666088245699836172,0.0,0.0,0.0,0.0,0.0,-0.2934329821764471
1666088245749279819,0.0,0.0,0.0,0.0,0.0,-0.2934329821764471
1666088245799496664,0.0,0.0,0.0,0.0,0.0,-0.29083005619662183
1666088245849643284,0.0,0.0,0.0,0.0,0.0,-0.2822542798799595
1666088245899254269,0.0,0.0,0.0,0.0,0.0,-0.2691867068495522
1666088245949212783,0.0,0.0,0.0,0.0,0.0,-0.2651061264912547
1666088245999584340,0.0,0.0,0.0,0.0,0.0,-0.2609715673815178
1666088246049199101,0.0,0.0,0.0,0.0,0.0,-0.2609715673815178
1666088246099279014,0.0,0.0,0.0,0.0,0.0,-0.2609715673815178
1666088246149397385,0.0,0.0,0.0,0.0,0.0,-0.2510982369183324
1666088246199257021,0.0,0.0,0.0,0.0,0.0,-0.23542864276227404
1666088246249331004,0.0,0.0,0.0,0.0,0.0,-0.23542864276227404
1666088246299576986,0.0,0.0,0.0,0.0,0.0,-0.17453292519943345
1666088246349306803,0.0,0.0,0.0,0.0,0.0,-0.17453292519943345
1666088246399232717,0.0,0.0,0.0,0.0,0.0,-0.17453292519943345
1666088246449438188,0.0,0.0,0.0,0.0,0.0,-0.17453292519943345
1666088246499538908,0.0,0.0,0.0,0.0,0.0,-0.17453292519943345
1666088246549128258,0.0,0.0,0.0,0.0,0.0,-0.17453292519943345
1666088246599350637,0.0,0.0,0.0,0.0,0.0,-0.17453292519943345
1666088246650147090,0.0,0.0,0.0,0.0,0.0,-0.17453292519943345
1666088246699587639,0.0,0.0,0.0,0.0,0.0,-0.17453292519943345
1666088246749463175,0.0,0.0,0.0,0.0,0.0,-0.17453292519943345
1666088246799231189,0.0,0.0,0.0,0.0,0.0,-0.17453292519943345
1666088246849330960,0.0,0.0,0.0,0.0,0.0,-0.17453292519943345
1666088246899520936,0.0,0.0,0.0,0.0,0.0,-0.17453292519943345
1666088246949464479,0.0,0.0,0.0,0.0,0.0,-0.17453292519943345
1666088246999777048,0.0,0.0,0.0,0.0,0.0,-0.17453292519943345
1666088247049320647,0.0,0.0,0.0,0.0,0.0,-0.17453292519943345
1666088247099354503,0.0,0.0,0.0,0.0,0.0,-0.17453292519943345
1666088247149328419,0.0,0.0,0.0,0.0,0.0,-0.17453292519943345
1666088247199270586,0.0,0.0,0.0,0.0,0.0,-0.17453292519943345
1666088247249781745,0.0,0.0,0.0,0.0,0.0,-0.17453292519943345
1666088247299208250,0.0,0.0,0.0,0.0,0.0,-0.17453292519943345
1666088247352123518,0.0,0.0,0.0,0.0,0.0,-0.17453292519943345
1666088247399194019,0.0,0.0,0.0,0.0,0.0,-0.17453292519943345
1666088247449637930,0.0,0.0,0.0,0.0,0.0,-0.17453292519943345
1666088247499412887,0.0,0.0,0.0,0.0,0.0,-0.17453292519943345
1666088247551579448,0.0,0.0,0.0,0.0,0.0,-0.17453292519943345
1666088247599316342,0.0,0.0,0.0,0.0,0.0,-0.17453292519943345
1666088247649479839,0.0,0.0,0.0,0.0,0.0,-0.17453292519943345
1666088247699283515,0.0,0.0,0.0,0.0,0.0,-0.17453292519943345
1666088247749458626,0.0,0.0,0.0,0.0,0.0,-0.17453292519943345
1666088247799592442,0.0,0.0,0.0,0.0,0.0,-0.17453292519943345
1666088247850201729,0.0,0.0,0.0,0.0,0.0,-0.17453292519943345
1666088247899208988,0.0,0.0,0.0,0.0,0.0,-0.17453292519943345
1666088247949560522,0.0,0.0,0.0,0.0,0.0,-0.17453292519943345
1666088247999124458,0.0,0.0,0.0,0.0,0.0,-0.17453292519943345
1666088248050082864,0.0,0.0,0.0,0.0,0.0,-0.17453292519943345
1666088248099510597,0.0,0.0,0.0,0.0,0.0,-0.17453292519943345
1666088248149503986,0.0,0.0,0.0,0.0,0.0,-0.17453292519943345
1666088248199210913,0.0,0.0,0.0,0.0,0.0,-0.17453292519943345
1666088248249569632,0.0,0.0,0.0,0.0,0.0,-0.17453292519943345
1666088248299378383,0.0,0.0,0.0,0.0,0.0,-0.17453292519943345
1666088248350064370,0.0,0.0,0.0,0.0,0.0,-0.17453292519943345
1666088248399455335,0.0,0.0,0.0,0.0,0.0,-0.17453292519943345
1666088248449485869,0.0,0.0,0.0,0.0,0.0,-0.17453292519943345
1666088248499313732,0.0,0.0,0.0,0.0,0.0,-4.996003610813204e-16
1666088248549225420,0.0,0.0,0.0,0.0,0.0,-4.996003610813204e-16
1666088248599629941,0.0,0.0,0.0,0.0,0.0,-4.996003610813204e-16
1666088248649346703,0.0,0.0,0.0,0.0,0.0,-4.996003610813204e-16
1666088248699507265,0.0,0.0,0.0,0.0,0.0,-4.996003610813204e-16
1666088248749469212,0.0,0.0,0.0,0.0,0.0,-4.996003610813204e-16
1666088248799544532,0.0,0.0,0.0,0.0,0.0,-4.996003610813204e-16
1666088248849635390,0.0,0.0,0.0,0.0,0.0,-4.996003610813204e-16
1666088248899265839,0.0,0.0,0.0,0.0,0.0,-4.996003610813204e-16
1666088248949556575,0.0,0.0,0.0,0.0,0.0,-4.996003610813204e-16
1666088248999585571,0.0,0.0,0.0,0.0,0.0,-4.996003610813204e-16
1666088249049373939,0.0,0.0,0.0,0.0,0.0,-4.996003610813204e-16
1666088249100023547,0.0,0.0,0.0,0.0,0.0,-4.996003610813204e-16
1666088249149220123,0.0,0.0,0.0,0.0,0.0,-4.996003610813204e-16
1666088249199568284,0.0,0.0,0.0,0.0,0.0,-4.996003610813204e-16
1666088249249816251,0.0,0.0,0.0,0.0,0.0,-4.996003610813204e-16
1666088249299201445,0.0,0.0,0.0,0.0,0.0,-4.996003610813204e-16
1666088249349322944,0.0,0.0,0.0,0.0,0.0,-4.996003610813204e-16
1666088249400742504,0.0,0.0,0.0,0.0,0.0,0.0999999999999995
1666088249449295263,0.0,0.0,0.0,0.0,0.0,0.17453292519943245
1666088249499249989,0.0,0.0,0.0,0.0,0.0,0.17453292519943245
1666088249549182069,0.0,0.0,0.0,0.0,0.0,0.17453292519943245
1666088249599157389,0.0,0.0,0.0,0.0,0.0,0.17453292519943245
1666088249649798459,0.0,0.0,0.0,0.0,0.0,0.17453292519943245
1666088249699226108,0.0,0.0,0.0,0.0,0.0,0.17453292519943245
1666088249749684859,0.0,0.0,0.0,0.0,0.0,0.17453292519943245
1666088249799392979,0.0,0.0,0.0,0.0,0.0,0.17453292519943245
1666088249849224902,0.0,0.0,0.0,0.0,0.0,0.17453292519943245
1666088249899386039,0.0,0.0,0.0,0.0,0.0,0.17453292519943245
1666088249949463009,0.0,0.0,0.0,0.0,0.0,0.17453292519943245
1666088249999532554,0.0,0.0,0.0,0.0,0.0,0.07453292519943244
1666088250049144251,0.0,0.0,0.0,0.0,0.0,-4.996003610813204e-16
1666088250099132102,0.0,0.0,0.0,0.0,0.0,-4.996003610813204e-16
1666088250149757466,0.0,0.0,0.0,0.0,0.0,-4.996003610813204e-16
1666088250199738247,0.0,0.0,0.0,0.0,0.0,-4.996003610813204e-16
1666088250249279639,0.0,0.0,0.0,0.0,0.0,-4.996003610813204e-16
1666088250299930329,0.0,0.0,0.0,0.0,0.0,-4.996003610813204e-16
1666088250349345367,0.0,0.0,0.0,0.0,0.0,-4.996003610813204e-16
1666088250399433302,0.0,0.0,0.0,0.0,0.0,-4.996003610813204e-16
1666088250450762621,0.0,0.0,0.0,0.0,0.0,-4.996003610813204e-16
1666088250499298818,0.0,0.0,0.0,0.0,0.0,-4.996003610813204e-16
1666088250549272201,0.0,0.0,0.0,0.0,0.0,-4.996003610813204e-16
1666088250599246881,0.0,0.0,0.0,0.0,0.0,-4.996003610813204e-16
1666088250649387071,0.0,0.0,0.0,0.0,0.0,-4.996003610813204e-16
1666088250699268741,0.0,0.0,0.0,0.0,0.0,-4.996003610813204e-16
1666088250749514927,0.0,0.0,0.0,0.0,0.0,-4.996003610813204e-16
1666088250799301898,0.0,0.0,0.0,0.0,0.0,-4.996003610813204e-16
1666088250849734422,0.0,0.0,0.0,0.0,0.0,0.0999999999999995
1666088250899211935,0.0,0.0,0.0,0.0,0.0,0.17453292519943245
1666088250951220860,0.0,0.0,0.0,0.0,0.0,0.17453292519943245
1666088250999858443,0.0,0.0,0.0,0.0,0.0,0.17453292519943245
1666088251049156089,0.0,0.0,0.0,0.0,0.0,0.17453292519943245
1666088251099303918,0.0,0.0,0.0,0.0,0.0,0.17453292519943245
1666088251149851370,0.0,0.0,0.0,0.0,0.0,0.17453292519943245
1666088251199382239,0.0,0.0,0.0,0.0,0.0,0.17453292519943245
1666088251249315935,0.0,0.0,0.0,0.0,0.0,0.17453292519943245
1666088251299664448,0.0,0.0,0.0,0.0,0.0,0.21638232942209096
1666088251349637732,0.0,0.0,0.0,0.0,0.0,0.21638232942209096
1666088251399347283,0.0,0.0,0.0,0.0,0.0,0.23234479589709178
1666088251449465573,0.0,0.0,0.0,0.0,0.0,0.23673429389314718
1666088251499454174,0.0,0.0,0.0,0.0,0.0,0.2467447880822303
1666088251550997105,0.0,0.0,0.0,0.0,0.0,0.25366233611423056
1666088251599491772,0.0,0.0,0.0,0.0,0.0,0.25366233611423056
1666088251649193311,0.0,0.0,0.0,0.0,0.0,0.2666809485265716
1666088251699323978,0.0,0.0,0.0,0.0,0.0,0.2666809485265716
1666088251749552082,0.0,0.0,0.0,0.0,0.0,0.25902622873650943
1666088251799508334,0.0,0.0,0.0,0.0,0.0,0.25902622873650943
1666088251849385408,0.0,0.0,0.0,0.0,0.0,0.2354851095023371
1666088251899484082,0.0,0.0,0.0,0.0,0.0,0.2354851095023371
1666088251952036530,0.0,0.0,0.0,0.0,0.0,0.17453292519943245
1666088251999804941,0.0,0.0,0.0,0.0,0.0,0.17453292519943245
1666088252050073795,0.0,0.0,0.0,0.0,0.0,0.17453292519943245
1666088252099439409,0.0,0.0,0.0,0.0,0.0,0.17453292519943245
1666088252149211573,0.0,0.0,0.0,0.0,0.0,0.17453292519943245
1666088252199132725,0.0,0.0,0.0,0.0,0.0,0.17453292519943245
1666088252249364775,0.0,0.0,0.0,0.0,0.0,0.07453292519943244
1666088252299352265,0.0,0.0,0.0,0.0,0.0,-4.996003610813204e-16
1666088252349364996,0.0,0.0,0.0,0.0,0.0,-4.996003610813204e-16
1666088252400192310,0.0,0.0,0.0,0.0,0.0,-4.996003610813204e-16
1666088252452772645,0.0,0.0,0.0,0.0,0.0,-4.996003610813204e-16
1666088252499581177,0.0,0.0,0.0,0.0,0.0,-4.996003610813204e-16
1666088252549506099,0.0,0.0,0.0,0.0,0.0,-4.996003610813204e-16
1666088252599342032,0.0,0.0,0.0,0.0,0.0,-4.996003610813204e-16
1666088252652990686,0.0,0.0,0.0,0.0,0.0,-4.996003610813204e-16
1666088252700382490,0.0,0.0,0.0,0.0,0.0,-4.996003610813204e-16
1666088252749430009,0.0,0.0,0.0,0.0,0.0,-4.996003610813204e-16
1666088252799319294,0.0,0.0,0.0,0.0,0.0,-4.996003610813204e-16
1666088252851152518,0.0,0.0,0.0,0.0,0.0,-4.996003610813204e-16
1666088252899419058,0.0,0.0,0.0,0.0,0.0,-4.996003610813204e-16
1666088252949713576,0.0,0.0,0.0,0.0,0.0,-4.996003610813204e-16
1666088252999489750,0.0,0.0,0.0,0.0,0.0,-4.996003610813204e-16
1666088253049243450,0.0,0.0,0.0,0.0,0.0,-4.996003610813204e-16
1666088253099925289,0.0,0.0,0.0,0.0,0.0,-4.996003610813204e-16
1666088253149895473,0.0,0.0,0.0,0.0,0.0,-4.996003610813204e-16
1666088253199589150,0.0,0.0,0.0,0.0,0.0,-4.996003610813204e-16
1666088253249324478,0.0,0.0,0.0,0.0,0.0,-4.996003610813204e-16
1666088253299234182,0.0,0.0,0.0,0.0,0.0,-4.996003610813204e-16
1666088253350656457,0.0,0.0,0.0,0.0,0.0,-4.996003610813204e-16
1666088253399248612,0.0,0.0,0.0,0.0,0.0,-4.996003610813204e-16
1666088253449607599,0.0,0.0,0.0,0.0,0.0,-4.996003610813204e-16
1666088253499282918,0.0,0.0,0.0,0.0,0.0,-4.996003610813204e-16
1666088253549661187,0.0,0.0,0.0,0.0,0.0,-4.996003610813204e-16
1666088253599356469,0.0,0.0,0.0,0.0,0.0,-4.996003610813204e-16
1666088253650616726,0.0,0.0,0.0,0.0,0.0,-4.996003610813204e-16
1666088253700727371,0.0,0.0,0.0,0.0,0.0,-4.996003610813204e-16
1666088253749700863,0.0,0.0,0.0,0.0,0.0,-4.996003610813204e-16
1666088253799424799,0.0,0.0,0.0,0.0,0.0,-4.996003610813204e-16
1666088253850002883,0.0,0.0,0.0,0.0,0.0,-4.996003610813204e-16
1666088253899353903,0.0,0.0,0.0,0.0,0.0,-4.996003610813204e-16
1666088253955615529,0.0,0.0,0.0,0.0,0.0,-4.996003610813204e-16
1666088253999148310,0.015,0.0,0.0,0.0,0.0,-0.0023468098988074526
1666088254049835611,0.03,0.0,0.0,0.0,0.0,-0.004589901749689597
1666088254099757708,0.045,0.0,0.0,0.0,0.0,-0.006832993600571742
1666088254149929635,0.06,0.0,0.0,0.0,0.0,-0.008958300680243964
1666088254199279587,0.075,0.0,0.0,0.0,0.0,-0.011082213688854252
1666088254249922758,0.09,0.0,0.0,0.0,0.0,-0.01318771661697171
1666088254299208478,0.105,0.0,0.0,0.0,0.0,-0.015293219545089169
1666088254349438654,0.12,0.0,0.0,0.0,0.0,-0.017398722473206625
1666088254399388562,0.135,0.0,0.0,0.0,0.0,-0.019604383272651276
1666088254449473420,0.15000000000000002,0.0,0.0,0.0,0.0,-0.021810044072095927
1666088254499869118,0.16500000000000004,0.0,0.0,0.0,0.0,-0.02401570487154058
1666088254549711771,0.18000000000000005,0.0,0.0,0.0,0.0,-0.022672709107607263
1666088254599525969,0.19500000000000006,0.0,0.0,0.0,0.0,-0.025346549643479894
1666088254649636545,0.21000000000000008,0.0,0.0,0.0,0.0,-0.02818705409187436
1666088254699726398,0.2250000000000001,0.0,0.0,0.0,0.0,-0.03102755854026882
1666088254749332974,0.2400000000000001,0.0,0.0,0.0,0.0,-0.03454121919569159
1666088254799344972,0.2550000000000001,0.0,0.0,0.0,0.0,-0.038054879851114366
1666088254849407086,0.27000000000000013,0.0,0.0,0.0,0.0,-0.04156854050653714
1666088254899266624,0.1200000000000001,0.0,0.0,0.0,0.0,-0.01847490689179457
1666088254949302450,0.0,0.0,0.0,0.0,0.0,-4.996003610813204e-16
1666088255000718413,0.0,0.0,0.0,0.0,0.0,-4.996003610813204e-16
1666088255049341870,0.0,0.0,0.0,0.0,0.0,-4.996003610813204e-16
1666088255100276983,0.0,0.0,0.0,0.0,0.0,-4.996003610813204e-16
1666088255149408127,0.0,0.0,0.0,0.0,0.0,-4.996003610813204e-16
1666088255199626981,0.0,0.0,0.0,0.0,0.0,-4.996003610813204e-16
1666088255249544118,0.0,0.0,0.0,0.0,0.0,-4.996003610813204e-16
1666088255299230231,0.0,0.0,0.0,0.0,0.0,-4.996003610813204e-16
1666088255350162511,0.0,0.0,0.0,0.0,0.0,-4.996003610813204e-16
1666088255399966869,0.0,0.0,0.0,0.0,0.0,-4.996003610813204e-16
1666088255456312525,0.0,0.0,0.0,0.0,0.0,-4.996003610813204e-16
1666088255499384179,0.0,0.0,0.0,0.0,0.0,-4.996003610813204e-16
1666088255549333603,0.0,0.0,0.0,0.0,0.0,-4.996003610813204e-16
1666088255599737227,0.0,0.0,0.0,0.0,0.0,-4.996003610813204e-16
1666088255649360059,0.0,0.0,0.0,0.0,0.0,-4.996003610813204e-16
1666088255699694807,0.0,0.0,0.0,0.0,0.0,-4.996003610813204e-16
1666088255749394138,0.0,0.0,0.0,0.0,0.0,-4.996003610813204e-16
1666088255801585601,0.0,0.0,0.0,0.0,0.0,-4.996003610813204e-16
1666088255849453975,0.0,0.0,0.0,0.0,0.0,-4.996003610813204e-16
1666088255899297733,0.0,0.0,0.0,0.0,0.0,-4.996003610813204e-16
1666088255949400974,0.0,0.0,0.0,0.0,0.0,-4.996003610813204e-16
1666088255999352546,0.0,0.0,0.0,0.0,0.0,-4.996003610813204e-16
1666088256049687601,0.0,0.0,0.0,0.0,0.0,-4.996003610813204e-16
1666088256100164221,0.0,0.0,0.0,0.0,0.0,-4.996003610813204e-16
