%time,field.linear.x,field.linear.y,field.linear.z,field.angular.x,field.angular.y,field.angular.z
1666088421465022843,0.3806915879249573,0.0,0.0,0.0,0.0,-1.2217304763960313
1666088421556389536,0.362165629863739,0.0,0.0,0.0,0.0,-1.2217304763960313
1666088421640830311,0.19059051573276514,0.0,0.0,0.0,0.0,-1.2217304763960313
1666088421729366784,0.1817034631967544,0.0,0.0,0.0,0.0,-1.2217304763960313
1666088421807183015,0.32806357741355896,0.0,0.0,0.0,0.0,-1.3962634015954642
1666088421845536023,0.0,0.0,0.0,0.0,0.0,-1.1304601699568608
1666088421937093411,0.0,0.0,0.0,0.0,0.0,-1.1484852545020983
1666088421990362046,0.0,0.0,0.0,0.0,0.0,-1.0991244389054955
1666088422040922016,0.0,0.0,0.0,0.0,0.0,-1.0824669585195255
1666088422107131232,0.0,0.0,0.0,0.0,0.0,-1.098013757241351
1666088422194931561,0.0,0.0,0.0,0.0,0.0,-1.1092743200660333
1666088422285120104,0.0,0.0,0.0,0.0,0.0,-1.0857912554864375
1666088422343080433,0.0,0.0,0.0,0.0,0.0,-1.0689539275028548
1666088422449343783,0.0,0.0,0.0,0.0,0.0,-1.066286310468267
1666088422537066256,0.0,0.0,0.0,0.0,0.0,-1.0471975511965983
1666088422582053318,0.0,0.0,0.0,0.0,0.0,-0.9636366283528942
1666088422684086368,0.0,0.0,0.0,0.0,0.0,-0.9288367500561671
1666088422700973328,0.0,0.0,0.0,0.0,0.0,-0.8736703378107441
1666088422790235915,0.0,0.0,0.0,0.0,0.0,-0.8151982359082568
1666088422837383000,0.0,0.0,0.0,0.0,0.0,-0.8131289573190595
1666088422924683568,0.0,0.0,0.0,0.0,0.0,-0.7412912729794857
1666088423000707472,0.0,0.0,0.0,0.0,0.0,-0.6551478043201431
1666088423090166723,0.0,0.0,0.0,0.0,0.0,-0.5646792577463728
1666088423223103638,0.0,0.0,0.0,0.0,0.0,-0.3927930157887068
1666088423265450242,0.0,0.0,0.0,0.0,0.0,-0.3917406466554192
1666088423309403507,0.0,0.0,0.0,0.0,0.0,-0.3189852234812329
1666088423389704154,0.0,0.0,0.0,0.0,0.0,-0.2554664831323031
1666088423432155383,0.43242189288139343,0.0,0.0,0.0,0.0,-0.10143453627824783
1666088423528818025,0.45242395997047424,0.0,0.0,0.0,0.0,-0.09106400609016418
1666088423642162327,0.48746025562286377,0.0,0.0,0.0,0.0,-0.07749886810779572
1666088423646062708,0.4868205785751343,0.0,0.0,0.0,0.0,-0.07765594869852066
1666088423742885185,0.5025718212127686,0.0,0.0,0.0,0.0,-0.07050267606973648
1666088423779015459,0.5022875070571899,0.0,0.0,0.0,0.0,-0.07107863575220108
1666088423823839646,0.49634817242622375,0.0,0.0,0.0,0.0,-4.996003610813204e-16
1666088423926161449,0.49975696206092834,0.0,0.0,0.0,0.0,-0.06464629620313644
1666088423989182728,0.49494448304176325,0.0,0.0,0.0,0.0,-4.996003610813204e-16
1666088424077031555,0.4898531138896942,0.0,0.0,0.0,0.0,-4.996003610813204e-16
1666088424210463562,0.4756854772567749,0.0,0.0,0.0,0.0,-4.996003610813204e-16
1666088424311036919,0.46607026457786555,0.0,0.0,0.0,0.0,-4.996003610813204e-16
1666088424328770497,0.45050817728042597,0.0,0.0,0.0,0.0,-4.996003610813204e-16
1666088424451492747,0.43484410643577576,0.0,0.0,0.0,0.0,-4.996003610813204e-16
1666088424507340619,0.4178982973098755,0.0,0.0,0.0,0.0,-4.996003610813204e-16
1666088424603048812,0.40834286808967585,0.0,0.0,0.0,0.0,-0.06779900193214417
1666088424626246871,0.0,0.0,0.0,0.0,0.0,-4.996003610813204e-16
1666088424701050909,0.0,0.0,0.0,0.0,0.0,-4.996003610813204e-16
1666088424801309021,0.0,0.0,0.0,0.0,0.0,-4.996003610813204e-16
1666088424947516055,0.0,0.0,0.0,0.0,0.0,-4.996003610813204e-16
1666088424965634710,0.0,0.0,0.0,0.0,0.0,-4.996003610813204e-16
1666088425068333207,0.0,0.0,0.0,0.0,0.0,-4.996003610813204e-16
1666088425102657798,0.0,0.0,0.0,0.0,0.0,-4.996003610813204e-16
1666088425186200526,0.0,0.0,0.0,0.0,0.0,-4.996003610813204e-16
1666088425203913940,0.0,0.0,0.0,0.0,0.0,-4.996003610813204e-16
1666088425309219081,0.0,0.0,0.0,0.0,0.0,-4.996003610813204e-16
1666088425354935144,0.0,0.0,0.0,0.0,0.0,-4.996003610813204e-16
1666088425396974555,0.0,0.0,0.0,0.0,0.0,-4.996003610813204e-16
1666088425485359110,0.0,0.0,0.0,0.0,0.0,-0.17453292519943345
1666088425529706543,0.0,0.0,0.0,0.0,0.0,-0.17453292519943345
1666088425608680557,0.0,0.0,0.0,0.0,0.0,-0.17453292519943345
1666088425742676306,0.0,0.0,0.0,0.0,0.0,-0.24504297160817917
1666088425837192121,0.0,0.0,0.0,0.0,0.0,-0.280109034434177
1666088425842910593,0.0,0.0,0.0,0.0,0.0,-0.31268422853525757
1666088425955896403,0.0,0.0,0.0,0.0,0.0,-0.3588589722002862
1666088425998005546,0.0,0.0,0.0,0.0,0.0,-0.3513408937956334
1666088426125131752,0.0,0.0,0.0,0.0,0.0,-0.40998674546484987
1666088426169477190,0.0,0.0,0.0,0.0,0.0,-0.4349369319123746
1666088426245457991,0.0,0.0,0.0,0.0,0.0,-0.47048349400935674
1666088426430547566,0.0,0.0,0.0,0.0,0.0,-0.5378321589745177
1666088426521445985,0.0,0.0,0.0,0.0,0.0,-0.545418813089636
1666088426595606702,0.0,0.0,0.0,0.0,0.0,-0.5624051544372511
1666088426630630081,0.0,0.0,0.0,0.0,0.0,-0.5560156277230544
1666088426722885476,0.40845662355422974,0.0,0.0,0.0,0.0,-0.16806359589099884
1666088426819401394,0.42083466053009033,0.0,0.0,0.0,0.0,-0.17281807959079742
1666088426889849689,0.43616059422492975,0.0,0.0,0.0,0.0,-0.17983871698379517
1666088427021540143,0.4396227896213531,0.0,0.0,0.0,0.0,-0.18304678797721863
1666088427106232314,0.43821534514427185,0.0,0.0,0.0,0.0,-0.18363472819328308
1666088427167872009,0.4413687288761139,0.0,0.0,0.0,0.0,-0.18498769402503967
1666088427280948568,0.4397837817668914,0.0,0.0,0.0,0.0,-0.18353040516376495
1666088427349891554,0.44764864444732666,0.0,0.0,0.0,0.0,-0.18232491612434387
1666088427405470048,0.363101452589035,0.0,0.0,0.0,0.0,-0.07586552202701569
1666088427471712481,0.4581861197948456,0.0,0.0,0.0,0.0,-0.1805897206068039
1666088427494202565,0.4571910500526428,0.0,0.0,0.0,0.0,-0.17964376509189606
1666088427625949511,0.38353872299194336,0.0,0.0,0.0,0.0,-0.07484254240989685
1666088427666764012,0.4814490377902984,0.0,0.0,0.0,0.0,-0.18116416037082672
1666088427790479885,0.4976784586906433,0.0,0.0,0.0,0.0,-0.18325471878051758
1666088427887065903,0.436105340719223,0.0,0.0,0.0,0.0,-0.08721783757209778
1666088427997399292,0.5310675501823425,0.0,0.0,0.0,0.0,-0.19155734777450562
1666088428085622259,0.5504848957061768,0.0,0.0,0.0,0.0,-0.19897931814193726
1666088428173564140,0.558740496635437,0.0,0.0,0.0,0.0,-0.20301267504692078
1666088428237543892,0.5684192776679993,0.0,0.0,0.0,0.0,-0.21350543200969696
1666088428292133429,0.5677084326744078,0.0,0.0,0.0,0.0,-0.21355430781841278
1666088428409541635,0.5676235556602478,0.0,0.0,0.0,0.0,-0.22090458869934082
1666088428500568871,0.4794592261314392,0.0,0.0,0.0,0.0,-0.13805246353149414
1666088428573989408,0.5588890910148621,0.0,0.0,0.0,0.0,-0.23378421366214752
1666088428615752362,0.5533607602119446,0.0,0.0,0.0,0.0,-0.23927710950374603
1666088428766058330,0.45209005475044245,0.0,0.0,0.0,0.0,-0.16116435825824738
1666088428807558087,0.5359250903129578,0.0,0.0,0.0,0.0,-0.25311678647994995
1666088428925894116,0.5175731182098389,0.0,0.0,0.0,0.0,-0.26377737522125244
1666088428961618874,0.51144939661026,0.0,0.0,0.0,0.0,-0.27247998118400574
1666088429047241193,0.5082013010978699,0.0,0.0,0.0,0.0,-0.27952638268470764
1666088429052146244,0.5079880356788635,0.0,0.0,0.0,0.0,-0.2794356346130371
1666088429136572247,0.3894232511520385,0.0,0.0,0.0,0.0,-0.20980188250541687
1666088429269934561,0.3862682282924652,0.0,0.0,0.0,0.0,-0.2161579430103302
1666088429344891752,0.4924484193325043,0.0,0.0,0.0,0.0,-0.2990482747554779
1666088429366151877,0.49294596910476685,0.0,0.0,0.0,0.0,-0.29816514253616333
1666088429432737939,0.4921422898769378,0.0,0.0,0.0,0.0,-0.3070490062236786
1666088429611586813,0.4923381507396698,0.0,0.0,0.0,0.0,-0.3122992515563965
1666088429653164186,0.5049721002578735,0.0,0.0,0.0,0.0,-0.5235987755982994
1666088429701769107,0.5179745554924011,0.0,0.0,0.0,0.0,-0.8726646259971653
1666088429860355930,0.5221421718597412,0.0,0.0,0.0,0.0,-1.2217304763960313
1666088429907432374,0.40691608190536493,0.0,0.0,0.0,0.0,-0.8726646259971653
1666088429993929573,0.5287743210792542,0.0,0.0,0.0,0.0,-1.2217304763960313
1666088430114475770,0.5255645513534546,0.0,0.0,0.0,0.0,-1.2217304763960313
1666088430135305956,0.5261688828468323,0.0,0.0,0.0,0.0,-1.2217304763960313
1666088430289044171,0.5303515791893005,0.0,0.0,0.0,0.0,-1.2217304763960313
1666088430408800307,0.5362743735313416,0.0,0.0,0.0,0.0,-1.2217304763960313
1666088430412674270,0.5352082848548889,0.0,0.0,0.0,0.0,-1.2217304763960313
1666088430496767167,0.4301448464393616,0.0,0.0,0.0,0.0,-1.2217304763960313
1666088430589409238,0.5555123090744017,0.0,0.0,0.0,0.0,-1.2217304763960313
1666088430635153608,0.5765184164047241,0.0,0.0,0.0,0.0,-1.2217304763960313
1666088430727613794,0.6020311117172241,0.0,0.0,0.0,0.0,-1.2217304763960313
1666088430792888555,0.6229913234710692,0.0,0.0,0.0,0.0,-1.0471975511965983
1666088430883770637,0.6423162817955016,0.0,0.0,0.0,0.0,-1.0471975511965983
1666088430931587107,0.6624557375907898,0.0,0.0,0.0,0.0,-1.0471975511965983
1666088431008782932,0.6916484236717224,0.0,0.0,0.0,0.0,-0.8726646259971653
1666088431119132580,0.7060896158218384,0.0,0.0,0.0,0.0,-0.8726646259971653
1666088431141032394,0.705023467540741,0.0,0.0,0.0,0.0,-0.8726646259971653
1666088431228134920,0.6733760833740234,0.0,0.0,0.0,0.0,-0.5235987755982994
1666088431272330126,0.6724520325660706,0.0,0.0,0.0,0.0,-0.5235987755982994
1666088431328768362,0.731367290019989,0.0,0.0,0.0,0.0,-0.3490658503988664
1666088431442888587,0.7171061038970947,0.0,0.0,0.0,0.0,-0.3490658503988664
1666088431533585397,0.7439714670181274,0.0,0.0,0.0,0.0,-0.07819078117609024
1666088431652516102,0.7381047010421753,0.0,0.0,0.0,0.0,-4.996003610813204e-16
1666088431696437990,0.7118989825248717,0.0,0.0,0.0,0.0,0.009610253386199474
1666088431790233002,0.7033337950706482,0.0,0.0,0.0,0.0,0.17453292519943245
1666088431899623669,0.670973002910614,0.0,0.0,0.0,0.0,0.3490658503988654
1666088431907773004,0.6707597970962524,0.0,0.0,0.0,0.0,0.3490658503988654
1666088432000775051,0.7116166949272156,0.0,0.0,0.0,0.0,0.5235987755982984
1666088432093078755,0.6348370909690857,0.0,0.0,0.0,0.0,0.3490658503988654
1666088432226275507,0.6213647127151489,0.0,0.0,0.0,0.0,0.5235987755982984
1666088432256314499,0.6231416463851929,0.0,0.0,0.0,0.0,0.5235987755982984
1666088432343868080,0.6828235983848572,0.0,0.0,0.0,0.0,0.5235987755982984
1666088432450627624,0.5459234118461609,0.0,0.0,0.0,0.0,0.6981317007977313
1666088432471332841,0.5458523631095886,0.0,0.0,0.0,0.0,0.6981317007977313
1666088432557062954,0.608372151851654,0.0,0.0,0.0,0.0,0.8726646259971643
1666088432599893876,0.6095094084739685,0.0,0.0,0.0,0.0,0.8726646259971643
1666088432643388084,0.5037238001823425,0.0,0.0,0.0,0.0,0.8726646259971643
1666088432732954220,0.48151281476020813,0.0,0.0,0.0,0.0,0.8726646259971643
1666088432812598748,0.4460412561893463,0.0,0.0,0.0,0.0,0.8726646259971643
1666088432850674140,0.44611233472824097,0.0,0.0,0.0,0.0,0.8726646259971643
1666088432944060413,0.43089285492897034,0.0,0.0,0.0,0.0,0.8726646259971643
1666088433019048576,0.4056834876537323,0.0,0.0,0.0,0.0,1.0471975511965972
1666088433079467223,0.5039957761764526,0.0,0.0,0.0,0.0,1.0471975511965972
1666088433110328634,0.5043511986732483,0.0,0.0,0.0,0.0,1.0471975511965972
1666088433201772209,0.48967716097831726,0.0,0.0,0.0,0.0,1.0471975511965972
1666088433263132895,0.36508750915527344,0.0,0.0,0.0,0.0,1.0471975511965972
1666088433370782525,0.35941264033317566,0.0,0.0,0.0,0.0,1.0471975511965972
1666088433396727687,0.36140280961990356,0.0,0.0,0.0,0.0,1.0471975511965972
1666088433450625501,0.4761084020137787,0.0,0.0,0.0,0.0,1.0471975511965972
1666088433545184632,0.36221686005592346,0.0,0.0,0.0,0.0,1.0471975511965972
1666088433583542533,0.36257222294807434,0.0,0.0,0.0,0.0,1.0471975511965972
1666088433674906717,0.37192347645759577,0.0,0.0,0.0,0.0,0.8726646259971643
1666088433750120018,0.38644540309906,0.0,0.0,0.0,0.0,0.8726646259971643
1666088433831674800,0.3995971083641052,0.0,0.0,0.0,0.0,0.8726646259971643
1666088433977917013,0.4127090573310852,0.0,0.0,0.0,0.0,0.8726646259971643
1666088434055856534,0.5142257809638977,0.0,0.0,0.0,0.0,0.6981317007977313
1666088434131477021,0.44646120071411133,0.0,0.0,0.0,0.0,0.6981317007977313
1666088434278100762,0.4633696377277374,0.0,0.0,0.0,0.0,0.6981317007977313
1666088434355539319,0.47435092926025385,0.0,0.0,0.0,0.0,0.6981317007977313
1666088434489874678,0.4862523674964905,0.0,0.0,0.0,0.0,0.5235987755982984
1666088434607221717,0.48764073848724365,0.0,0.0,0.0,0.0,0.5235987755982984
1666088434609923624,0.48291876912117004,0.0,0.0,0.0,0.0,0.3490658503988654
1666088434735178799,0.4752590358257293,0.0,0.0,0.0,0.0,0.05683348700404167
1666088434789145916,0.47511687874794006,0.0,0.0,0.0,0.0,0.05506372079253197
1666088434880380466,0.4612784683704376,0.0,0.0,0.0,0.0,0.04402885213494301
1666088434954049450,0.4447250664234161,0.0,0.0,0.0,0.0,0.03780931234359741
1666088435132951459,0.43487903475761414,0.0,0.0,0.0,0.0,0.03536466136574745
1666088435180952265,0.41408202052116394,0.0,0.0,0.0,0.0,0.5235987755982984
1666088435234978540,0.40342679619789124,0.0,0.0,0.0,0.0,0.5235987755982984
1666088435336233098,0.3974259197711944,0.0,0.0,0.0,0.0,0.5235987755982984
1666088435512218045,0.3791386187076568,0.0,0.0,0.0,0.0,0.5235987755982984
1666088435558339730,0.3630693554878235,0.0,0.0,0.0,0.0,0.5235987755982984
1666088435640268601,0.34542056918144226,0.0,0.0,0.0,0.0,0.5235987755982984
1666088435729950469,0.3285293579101562,0.0,0.0,0.0,0.0,0.5235987755982984
1666088435859171146,0.0,0.0,0.0,0.0,0.0,0.447309553063363
1666088435933692888,0.0,0.0,0.0,0.0,0.0,0.42750185503620486
1666088436038526107,0.0,0.0,0.0,0.0,0.0,0.42390040749931723
1666088436073214250,0.0,0.0,0.0,0.0,0.0,0.40623180554236366
1666088436203963181,0.0,0.0,0.0,0.0,0.0,0.4107733306691994
1666088436237444979,0.0,0.0,0.0,0.0,0.0,0.3919088274614963
1666088436340030526,0.0,0.0,0.0,0.0,0.0,0.37629908979785026
1666088436377794904,0.0,0.0,0.0,0.0,0.0,0.36419942917320375
1666088436394152905,0.0,0.0,0.0,0.0,0.0,0.35091792660857446
1666088436453620486,0.0,0.0,0.0,0.0,0.0,0.313276707019611
1666088436541638840,0.0,0.0,0.0,0.0,0.0,0.287974040294812
1666088436629542305,0.0,0.0,0.0,0.0,0.0,0.23934936118025954
1666088436716785476,0.0,0.0,0.0,0.0,0.0,0.22786476407910014
1666088436841212671,0.3899646997451782,0.0,0.0,0.0,0.0,0.17453292519943245
1666088436883964484,0.40808922052383423,0.0,0.0,0.0,0.0,0.17453292519943245
1666088436952548670,0.4342269301414489,0.0,0.0,0.0,0.0,0.17453292519943245
1666088437015671971,0.43394264578819275,0.0,0.0,0.0,0.0,0.17453292519943245
1666088437062161785,0.461502194404602,0.0,0.0,0.0,0.0,0.17453292519943245
1666088437183003622,0.4868744909763336,0.0,0.0,0.0,0.0,0.17453292519943245
1666088437229223168,0.49846839904785156,0.0,0.0,0.0,0.0,0.0774863138794899
1666088437277039230,0.5045046210289001,0.0,0.0,0.0,0.0,-4.996003610813204e-16
1666088437331733549,0.5253869891166687,0.0,0.0,0.0,0.0,-4.996003610813204e-16
1666088437443847461,0.5402057766914368,0.0,0.0,0.0,0.0,-4.996003610813204e-16
1666088437535298958,0.5579376816749572,0.0,0.0,0.0,0.0,-4.996003610813204e-16
1666088437637060806,0.5675181746482848,0.0,0.0,0.0,0.0,-0.07163529843091965
1666088437655570713,0.5672338604927063,0.0,0.0,0.0,0.0,-0.0719355046749115
1666088437746110765,0.5784070491790771,0.0,0.0,0.0,0.0,-0.07567819952964783
1666088437832453336,0.5865286588668823,0.0,0.0,0.0,0.0,-0.08777148276567459
1666088437875149068,0.5859600901603699,0.0,0.0,0.0,0.0,-0.08745034039020538
1666088437919640097,0.582232654094696,0.0,0.0,0.0,0.0,-0.0968913733959198
1666088437997417663,0.5849764943122864,0.0,0.0,0.0,0.0,-0.10607941448688507
1666088438082879684,0.5849577784538269,0.0,0.0,0.0,0.0,-0.11590936034917831
1666088438129613577,0.5877444744110107,0.0,0.0,0.0,0.0,-0.12760330736637115
1666088438264015784,0.5447365641593933,0.0,0.0,0.0,0.0,-0.03308740630745888
1666088438380338740,0.5750979781150818,0.0,0.0,0.0,0.0,-0.1519455760717392
1666088438460818340,0.5807821154594421,0.0,0.0,0.0,0.0,-0.1630328744649887
1666088438519117703,0.579787015914917,0.0,0.0,0.0,0.0,-0.16294561326503754
1666088438572492311,0.5697088837623596,0.0,0.0,0.0,0.0,-0.16909091174602509
1666088438635237603,0.5616964101791382,0.0,0.0,0.0,0.0,-0.17693032324314117
1666088438730597190,0.5466890335083008,0.0,0.0,0.0,0.0,-0.18782851099967957
1666088438771698453,0.5459071397781372,0.0,0.0,0.0,0.0,-0.1877656728029251
1666088438821756177,0.5290138721466064,0.0,0.0,0.0,0.0,-0.19278478622436523
1666088438873486275,0.44576913118362427,0.0,0.0,0.0,0.0,-0.10215570777654648
1666088438981241803,0.5099294781684875,0.0,0.0,0.0,0.0,-0.20699912309646606
1666088439074951425,0.4963847696781158,0.0,0.0,0.0,0.0,-0.2135716825723648
1666088439153845271,0.4791006445884704,0.0,0.0,0.0,0.0,-0.21922728419303894
1666088439247004346,0.44309476017951965,0.0,0.0,0.0,0.0,-0.22666500508785248
1666088439283617968,0.4433790445327759,0.0,0.0,0.0,0.0,-0.2267138808965683
1666088439376233186,0.4252563416957855,0.0,0.0,0.0,0.0,-0.22878414392471313
1666088439454133295,0.4098166227340698,0.0,0.0,0.0,0.0,-0.23107686638832092
1666088439501642802,0.3965363800525665,0.0,0.0,0.0,0.0,-0.23315094411373138
1666088439584581914,0.3955834805965423,0.0,0.0,0.0,0.0,-0.5235987755982994
1666088439674703365,0.3909916877746582,0.0,0.0,0.0,0.0,-0.6981317007977323
1666088439719902664,0.39439621567726135,0.0,0.0,0.0,0.0,-0.8726646259971653
1666088439839468489,0.399715781211853,0.0,0.0,0.0,0.0,-0.8726646259971653
1666088439886568768,0.2593677043914795,0.0,0.0,0.0,0.0,-1.2217304763960313
1666088439978723757,0.4038554728031158,0.0,0.0,0.0,0.0,-1.3962634015954642
1666088440051327617,0.40384265780448914,0.0,0.0,0.0,0.0,-1.3962634015954642
1666088440054519004,0.403131902217865,0.0,0.0,0.0,0.0,-1.3962634015954642
1666088440185434839,0.39602696895599365,0.0,0.0,0.0,0.0,-1.3962634015954642
1666088440271578739,0.25297981500625605,0.0,0.0,0.0,0.0,-1.3962634015954642
1666088440290876851,0.2518332004547119,0.0,0.0,0.0,0.0,-1.3962634015954642
1666088440362017729,0.3908514678478241,0.0,0.0,0.0,0.0,-1.5707963267948972
1666088440376589798,0.39568468928337097,0.0,0.0,0.0,0.0,-1.5707963267948972
1666088440479370566,0.3961624801158905,0.0,0.0,0.0,0.0,-1.5707963267948972
1666088440567046862,0.258257120847702,0.0,0.0,0.0,0.0,-1.3962634015954642
1666088440655432459,0.2791036367416382,0.0,0.0,0.0,0.0,-1.3962634015954642
1666088440698921857,0.4358882904052734,0.0,0.0,0.0,0.0,-1.5707963267948972
1666088440822436345,0.3100286424160003,0.0,0.0,0.0,0.0,-1.3962634015954642
1666088440910229444,0.4573043882846832,0.0,0.0,0.0,0.0,-1.3962634015954642
1666088440955069478,0.3437733054161072,0.0,0.0,0.0,0.0,-1.3962634015954642
1666088441012887118,0.36569154262542725,0.0,0.0,0.0,0.0,-1.3962634015954642
1666088441122676367,0.514640212059021,0.0,0.0,0.0,0.0,-1.0471975511965983
1666088441256121173,0.49730733036994934,0.0,0.0,0.0,0.0,-0.6981317007977323
1666088441298855058,0.5383453369140625,0.0,0.0,0.0,0.0,-0.5235987755982994
1666088441420470768,0.5762983560562134,0.0,0.0,0.0,0.0,-0.3768189549446106
1666088441515590006,0.682059347629547,0.0,0.0,0.0,0.0,-0.35225191712379456
1666088441545602802,0.7400771379470825,0.0,0.0,0.0,0.0,-0.33895447850227356
1666088441727460393,0.7999999999999999,0.0,0.0,0.0,0.0,-0.2926015555858612
1666088441779739197,0.7999999999999999,0.0,0.0,0.0,0.0,-0.2656933069229126
1666088441820393410,0.7999999999999999,0.0,0.0,0.0,0.0,-0.26548388600349426
1666088441874245536,0.7999999999999999,0.0,0.0,0.0,0.0,-0.16006354987621307
1666088441983339519,0.7999999999999999,0.0,0.0,0.0,0.0,-0.13007627427577972
1666088442074894082,0.7999999999999999,0.0,0.0,0.0,0.0,-0.17242173850536346
1666088442133967196,0.7999999999999999,0.0,0.0,0.0,0.0,-0.1507023274898529
1666088442247199451,0.7999999999999999,0.0,0.0,0.0,0.0,-0.13144508004188538
1666088442341520369,0.7999999999999999,0.0,0.0,0.0,0.0,-0.11284169554710388
1666088442394134084,0.7999999999999999,0.0,0.0,0.0,0.0,-0.10098771005868912
1666088442506181886,0.7999999999999999,0.0,0.0,0.0,0.0,-0.008888527750968933
1666088442551488569,0.7999999999999999,0.0,0.0,0.0,0.0,-0.08592546731233597
1666088442638632908,0.7999999999999999,0.0,0.0,0.0,0.0,-0.08210517466068268
1666088442694078143,0.7999999999999999,0.0,0.0,0.0,0.0,-4.996003610813204e-16
1666088442758862505,0.7999999999999999,0.0,0.0,0.0,0.0,-0.07764298468828201
1666088442892201549,0.7999999999999999,0.0,0.0,0.0,0.0,-0.07733053714036942
1666088442979908251,0.7496324777603149,0.0,0.0,0.0,0.0,-0.07848750054836273
1666088443110464225,0.702640950679779,0.0,0.0,0.0,0.0,-0.17453292519943345
1666088443141159987,0.6758086681365967,0.0,0.0,0.0,0.0,-0.07922561466693878
1666088443210159649,0.6401703357696533,0.0,0.0,0.0,0.0,-0.07927852123975754
1666088443228171463,0.6417340636253357,0.0,0.0,0.0,0.0,-0.07938673347234726
1666088443316667858,0.6070421934127807,0.0,0.0,0.0,0.0,-0.07935290038585663
1666088443377373847,0.5718514919281006,0.0,0.0,0.0,0.0,-0.07868967205286026
1666088443487369174,0.5431938767433167,0.0,0.0,0.0,0.0,-0.07779192924499512
1666088443534526885,0.5130863189697266,0.0,0.0,0.0,0.0,-0.07681817561388016
1666088443654823686,0.44724735617637634,0.0,0.0,0.0,0.0,-0.07393650710582733
1666088443737348966,0.4166345298290252,0.0,0.0,0.0,0.0,-0.07387556880712509
1666088443791877071,0.4181271493434906,0.0,0.0,0.0,0.0,-0.07390699535608292
1666088443877246700,0.0,0.0,0.0,0.0,0.0,-4.996003610813204e-16
1666088443921549386,0.0,0.0,0.0,0.0,0.0,-4.996003610813204e-16
1666088443997003947,0.0,0.0,0.0,0.0,0.0,-4.996003610813204e-16
1666088444087687193,0.0,0.0,0.0,0.0,0.0,-4.996003610813204e-16
1666088444217664706,0.0,0.0,0.0,0.0,0.0,-4.996003610813204e-16
1666088444273510395,0.0,0.0,0.0,0.0,0.0,-4.996003610813204e-16
1666088444295389308,0.0,0.0,0.0,0.0,0.0,-4.996003610813204e-16
1666088444389739689,0.0,0.0,0.0,0.0,0.0,-4.996003610813204e-16
1666088444484816054,0.0,0.0,0.0,0.0,0.0,-4.996003610813204e-16
1666088444492722051,0.0,0.0,0.0,0.0,0.0,-4.996003610813204e-16
1666088444605790153,0.0,0.0,0.0,0.0,0.0,-4.996003610813204e-16
1666088444743270313,0.42674031853675837,0.0,0.0,0.0,0.0,-0.05842690169811249
1666088444807867122,0.4555862247943878,0.0,0.0,0.0,0.0,-0.05311817303299904
1666088444817274913,0.4555151164531707,0.0,0.0,0.0,0.0,-0.05314260721206665
1666088444952456765,0.5214500427246094,0.0,0.0,0.0,0.0,0.07028315216302872
1666088444994650095,0.5438734292984009,0.0,0.0,0.0,0.0,-0.03556613251566887
1666088445094701247,0.5729602575302124,0.0,0.0,0.0,0.0,-0.028901640325784683
1666088445122609802,0.5720363259315491,0.0,0.0,0.0,0.0,-0.02887720614671707
1666088445215199520,0.5985487699508667,0.0,0.0,0.0,0.0,-0.022767024114727974
1666088445311954438,0.6544021964073181,0.0,0.0,0.0,0.0,-0.010240772739052773
1666088445314937141,0.6539046764373779,0.0,0.0,0.0,0.0,-0.010282659903168678
1666088445380509755,0.6710020303726196,0.0,0.0,0.0,0.0,-0.005954391788691282
1666088445468971830,0.6958134174346923,0.0,0.0,0.0,0.0,-0.001293465495109558
1666088445516439316,0.7161281108856201,0.0,0.0,0.0,0.0,0.0039744689129292965
1666088445600446894,0.7290146946907042,0.0,0.0,0.0,0.0,0.0080499779433012
1666088445659562872,0.7512494921684265,0.0,0.0,0.0,0.0,0.014150260016322136
1666088445764038924,0.7580804228782654,0.0,0.0,0.0,0.0,0.018415290862321854
1666088445809471129,0.7637244462966919,0.0,0.0,0.0,0.0,0.02325385808944702
1666088445895846390,0.7654381990432739,0.0,0.0,0.0,0.0,0.028283121064305305
1666088445983724914,0.7638134360313416,0.0,0.0,0.0,0.0,0.031706199049949646
1666088446064829433,0.7605786919593811,0.0,0.0,0.0,0.0,0.03414657339453697
1666088446154204250,0.7539361119270324,0.0,0.0,0.0,0.0,0.03796088322997093
1666088446218672871,0.7758696675300598,0.0,0.0,0.0,0.0,0.1285114735364914
1666088446269235537,0.744509994983673,0.0,0.0,0.0,0.0,0.039722323417663574
1666088446378505190,0.7406982779502869,0.0,0.0,0.0,0.0,0.03979692980647087
1666088446406216387,0.7398453950881958,0.0,0.0,0.0,0.0,0.039643339812755585
1666088446492927063,0.7617595195770263,0.0,0.0,0.0,0.0,0.13001184165477753
1666088446579156694,0.7566558718681335,0.0,0.0,0.0,0.0,0.1298944503068924
1666088446624831127,0.7219219207763672,0.0,0.0,0.0,0.0,0.04131818562746048
1666088446640718791,0.7489584088325499,0.0,0.0,0.0,0.0,0.13600923120975494
1666088446752060904,0.708528161048889,0.0,0.0,0.0,0.0,0.0502299889922142
1666088446880699576,0.6963263750076294,0.0,0.0,0.0,0.0,0.3490658503988654
1666088446924659352,0.6871184110641478,0.0,0.0,0.0,0.0,0.3490658503988654
1666088447002434185,0.670074999332428,0.0,0.0,0.0,0.0,0.3490658503988654
1666088447091754472,0.6496052145957947,0.0,0.0,0.0,0.0,0.3490658503988654
1666088447138603507,0.6712278127670288,0.0,0.0,0.0,0.0,0.3490658503988654
1666088447263032507,0.6483668684959412,0.0,0.0,0.0,0.0,0.5235987755982984
1666088447392606425,0.5682337880134583,0.0,0.0,0.0,0.0,0.5235987755982984
1666088447439682508,0.6009833812713623,0.0,0.0,0.0,0.0,0.6981317007977313
1666088447522100669,0.5138195753097534,0.0,0.0,0.0,0.0,0.6981317007977313
1666088447613134130,0.4631776809692383,0.0,0.0,0.0,0.0,0.6981317007977313
1666088447664117762,0.44225257635116577,0.0,0.0,0.0,0.0,0.6981317007977313
1666088447785313492,0.513995885848999,0.0,0.0,0.0,0.0,0.8726646259971643
1666088447878052216,0.4117755591869354,0.0,0.0,0.0,0.0,0.6981317007977313
1666088447952725850,0.48348525166511536,0.0,0.0,0.0,0.0,0.8726646259971643
1666088448031389819,0.4771290421485901,0.0,0.0,0.0,0.0,0.8726646259971643
1666088448038637042,0.47641828656196594,0.0,0.0,0.0,0.0,0.8726646259971643
1666088448130383501,0.3688983917236328,0.0,0.0,0.0,0.0,0.6981317007977313
1666088448174487022,0.3688983917236328,0.0,0.0,0.0,0.0,0.6981317007977313
1666088448263754904,0.3656630218029022,0.0,0.0,0.0,0.0,0.6981317007977313
1666088448281893079,0.45760864019393915,0.0,0.0,0.0,0.0,0.6981317007977313
1666088448384056538,0.35892409086227417,0.0,0.0,0.0,0.0,0.6981317007977313
1666088448440088758,0.3574945628643036,0.0,0.0,0.0,0.0,0.6981317007977313
1666088448546628175,0.35805371403694153,0.0,0.0,0.0,0.0,0.6981317007977313
1666088448590236948,0.3620589971542358,0.0,0.0,0.0,0.0,0.6981317007977313
1666088448680703017,0.3679509162902832,0.0,0.0,0.0,0.0,0.5235987755982984
1666088448728816198,0.37547144293785095,0.0,0.0,0.0,0.0,0.5235987755982984
1666088448799705461,0.38349324464797974,0.0,0.0,0.0,0.0,0.5235987755982984
1666088448930953813,0.3886762857437134,0.0,0.0,0.0,0.0,0.5235987755982984
1666088448993656982,0.3909146189689636,0.0,0.0,0.0,0.0,0.5235987755982984
1666088449019694293,0.3886532187461853,0.0,0.0,0.0,0.0,0.5235987755982984
1666088449105347431,0.38704702258110046,0.0,0.0,0.0,0.0,0.3490658503988654
1666088449189486993,0.4192616045475006,0.0,0.0,0.0,0.0,0.3490658503988654
1666088449233721585,0.36333879828453064,0.0,0.0,0.0,0.0,0.3490658503988654
1666088449360530193,0.0,0.0,0.0,0.0,0.0,0.25178209661927914
1666088449435275083,0.0,0.0,0.0,0.0,0.0,0.23704192638811303
1666088449436894371,0.0,0.0,0.0,0.0,0.0,0.2306480797400239
1666088449527025557,0.0,0.0,0.0,0.0,0.0,0.24114778686896518
1666088449618286810,0.0,0.0,0.0,0.0,0.0,0.2398816585707283
1666088449695833808,0.0,0.0,0.0,0.0,0.0,0.23716243524206265
1666088449781535704,0.0,0.0,0.0,0.0,0.0,0.23525454567155193
1666088449873158254,0.0,0.0,0.0,0.0,0.0,0.23199377661202855
1666088449964772300,0.0,0.0,0.0,0.0,0.0,0.22432524561392847
1666088450081389101,0.0,0.0,0.0,0.0,0.0,0.17453292519943245
1666088450217023414,0.0,0.0,0.0,0.0,0.0,0.17453292519943245
1666088450280419445,0.0,0.0,0.0,0.0,0.0,0.17453292519943245
1666088450296700082,0.0,0.0,0.0,0.0,0.0,0.17453292519943245
1666088450428870184,0.0,0.0,0.0,0.0,0.0,0.17453292519943245
1666088450549958387,0.0,0.0,0.0,0.0,0.0,0.17453292519943245
1666088450599562892,0.0,0.0,0.0,0.0,0.0,-4.996003610813204e-16
1666088450641410870,0.0,0.0,0.0,0.0,0.0,-4.996003610813204e-16
1666088450761991418,0.0,0.0,0.0,0.0,0.0,-4.996003610813204e-16
1666088450849549321,0.0,0.0,0.0,0.0,0.0,-4.996003610813204e-16
1666088450894502288,0.0,0.0,0.0,0.0,0.0,-4.996003610813204e-16
1666088450985305588,0.0,0.0,0.0,0.0,0.0,-4.996003610813204e-16
1666088451064602146,0.0,0.0,0.0,0.0,0.0,-4.996003610813204e-16
1666088451157682688,0.0,0.0,0.0,0.0,0.0,-4.996003610813204e-16
1666088451201400364,0.0,0.0,0.0,0.0,0.0,-4.996003610813204e-16
1666088451239290440,0.0,0.0,0.0,0.0,0.0,-4.996003610813204e-16
1666088451378835807,0.0,0.0,0.0,0.0,0.0,-4.996003610813204e-16
1666088451425838252,0.0,0.0,0.0,0.0,0.0,-4.996003610813204e-16
1666088451545507927,0.0,0.0,0.0,0.0,0.0,-4.996003610813204e-16
1666088451641433396,0.0,0.0,0.0,0.0,0.0,-4.996003610813204e-16
1666088451718528423,0.0,0.0,0.0,0.0,0.0,-4.996003610813204e-16
1666088451764956174,0.0,0.0,0.0,0.0,0.0,-4.996003610813204e-16
1666088451860878812,0.0,0.0,0.0,0.0,0.0,-4.996003610813204e-16
1666088451910126163,0.0,0.0,0.0,0.0,0.0,-4.996003610813204e-16
1666088452034834562,0.0,0.0,0.0,0.0,0.0,-4.996003610813204e-16
1666088452080658808,0.0,0.0,0.0,0.0,0.0,-4.996003610813204e-16
1666088452137700888,0.0,0.0,0.0,0.0,0.0,-4.996003610813204e-16
1666088452205250331,0.0,0.0,0.0,0.0,0.0,-4.996003610813204e-16
1666088452301711766,0.0,0.0,0.0,0.0,0.0,-4.996003610813204e-16
1666088452357503129,0.0,0.0,0.0,0.0,0.0,-4.996003610813204e-16
1666088452425180427,0.0,0.0,0.0,0.0,0.0,-4.996003610813204e-16
1666088452540614815,0.0,0.0,0.0,0.0,0.0,-4.996003610813204e-16
1666088452566797048,0.0,0.0,0.0,0.0,0.0,-4.996003610813204e-16
1666088452654123565,0.0,0.0,0.0,0.0,0.0,-4.996003610813204e-16
1666088452685746069,0.0,0.0,0.0,0.0,0.0,-4.996003610813204e-16
1666088452775814169,0.0,0.0,0.0,0.0,0.0,-4.996003610813204e-16
1666088452822570526,0.0,0.0,0.0,0.0,0.0,-4.996003610813204e-16
1666088452880589655,0.0,0.0,0.0,0.0,0.0,-4.996003610813204e-16
1666088452946017762,0.0,0.0,0.0,0.0,0.0,-4.996003610813204e-16
1666088453038023490,0.0,0.0,0.0,0.0,0.0,-4.996003610813204e-16
1666088453125787204,0.0,0.0,0.0,0.0,0.0,-4.996003610813204e-16
1666088453141515644,0.0,0.0,0.0,0.0,0.0,-4.996003610813204e-16
1666088453203130331,0.0,0.0,0.0,0.0,0.0,-4.996003610813204e-16
1666088453334100122,0.0,0.0,0.0,0.0,0.0,-4.996003610813204e-16
1666088453420979808,0.0,0.0,0.0,0.0,0.0,-4.996003610813204e-16
1666088453465171026,0.0,0.0,0.0,0.0,0.0,-4.996003610813204e-16
1666088453542339110,0.0,0.0,0.0,0.0,0.0,-4.996003610813204e-16
1666088453630466473,0.0,0.0,0.0,0.0,0.0,-4.996003610813204e-16
1666088453721118235,0.0,0.0,0.0,0.0,0.0,-4.996003610813204e-16
1666088453769160319,0.0,0.0,0.0,0.0,0.0,-4.996003610813204e-16
1666088453885995267,0.0,0.0,0.0,0.0,0.0,-4.996003610813204e-16
1666088453930821404,0.0,0.0,0.0,0.0,0.0,0.17453292519943245
1666088454021927142,0.0,0.0,0.0,0.0,0.0,0.17453292519943245
1666088454079892638,0.0,0.0,0.0,0.0,0.0,0.17453292519943245
1666088454141904978,0.0,0.0,0.0,0.0,0.0,0.17453292519943245
1666088454228875655,0.0,0.0,0.0,0.0,0.0,0.17453292519943245
1666088454361471241,0.0,0.0,0.0,0.0,0.0,0.17453292519943245
1666088454409839919,0.0,0.0,0.0,0.0,0.0,0.17453292519943245
1666088454486933322,0.0,0.0,0.0,0.0,0.0,0.17453292519943245
1666088454617104924,0.0,0.0,0.0,0.0,0.0,0.2220234929049244
1666088454663055802,0.0,0.0,0.0,0.0,0.0,0.2165685116157388
1666088454782092800,0.0,0.0,0.0,0.0,0.0,0.22545832902013965
1666088454869042831,0.0,0.0,0.0,0.0,0.0,0.22726888576329618
1666088454905260340,0.0,0.0,0.0,0.0,0.0,0.22460619157102352
1666088454957191824,0.0,0.0,0.0,0.0,0.0,0.22573936170355266
1666088455049356899,0.0,0.0,0.0,0.0,0.0,0.23008697776288647
1666088455127188306,0.0,0.0,0.0,0.0,0.0,0.22990798804094914
1666088455212632538,0.0,0.0,0.0,0.0,0.0,0.229381145175143
1666088455254401016,0.0,0.0,0.0,0.0,0.0,0.22641319567196402
1666088455341181067,0.0,0.0,0.0,0.0,0.0,0.22995379151216155
1666088455370187231,0.0,0.0,0.0,0.0,0.0,0.22564007419436644
1666088455480849015,0.0,0.0,0.0,0.0,0.0,0.22785145266773615
1666088455509981055,0.0,0.0,0.0,0.0,0.0,0.22256125228686768
1666088455600597764,0.0,0.0,0.0,0.0,0.0,0.22356754136618304
1666088455674733955,0.0,0.0,0.0,0.0,0.0,0.22121439645510843
1666088455680113788,0.0,0.0,0.0,0.0,0.0,0.2167761992222213
1666088455818458987,0.0,0.0,0.0,0.0,0.0,0.22278186268782674
1666088455940284616,0.0,0.0,0.0,0.0,0.0,0.17453292519943245
1666088456052382129,0.0,0.0,0.0,0.0,0.0,0.17453292519943245
1666088456073525335,0.0,0.0,0.0,0.0,0.0,0.17453292519943245
1666088456217646078,0.0,0.0,0.0,0.0,0.0,0.17453292519943245
1666088456218950033,0.0,0.0,0.0,0.0,0.0,0.17453292519943245
1666088456355539780,0.0,0.0,0.0,0.0,0.0,0.17453292519943245
1666088456377830882,0.0,0.0,0.0,0.0,0.0,0.17453292519943245
1666088456446213917,0.0,0.0,0.0,0.0,0.0,0.17453292519943245
1666088456635478479,0.0,0.0,0.0,0.0,0.0,0.17453292519943245
1666088456723035155,0.0,0.0,0.0,0.0,0.0,0.17453292519943245
1666088456769122016,0.0,0.0,0.0,0.0,0.0,0.17453292519943245
1666088456841137857,0.0,0.0,0.0,0.0,0.0,0.17453292519943245
1666088456958019220,0.0,0.0,0.0,0.0,0.0,0.17453292519943245
1666088456972901508,0.0,0.0,0.0,0.0,0.0,0.17453292519943245
1666088457061802039,0.0,0.0,0.0,0.0,0.0,0.17453292519943245
1666088457104884633,0.0,0.0,0.0,0.0,0.0,0.17453292519943245
1666088457155355694,0.0,0.0,0.0,0.0,0.0,0.17453292519943245
1666088457229268606,0.0,0.0,0.0,0.0,0.0,0.17453292519943245
1666088457317782687,0.0,0.0,0.0,0.0,0.0,0.17453292519943245
1666088457404862563,0.0,0.0,0.0,0.0,0.0,0.17453292519943245
1666088457525467012,0.0,0.0,0.0,0.0,0.0,0.17453292519943245
1666088457572974115,0.0,0.0,0.0,0.0,0.0,0.17453292519943245
1666088457692793352,0.0,0.0,0.0,0.0,0.0,0.17453292519943245
1666088457785343536,0.0,0.0,0.0,0.0,0.0,0.17453292519943245
1666088457858687332,0.0,0.0,0.0,0.0,0.0,0.17453292519943245
1666088457864722824,0.0,0.0,0.0,0.0,0.0,0.17453292519943245
1666088457998260855,0.0,0.0,0.0,0.0,0.0,0.17453292519943245
1666088458090755475,0.0,0.0,0.0,0.0,0.0,0.17453292519943245
1666088458204603776,0.0,0.0,0.0,0.0,0.0,0.17453292519943245
1666088458350321750,0.0,0.0,0.0,0.0,0.0,0.17453292519943245
1666088458384724793,0.0,0.0,0.0,0.0,0.0,0.17453292519943245
