%time,field.linear.x,field.linear.y,field.linear.z,field.angular.x,field.angular.y,field.angular.z
1666088421482284219,0.015,0.0,0.0,0.0,0.0,-0.048138592307306036
1666088421531535872,0.03,0.0,0.0,0.0,0.0,-0.09627718461461207
1666088421582118364,0.045,0.0,0.0,0.0,0.0,-0.14710062286030456
1666088421631520213,0.06,0.0,0.0,0.0,0.0,-0.19792406110599706
1666088421681558503,0.0727553914277603,0.0,0.0,0.0,0.0,-0.29792406110599706
1666088421733055460,0.08454877908623301,0.0,0.0,0.0,0.0,-0.3979240611059971
1666088421781428100,0.09634216674470573,0.0,0.0,0.0,0.0,-0.4979240611059971
1666088421832086311,0.11134216674470573,0.0,0.0,0.0,0.0,-0.5560761760462901
1666088421881758106,0.09195754462342126,0.0,0.0,0.0,0.0,-0.6560761760462901
1666088421931511277,0.07257292250213679,0.0,0.0,0.0,0.0,-0.7560761760462901
1666088421983587576,0.05407872181041917,0.0,0.0,0.0,0.0,-0.85607617604629
1666088422031529492,0.031828522951048495,0.0,0.0,0.0,0.0,-0.95607617604629
1666088422081942663,0.0066458930723320465,0.0,0.0,0.0,0.0,-1.05607617604629
1666088422131480769,0.0,0.0,0.0,0.0,0.0,-1.098013757241351
1666088422182174800,0.0,0.0,0.0,0.0,0.0,-1.098013757241351
1666088422231746520,0.0,0.0,0.0,0.0,0.0,-1.1092743200660333
1666088422281691039,0.0,0.0,0.0,0.0,0.0,-1.1092743200660333
1666088422331585910,0.0,0.0,0.0,0.0,0.0,-1.0857912554864375
1666088422381820635,0.0,0.0,0.0,0.0,0.0,-1.0689539275028548
1666088422431526184,0.0,0.0,0.0,0.0,0.0,-1.0689539275028548
1666088422481469073,0.0,0.0,0.0,0.0,0.0,-1.066286310468267
1666088422531670093,0.0,0.0,0.0,0.0,0.0,-1.066286310468267
1666088422581574981,0.0,0.0,0.0,0.0,0.0,-1.0471975511965983
1666088422631582168,0.0,0.0,0.0,0.0,0.0,-0.9636366283528942
1666088422681497592,0.0,0.0,0.0,0.0,0.0,-0.9636366283528942
1666088422731499269,0.0,0.0,0.0,0.0,0.0,-0.8736703378107441
1666088422781693886,0.0,0.0,0.0,0.0,0.0,-0.8736703378107441
1666088422831651602,0.0,0.0,0.0,0.0,0.0,-0.8151982359082568
1666088422881686745,0.0,0.0,0.0,0.0,0.0,-0.8131289573190595
1666088422931490354,0.0,0.0,0.0,0.0,0.0,-0.7412912729794857
1666088422981482457,0.0,0.0,0.0,0.0,0.0,-0.7412912729794857
1666088423032581573,0.0,0.0,0.0,0.0,0.0,-0.6551478043201431
1666088423081783173,0.0,0.0,0.0,0.0,0.0,-0.6551478043201431
1666088423134475836,0.0,0.0,0.0,0.0,0.0,-0.5646792577463728
1666088423181527159,0.0,0.0,0.0,0.0,0.0,-0.5646792577463728
1666088423231467278,0.0,0.0,0.0,0.0,0.0,-0.3927930157887068
1666088423284361983,0.0,0.0,0.0,0.0,0.0,-0.3917406466554192
1666088423332485390,0.0,0.0,0.0,0.0,0.0,-0.3189852234812329
1666088423382028010,0.0,0.0,0.0,0.0,0.0,-0.3189852234812329
1666088423431695092,0.0,0.0,0.0,0.0,0.0,-0.2554664831323031
1666088423481791760,0.015,0.0,0.0,0.0,0.0,-0.25012336974964056
1666088423531690333,0.03,0.0,0.0,0.0,0.0,-0.24466895784441892
1666088423581936956,0.045,0.0,0.0,0.0,0.0,-0.23921454593919728
1666088423631515529,0.06,0.0,0.0,0.0,0.0,-0.23376013403397564
1666088423682370662,0.075,0.0,0.0,0.0,0.0,-0.22827407525993826
1666088423731774989,0.09,0.0,0.0,0.0,0.0,-0.22278801648590088
1666088423781500721,0.105,0.0,0.0,0.0,0.0,-0.21726846842283082
1666088423831571176,0.12,0.0,0.0,0.0,0.0,-0.20894077646981207
1666088423882516404,0.135,0.0,0.0,0.0,0.0,-0.20061308451679333
1666088423932285208,0.15000000000000002,0.0,0.0,0.0,0.0,-0.19502168521030339
1666088423986267080,0.16500000000000004,0.0,0.0,0.0,0.0,-0.18943028590381344
1666088424031392671,0.18000000000000005,0.0,0.0,0.0,0.0,-0.18081836955242675
1666088424082299652,0.19500000000000006,0.0,0.0,0.0,0.0,-0.17206494600525546
1666088424131580964,0.21000000000000008,0.0,0.0,0.0,0.0,-0.16331152245808417
1666088424181800827,0.2250000000000001,0.0,0.0,0.0,0.0,-0.15455809891091288
1666088424231461957,0.2400000000000001,0.0,0.0,0.0,0.0,-0.1453099705030235
1666088424281630506,0.2550000000000001,0.0,0.0,0.0,0.0,-0.1360618420951341
1666088424333186725,0.27000000000000013,0.0,0.0,0.0,0.0,-0.12562275120995026
1666088424381653678,0.28500000000000014,0.0,0.0,0.0,0.0,-0.1151836603247664
1666088424431489376,0.30000000000000016,0.0,0.0,0.0,0.0,-0.10474456943958253
1666088424482319784,0.31500000000000017,0.0,0.0,0.0,0.0,-0.09309282889916777
1666088424531500265,0.3300000000000002,0.0,0.0,0.0,0.0,-0.07952222112436357
1666088424581765182,0.3450000000000002,0.0,0.0,0.0,0.0,-0.06595161334955936
1666088424632001507,0.19500000000000017,0.0,0.0,0.0,0.0,-0.03727699884975117
1666088424682013629,0.04500000000000015,0.0,0.0,0.0,0.0,-0.008602384349942985
1666088424731436989,0.0,0.0,0.0,0.0,0.0,-4.996003610813204e-16
1666088424781789622,0.0,0.0,0.0,0.0,0.0,-4.996003610813204e-16
1666088424831807911,0.0,0.0,0.0,0.0,0.0,-4.996003610813204e-16
1666088424881672000,0.0,0.0,0.0,0.0,0.0,-4.996003610813204e-16
1666088424931542902,0.0,0.0,0.0,0.0,0.0,-4.996003610813204e-16
1666088424989655446,0.0,0.0,0.0,0.0,0.0,-4.996003610813204e-16
1666088425031903727,0.0,0.0,0.0,0.0,0.0,-4.996003610813204e-16
1666088425081876290,0.0,0.0,0.0,0.0,0.0,-4.996003610813204e-16
1666088425131552493,0.0,0.0,0.0,0.0,0.0,-4.996003610813204e-16
1666088425181514646,0.0,0.0,0.0,0.0,0.0,-4.996003610813204e-16
1666088425231963114,0.0,0.0,0.0,0.0,0.0,-4.996003610813204e-16
1666088425281866156,0.0,0.0,0.0,0.0,0.0,-4.996003610813204e-16
1666088425331839982,0.0,0.0,0.0,0.0,0.0,-4.996003610813204e-16
1666088425381518531,0.0,0.0,0.0,0.0,0.0,-4.996003610813204e-16
1666088425431470349,0.0,0.0,0.0,0.0,0.0,-4.996003610813204e-16
1666088425481553569,0.0,0.0,0.0,0.0,0.0,-4.996003610813204e-16
1666088425532105956,0.0,0.0,0.0,0.0,0.0,-0.1000000000000005
1666088425581467566,0.0,0.0,0.0,0.0,0.0,-0.17453292519943345
1666088425631640470,0.0,0.0,0.0,0.0,0.0,-0.17453292519943345
1666088425681622669,0.0,0.0,0.0,0.0,0.0,-0.17453292519943345
1666088425732034336,0.0,0.0,0.0,0.0,0.0,-0.17453292519943345
1666088425781576727,0.0,0.0,0.0,0.0,0.0,-0.24504297160817917
1666088425831460419,0.0,0.0,0.0,0.0,0.0,-0.24504297160817917
1666088425881976622,0.0,0.0,0.0,0.0,0.0,-0.31268422853525757
1666088425931444202,0.0,0.0,0.0,0.0,0.0,-0.31268422853525757
1666088425982566997,0.0,0.0,0.0,0.0,0.0,-0.3588589722002862
1666088426031650181,0.0,0.0,0.0,0.0,0.0,-0.3513408937956334
1666088426081441398,0.0,0.0,0.0,0.0,0.0,-0.3513408937956334
1666088426131503613,0.0,0.0,0.0,0.0,0.0,-0.40998674546484987
1666088426182315321,0.0,0.0,0.0,0.0,0.0,-0.4349369319123746
1666088426231700392,0.0,0.0,0.0,0.0,0.0,-0.4349369319123746
1666088426282293346,0.0,0.0,0.0,0.0,0.0,-0.47048349400935674
1666088426331414002,0.0,0.0,0.0,0.0,0.0,-0.47048349400935674
1666088426381837379,0.0,0.0,0.0,0.0,0.0,-0.47048349400935674
1666088426431495906,0.0,0.0,0.0,0.0,0.0,-0.5378321589745177
1666088426481725839,0.0,0.0,0.0,0.0,0.0,-0.5378321589745177
1666088426531418202,0.0,0.0,0.0,0.0,0.0,-0.545418813089636
1666088426581832253,0.0,0.0,0.0,0.0,0.0,-0.545418813089636
1666088426631680608,0.0,0.0,0.0,0.0,0.0,-0.5560156277230544
1666088426681821086,0.0,0.0,0.0,0.0,0.0,-0.5560156277230544
1666088426732500638,0.015,0.0,0.0,0.0,0.0,-0.5417686302650532
1666088426782870493,0.03,0.0,0.0,0.0,0.0,-0.527521632807052
1666088426831468099,0.045,0.0,0.0,0.0,0.0,-0.513908323048323
1666088426881467553,0.06,0.0,0.0,0.0,0.0,-0.500295013289594
1666088426931749204,0.075,0.0,0.0,0.0,0.0,-0.4875163104738688
1666088426981518923,0.09,0.0,0.0,0.0,0.0,-0.47473760765814355
1666088427031581054,0.105,0.0,0.0,0.0,0.0,-0.46222308507810106
1666088427081711817,0.12,0.0,0.0,0.0,0.0,-0.4497085624980586
1666088427131755245,0.135,0.0,0.0,0.0,0.0,-0.4371664033109768
1666088427181531615,0.15000000000000002,0.0,0.0,0.0,0.0,-0.4248195797524319
1666088427231462914,0.16500000000000004,0.0,0.0,0.0,0.0,-0.412472756193887
1666088427282833013,0.18000000000000005,0.0,0.0,0.0,0.0,-0.39997516538496103
1666088427331567814,0.19500000000000006,0.0,0.0,0.0,0.0,-0.38747757457603504
1666088427381610336,0.21000000000000008,0.0,0.0,0.0,0.0,-0.37529745825873995
1666088427431903918,0.2250000000000001,0.0,0.0,0.0,0.0,-0.3459608388634153
1666088427481542232,0.2400000000000001,0.0,0.0,0.0,0.0,-0.3353231269102701
1666088427531810819,0.2550000000000001,0.0,0.0,0.0,0.0,-0.32457134673005733
1666088427581516000,0.27000000000000013,0.0,0.0,0.0,0.0,-0.31381956654984455
1666088427631487706,0.28500000000000014,0.0,0.0,0.0,0.0,-0.28224747142989515
1666088427681479103,0.30000000000000016,0.0,0.0,0.0,0.0,-0.27452918640828783
1666088427731442167,0.31500000000000017,0.0,0.0,0.0,0.0,-0.2668109013866805
1666088427781656504,0.3300000000000002,0.0,0.0,0.0,0.0,-0.2590926163650732
1666088427831437978,0.3450000000000002,0.0,0.0,0.0,0.0,-0.25230839093354607
1666088427881939502,0.3600000000000002,0.0,0.0,0.0,0.0,-0.24552416550201892
1666088427931502400,0.3750000000000002,0.0,0.0,0.0,0.0,-0.21432274262541076
1666088427981520936,0.39000000000000024,0.0,0.0,0.0,0.0,-0.18312131974880258
1666088428031621566,0.40500000000000025,0.0,0.0,0.0,0.0,-0.18401833979502852
1666088428081497118,0.42000000000000026,0.0,0.0,0.0,0.0,-0.18491535984125446
1666088428131459114,0.4350000000000003,0.0,0.0,0.0,0.0,-0.1865320938959398
1666088428181856279,0.4500000000000003,0.0,0.0,0.0,0.0,-0.1885298935168112
1666088428231489041,0.4650000000000003,0.0,0.0,0.0,0.0,-0.1905276931376826
1666088428281685192,0.4800000000000003,0.0,0.0,0.0,0.0,-0.19386039948462383
1666088428332951085,0.49500000000000033,0.0,0.0,0.0,0.0,-0.19722847500483584
1666088428381528388,0.5100000000000003,0.0,0.0,0.0,0.0,-0.20059655052504785
1666088428431649541,0.5250000000000004,0.0,0.0,0.0,0.0,-0.20588294025098663
1666088428484571218,0.5400000000000004,0.0,0.0,0.0,0.0,-0.21116932997692545
1666088428531754220,0.4794592261314392,0.0,0.0,0.0,0.0,-0.13805246353149414
1666088428581523848,0.4944592261314392,0.0,0.0,0.0,0.0,-0.15613100683592185
1666088428632263617,0.5094592261314392,0.0,0.0,0.0,0.0,-0.17730518437623394
1666088428681504392,0.5244592261314392,0.0,0.0,0.0,0.0,-0.19847936191654603
1666088428731423387,0.5394592261314393,0.0,0.0,0.0,0.0,-0.21965353945685812
1666088428781726844,0.45209005475044245,0.0,0.0,0.0,0.0,-0.16116435825824738
1666088428831981987,0.46709005475044246,0.0,0.0,0.0,0.0,-0.17761674494921517
1666088428881483539,0.4820900547504425,0.0,0.0,0.0,0.0,-0.19406913164018297
1666088428931601451,0.4970900547504425,0.0,0.0,0.0,0.0,-0.22353737794627093
1666088428984197489,0.51144939661026,0.0,0.0,0.0,0.0,-0.27247998118400574
1666088429031594861,0.51144939661026,0.0,0.0,0.0,0.0,-0.27247998118400574
1666088429081505301,0.5079880356788635,0.0,0.0,0.0,0.0,-0.2794356346130371
1666088429131526271,0.5079880356788635,0.0,0.0,0.0,0.0,-0.2794356346130371
1666088429181571301,0.3894232511520385,0.0,0.0,0.0,0.0,-0.20980188250541687
1666088429231389062,0.3894232511520385,0.0,0.0,0.0,0.0,-0.20980188250541687
1666088429281758148,0.3862682282924652,0.0,0.0,0.0,0.0,-0.2161579430103302
1666088429331497225,0.3862682282924652,0.0,0.0,0.0,0.0,-0.2161579430103302
1666088429382621814,0.4012682282924652,0.0,0.0,0.0,0.0,-0.2276890082871236
1666088429431652204,0.41626822829246524,0.0,0.0,0.0,0.0,-0.239220073563917
1666088429482363351,0.43126822829246525,0.0,0.0,0.0,0.0,-0.2526295835947421
1666088429531451227,0.44626822829246526,0.0,0.0,0.0,0.0,-0.26603909362556716
1666088429582426584,0.4612682282924653,0.0,0.0,0.0,0.0,-0.27944860365639224
1666088429631644315,0.4762682282924653,0.0,0.0,0.0,0.0,-0.2953083058921279
1666088429681638550,0.4888416274371394,0.0,0.0,0.0,0.0,-0.39530830589212795
1666088429731589868,0.49494460058911344,0.0,0.0,0.0,0.0,-0.49530830589212793
1666088429781580640,0.5010475737410874,0.0,0.0,0.0,0.0,-0.5953083058921279
1666088429832276868,0.5071505468930615,0.0,0.0,0.0,0.0,-0.6953083058921279
1666088429882131741,0.5099983800214287,0.0,0.0,0.0,0.0,-0.7953083058921279
1666088429931678229,0.40691608190536493,0.0,0.0,0.0,0.0,-0.8726646259971653
1666088429981899316,0.40691608190536493,0.0,0.0,0.0,0.0,-0.8726646259971653
1666088430031584812,0.42191608190536495,0.0,0.0,0.0,0.0,-0.915632485958701
1666088430081584598,0.43691608190536496,0.0,0.0,0.0,0.0,-0.9586003459202366
1666088430131632623,0.451916081905365,0.0,0.0,0.0,0.0,-1.0031239793423359
1666088430181858007,0.466916081905365,0.0,0.0,0.0,0.0,-1.0472852421395509
1666088430231582272,0.481916081905365,0.0,0.0,0.0,0.0,-1.0914465049367659
1666088430282054850,0.496916081905365,0.0,0.0,0.0,0.0,-1.1356077677339809
1666088430331728235,0.511916081905365,0.0,0.0,0.0,0.0,-1.1742445679873283
1666088430381399104,0.526916081905365,0.0,0.0,0.0,0.0,-1.2128813682406756
1666088430431440500,0.5352082848548889,0.0,0.0,0.0,0.0,-1.2217304763960313
1666088430481882650,0.5352082848548889,0.0,0.0,0.0,0.0,-1.2217304763960313
1666088430531443566,0.4301448464393616,0.0,0.0,0.0,0.0,-1.2217304763960313
1666088430582056004,0.4301448464393616,0.0,0.0,0.0,0.0,-1.2217304763960313
1666088430632687835,0.4451448464393616,0.0,0.0,0.0,0.0,-1.2217304763960313
1666088430681990426,0.4601448464393616,0.0,0.0,0.0,0.0,-1.2217304763960313
1666088430732393329,0.4751448464393616,0.0,0.0,0.0,0.0,-1.2217304763960313
1666088430781582199,0.4901448464393616,0.0,0.0,0.0,0.0,-1.2217304763960313
1666088430831623195,0.5051448464393616,0.0,0.0,0.0,0.0,-1.2020235640526453
1666088430881665502,0.5201448464393617,0.0,0.0,0.0,0.0,-1.1823166517092594
1666088430931470383,0.5351448464393617,0.0,0.0,0.0,0.0,-1.1657269595133573
1666088430981459999,0.5501448464393617,0.0,0.0,0.0,0.0,-1.1517616097410692
1666088431032501245,0.5651448464393617,0.0,0.0,0.0,0.0,-1.1221761049924222
1666088431081539802,0.5801448464393617,0.0,0.0,0.0,0.0,-1.092590600243775
1666088431131438683,0.5951448464393617,0.0,0.0,0.0,0.0,-1.0663974551860325
1666088431181469030,0.6101448464393617,0.0,0.0,0.0,0.0,-1.0399501589904259
1666088431231331846,0.6251448464393617,0.0,0.0,0.0,0.0,-0.9174589485324482
1666088431281552832,0.6401448464393618,0.0,0.0,0.0,0.0,-0.7925751184481911
1666088431331591521,0.6551448464393618,0.0,0.0,0.0,0.0,-0.719647462055607
1666088431381503663,0.6701448464393618,0.0,0.0,0.0,0.0,-0.646719805663023
1666088431431708056,0.6851448464393618,0.0,0.0,0.0,0.0,-0.5737921492704389
1666088431482128709,0.7001448464393618,0.0,0.0,0.0,0.0,-0.46832400592434503
1666088431532487806,0.7151448464393618,0.0,0.0,0.0,0.0,-0.3628558625782511
1666088431581487684,0.7301448464393618,0.0,0.0,0.0,0.0,-0.2147297161447777
1666088431631871454,0.7439714670181274,0.0,0.0,0.0,0.0,-0.07819078117609024
1666088431682381695,0.7381047010421753,0.0,0.0,0.0,0.0,-4.996003610813204e-16
1666088431731743067,0.7118989825248717,0.0,0.0,0.0,0.0,0.009610253386199474
1666088431781537709,0.7118989825248717,0.0,0.0,0.0,0.0,0.009610253386199474
1666088431831747722,0.7067055258824017,0.0,0.0,0.0,0.0,0.10961025338619948
1666088431881527028,0.7033337950706482,0.0,0.0,0.0,0.0,0.17453292519943245
1666088431931558693,0.6846702690126425,0.0,0.0,0.0,0.0,0.27453292519943245
1666088431981538640,0.6707597970962524,0.0,0.0,0.0,0.0,0.3490658503988654
1666088432031762608,0.6857597970962525,0.0,0.0,0.0,0.0,0.4131430079163768
1666088432081636557,0.7007597970962525,0.0,0.0,0.0,0.0,0.47722016543388823
1666088432131485313,0.6348370909690857,0.0,0.0,0.0,0.0,0.3490658503988654
1666088432181439850,0.6348370909690857,0.0,0.0,0.0,0.0,0.3490658503988654
1666088432231379867,0.6271179868295417,0.0,0.0,0.0,0.0,0.4490658503988654
1666088432281515048,0.6231416463851929,0.0,0.0,0.0,0.0,0.5235987755982984
1666088432331658364,0.6231416463851929,0.0,0.0,0.0,0.0,0.5235987755982984
1666088432382458420,0.6381416463851929,0.0,0.0,0.0,0.0,0.5235987755982984
1666088432431611758,0.6531416463851929,0.0,0.0,0.0,0.0,0.5235987755982984
1666088432482626609,0.5916694151984364,0.0,0.0,0.0,0.0,0.6235987755982983
1666088432531859393,0.5458523631095886,0.0,0.0,0.0,0.0,0.6981317007977313
1666088432581520046,0.5608523631095886,0.0,0.0,0.0,0.0,0.7400063445012219
1666088432631671863,0.5758523631095886,0.0,0.0,0.0,0.0,0.7809022560292954
1666088432684307117,0.5037238001823425,0.0,0.0,0.0,0.0,0.8726646259971643
1666088432731977158,0.5037238001823425,0.0,0.0,0.0,0.0,0.8726646259971643
1666088432781544259,0.48151281476020813,0.0,0.0,0.0,0.0,0.8726646259971643
1666088432831933924,0.4460412561893463,0.0,0.0,0.0,0.0,0.8726646259971643
1666088432882020495,0.44611233472824097,0.0,0.0,0.0,0.0,0.8726646259971643
1666088432931925657,0.44611233472824097,0.0,0.0,0.0,0.0,0.8726646259971643
1666088432981916388,0.43089285492897034,0.0,0.0,0.0,0.0,0.8726646259971643
1666088433031533883,0.4164489514383068,0.0,0.0,0.0,0.0,0.9726646259971643
1666088433081547342,0.4314489514383068,0.0,0.0,0.0,0.0,0.9854348650245126
1666088433131536194,0.4464489514383068,0.0,0.0,0.0,0.0,0.9981428449252643
1666088433181398669,0.46144895143830683,0.0,0.0,0.0,0.0,1.010850824826016
1666088433231586485,0.47644895143830684,0.0,0.0,0.0,0.0,1.030164869338331
1666088433282948396,0.36508750915527344,0.0,0.0,0.0,0.0,1.0471975511965972
1666088433331500784,0.36508750915527344,0.0,0.0,0.0,0.0,1.0471975511965972
1666088433381963118,0.35941264033317566,0.0,0.0,0.0,0.0,1.0471975511965972
1666088433431853399,0.36140280961990356,0.0,0.0,0.0,0.0,1.0471975511965972
1666088433481674918,0.3764028096199036,0.0,0.0,0.0,0.0,1.0471975511965972
1666088433531598618,0.3914028096199036,0.0,0.0,0.0,0.0,1.0471975511965972
1666088433581604851,0.36221686005592346,0.0,0.0,0.0,0.0,1.0471975511965972
1666088433631537647,0.36257222294807434,0.0,0.0,0.0,0.0,1.0471975511965972
1666088433682135009,0.37192347645759577,0.0,0.0,0.0,0.0,0.8726646259971643
1666088433731657540,0.37192347645759577,0.0,0.0,0.0,0.0,0.8726646259971643
1666088433781530666,0.38644540309906,0.0,0.0,0.0,0.0,0.8726646259971643
1666088433831431895,0.38644540309906,0.0,0.0,0.0,0.0,0.8726646259971643
1666088433881432468,0.3995971083641052,0.0,0.0,0.0,0.0,0.8726646259971643
1666088433931469067,0.3995971083641052,0.0,0.0,0.0,0.0,0.8726646259971643
1666088433981485225,0.4127090573310852,0.0,0.0,0.0,0.0,0.8726646259971643
1666088434031527568,0.4127090573310852,0.0,0.0,0.0,0.0,0.8726646259971643
1666088434081499329,0.4277090573310852,0.0,0.0,0.0,0.0,0.8468758319511624
1666088434131561909,0.44270905733108523,0.0,0.0,0.0,0.0,0.8210870379051606
1666088434181477710,0.44646120071411133,0.0,0.0,0.0,0.0,0.6981317007977313
1666088434231759281,0.44646120071411133,0.0,0.0,0.0,0.0,0.6981317007977313
1666088434281601051,0.46146120071411134,0.0,0.0,0.0,0.0,0.6981317007977313
1666088434331898599,0.4633696377277374,0.0,0.0,0.0,0.0,0.6981317007977313
1666088434381449378,0.47435092926025385,0.0,0.0,0.0,0.0,0.6981317007977313
1666088434431473478,0.47435092926025385,0.0,0.0,0.0,0.0,0.6981317007977313
1666088434481907024,0.47435092926025385,0.0,0.0,0.0,0.0,0.6981317007977313
1666088434531406891,0.4862523674964905,0.0,0.0,0.0,0.0,0.5235987755982984
1666088434581372831,0.4862523674964905,0.0,0.0,0.0,0.0,0.5235987755982984
1666088434631435026,0.48291876912117004,0.0,0.0,0.0,0.0,0.3490658503988654
1666088434681508134,0.48291876912117004,0.0,0.0,0.0,0.0,0.3490658503988654
1666088434731418451,0.48291876912117004,0.0,0.0,0.0,0.0,0.3490658503988654
1666088434781605446,0.4752590358257293,0.0,0.0,0.0,0.0,0.05683348700404167
1666088434833225114,0.47511687874794006,0.0,0.0,0.0,0.0,0.05506372079253197
1666088434881747594,0.4612784683704376,0.0,0.0,0.0,0.0,0.04402885213494301
1666088434931499627,0.4612784683704376,0.0,0.0,0.0,0.0,0.04402885213494301
1666088434981850952,0.4447250664234161,0.0,0.0,0.0,0.0,0.03780931234359741
1666088435031530414,0.4447250664234161,0.0,0.0,0.0,0.0,0.03780931234359741
1666088435081458232,0.4447250664234161,0.0,0.0,0.0,0.0,0.03780931234359741
1666088435131451476,0.4447250664234161,0.0,0.0,0.0,0.0,0.03780931234359741
1666088435181454157,0.4384171803492824,0.0,0.0,0.0,0.0,0.13780931234359742
1666088435231419609,0.4321092942751487,0.0,0.0,0.0,0.0,0.23780931234359742
1666088435281534845,0.42207306069585293,0.0,0.0,0.0,0.0,0.33780931234359746
1666088435332151201,0.41203682711655715,0.0,0.0,0.0,0.0,0.43780931234359743
1666088435381501332,0.3974259197711944,0.0,0.0,0.0,0.0,0.5235987755982984
1666088435431462838,0.3974259197711944,0.0,0.0,0.0,0.0,0.5235987755982984
1666088435481442005,0.3974259197711944,0.0,0.0,0.0,0.0,0.5235987755982984
1666088435531579061,0.3791386187076568,0.0,0.0,0.0,0.0,0.5235987755982984
1666088435581438812,0.3630693554878235,0.0,0.0,0.0,0.0,0.5235987755982984
1666088435631438483,0.3630693554878235,0.0,0.0,0.0,0.0,0.5235987755982984
1666088435681452823,0.34542056918144226,0.0,0.0,0.0,0.0,0.5235987755982984
1666088435731534882,0.3285293579101562,0.0,0.0,0.0,0.0,0.5235987755982984
1666088435781782401,0.3285293579101562,0.0,0.0,0.0,0.0,0.5235987755982984
1666088435831728325,0.3285293579101562,0.0,0.0,0.0,0.0,0.5235987755982984
1666088435881942907,0.17852935791015617,0.0,0.0,0.0,0.0,0.48876662710163415
1666088435931633561,0.02852935791015615,0.0,0.0,0.0,0.0,0.45393447860496994
1666088435981457615,0.0,0.0,0.0,0.0,0.0,0.42750185503620486
1666088436031613452,0.0,0.0,0.0,0.0,0.0,0.42750185503620486
1666088436081592154,0.0,0.0,0.0,0.0,0.0,0.40623180554236366
1666088436131453246,0.0,0.0,0.0,0.0,0.0,0.40623180554236366
1666088436181500423,0.0,0.0,0.0,0.0,0.0,0.40623180554236366
1666088436231447138,0.0,0.0,0.0,0.0,0.0,0.4107733306691994
1666088436281487787,0.0,0.0,0.0,0.0,0.0,0.3919088274614963
1666088436331472797,0.0,0.0,0.0,0.0,0.0,0.3919088274614963
1666088436381447526,0.0,0.0,0.0,0.0,0.0,0.36419942917320375
1666088436431636148,0.0,0.0,0.0,0.0,0.0,0.35091792660857446
1666088436482050825,0.0,0.0,0.0,0.0,0.0,0.313276707019611
1666088436531539653,0.0,0.0,0.0,0.0,0.0,0.313276707019611
1666088436582187091,0.0,0.0,0.0,0.0,0.0,0.287974040294812
1666088436631613141,0.0,0.0,0.0,0.0,0.0,0.23934936118025954
1666088436681540468,0.0,0.0,0.0,0.0,0.0,0.23934936118025954
1666088436731476863,0.0,0.0,0.0,0.0,0.0,0.22786476407910014
1666088436781507025,0.0,0.0,0.0,0.0,0.0,0.22786476407910014
1666088436831557519,0.0,0.0,0.0,0.0,0.0,0.22786476407910014
1666088436881690185,0.015,0.0,0.0,0.0,0.0,0.22581335382653686
1666088436931519717,0.03,0.0,0.0,0.0,0.0,0.22385652980480075
1666088436981613449,0.045,0.0,0.0,0.0,0.0,0.2220262359428316
1666088437031515723,0.06,0.0,0.0,0.0,0.0,0.2201946042900276
1666088437082574946,0.075,0.0,0.0,0.0,0.0,0.21848869783197045
1666088437131415389,0.09,0.0,0.0,0.0,0.0,0.2167827913739133
1666088437181475667,0.105,0.0,0.0,0.0,0.0,0.21507688491585614
1666088437231670807,0.12,0.0,0.0,0.0,0.0,0.20983158803676802
1666088437281566886,0.135,0.0,0.0,0.0,0.0,0.2016457987161373
1666088437331428141,0.15000000000000002,0.0,0.0,0.0,0.0,0.1934600093955066
1666088437381604894,0.16500000000000004,0.0,0.0,0.0,0.0,0.18572958659166586
1666088437431739237,0.18000000000000005,0.0,0.0,0.0,0.0,0.17799916378782513
1666088437481995153,0.19500000000000006,0.0,0.0,0.0,0.0,0.17058676890248553
1666088437531550395,0.21000000000000008,0.0,0.0,0.0,0.0,0.16317437401714593
1666088437581700187,0.2250000000000001,0.0,0.0,0.0,0.0,0.15613973609441656
1666088437631662778,0.2400000000000001,0.0,0.0,0.0,0.0,0.14910509817168718
1666088437681636663,0.2550000000000001,0.0,0.0,0.0,0.0,0.13897286724146876
1666088437731500934,0.27000000000000013,0.0,0.0,0.0,0.0,0.12884063631125034
1666088437781426891,0.28500000000000014,0.0,0.0,0.0,0.0,0.11889344948209275
1666088437831781768,0.30000000000000016,0.0,0.0,0.0,0.0,0.10894626265293517
1666088437881985697,0.31500000000000017,0.0,0.0,0.0,0.0,0.09864430392857267
1666088437931478551,0.3300000000000002,0.0,0.0,0.0,0.0,0.08766871724436437
1666088437982237300,0.3450000000000002,0.0,0.0,0.0,0.0,0.07669313056015607
1666088438031588158,0.3600000000000002,0.0,0.0,0.0,0.0,0.06526872758451324
1666088438081408569,0.3750000000000002,0.0,0.0,0.0,0.0,0.05384432460887041
1666088438131673328,0.39000000000000024,0.0,0.0,0.0,0.0,0.041050974806654525
1666088438181491063,0.40500000000000025,0.0,0.0,0.0,0.0,0.02825762500443864
1666088438231725487,0.42000000000000026,0.0,0.0,0.0,0.0,0.015464275202222755
1666088438281776891,0.4350000000000003,0.0,0.0,0.0,0.0,0.009625768846423128
1666088438331480661,0.4500000000000003,0.0,0.0,0.0,0.0,0.003787262490623498
1666088438381420038,0.4650000000000003,0.0,0.0,0.0,0.0,-0.014886041535813193
1666088438432223961,0.4800000000000003,0.0,0.0,0.0,0.0,-0.03355934556224988
1666088438481494839,0.49500000000000033,0.0,0.0,0.0,0.0,-0.05282965879875513
1666088438531565762,0.5100000000000003,0.0,0.0,0.0,0.0,-0.07231069960636827
1666088438581523420,0.5250000000000004,0.0,0.0,0.0,0.0,-0.096623717881381
1666088438632487541,0.5400000000000004,0.0,0.0,0.0,0.0,-0.12093673615639373
1666088438681792721,0.5550000000000004,0.0,0.0,0.0,0.0,-0.15964838473634274
1666088438731651431,0.5466890335083008,0.0,0.0,0.0,0.0,-0.18782851099967957
1666088438781658036,0.5459071397781372,0.0,0.0,0.0,0.0,-0.1877656728029251
1666088438831450407,0.5290138721466064,0.0,0.0,0.0,0.0,-0.19278478622436523
1666088438881732370,0.44576913118362427,0.0,0.0,0.0,0.0,-0.10215570777654648
1666088438931604920,0.44576913118362427,0.0,0.0,0.0,0.0,-0.10215570777654648
1666088438981663031,0.4607691311836243,0.0,0.0,0.0,0.0,-0.1266669721899047
1666088439031698763,0.4757691311836243,0.0,0.0,0.0,0.0,-0.1511782366032629
1666088439081780213,0.4907691311836243,0.0,0.0,0.0,0.0,-0.19657589381318158
1666088439131531710,0.4963847696781158,0.0,0.0,0.0,0.0,-0.2135716825723648
1666088439181884581,0.4791006445884704,0.0,0.0,0.0,0.0,-0.21922728419303894
1666088439231652451,0.4791006445884704,0.0,0.0,0.0,0.0,-0.21922728419303894
1666088439281463815,0.44309476017951965,0.0,0.0,0.0,0.0,-0.22666500508785248
1666088439331755098,0.4433790445327759,0.0,0.0,0.0,0.0,-0.2267138808965683
1666088439384026916,0.4252563416957855,0.0,0.0,0.0,0.0,-0.22878414392471313
1666088439431424164,0.4252563416957855,0.0,0.0,0.0,0.0,-0.22878414392471313
1666088439481944712,0.4098166227340698,0.0,0.0,0.0,0.0,-0.23107686638832092
1666088439531951812,0.3965363800525665,0.0,0.0,0.0,0.0,-0.23315094411373138
1666088439584183508,0.3965363800525665,0.0,0.0,0.0,0.0,-0.23315094411373138
1666088439632234087,0.39620830066868756,0.0,0.0,0.0,0.0,-0.33315094411373136
1666088439681682589,0.3947790163027324,0.0,0.0,0.0,0.0,-0.43315094411373134
1666088439731814306,0.3946919198956693,0.0,0.0,0.0,0.0,-0.5331509441137313
1666088439781590496,0.39460482348860626,0.0,0.0,0.0,0.0,-0.6331509441137313
1666088439831617737,0.3945177270815432,0.0,0.0,0.0,0.0,-0.7331509441137313
1666088439881472937,0.3982435653363553,0.0,0.0,0.0,0.0,-0.8331509441137313
1666088439931736516,0.36250419941319506,0.0,0.0,0.0,0.0,-0.9331509441137312
1666088439981534942,0.37143319122109775,0.0,0.0,0.0,0.0,-1.0331509441137312
1666088440031925558,0.38036218302900043,0.0,0.0,0.0,0.0,-1.1331509441137313
1666088440081424003,0.3890161705318329,0.0,0.0,0.0,0.0,-1.2331509441137314
1666088440131485450,0.3976701580346654,0.0,0.0,0.0,0.0,-1.3331509441137315
1666088440181932170,0.403131902217865,0.0,0.0,0.0,0.0,-1.3962634015954642
1666088440231744321,0.39602696895599365,0.0,0.0,0.0,0.0,-1.3962634015954642
1666088440281830195,0.25297981500625605,0.0,0.0,0.0,0.0,-1.3962634015954642
1666088440331701522,0.2518332004547119,0.0,0.0,0.0,0.0,-1.3962634015954642
1666088440382120306,0.2668332004547119,0.0,0.0,0.0,0.0,-1.41446268405899
1666088440431460062,0.28183320045471194,0.0,0.0,0.0,0.0,-1.4326619665225158
1666088440481430830,0.29683320045471195,0.0,0.0,0.0,0.0,-1.450785192788143
1666088440531608068,0.31183320045471197,0.0,0.0,0.0,0.0,-1.4689084190537702
1666088440584768388,0.258257120847702,0.0,0.0,0.0,0.0,-1.3962634015954642
1666088440631632840,0.258257120847702,0.0,0.0,0.0,0.0,-1.3962634015954642
1666088440681429533,0.27325712084770204,0.0,0.0,0.0,0.0,-1.3962634015954642
1666088440731742560,0.28825712084770205,0.0,0.0,0.0,0.0,-1.4123611391024478
1666088440781542258,0.30325712084770207,0.0,0.0,0.0,0.0,-1.4284588766094313
1666088440831856210,0.3100286424160003,0.0,0.0,0.0,0.0,-1.3962634015954642
1666088440881460505,0.3100286424160003,0.0,0.0,0.0,0.0,-1.3962634015954642
1666088440932094456,0.3250286424160003,0.0,0.0,0.0,0.0,-1.3962634015954642
1666088440981498688,0.34002864241600034,0.0,0.0,0.0,0.0,-1.3962634015954642
1666088441031634977,0.35502864241600035,0.0,0.0,0.0,0.0,-1.3962634015954642
1666088441081426571,0.36569154262542725,0.0,0.0,0.0,0.0,-1.3962634015954642
1666088441131708829,0.38069154262542726,0.0,0.0,0.0,0.0,-1.3611104339597422
1666088441181659871,0.3956915426254273,0.0,0.0,0.0,0.0,-1.3259574663240201
1666088441231841081,0.4106915426254273,0.0,0.0,0.0,0.0,-1.290804498688298
1666088441281487354,0.4256915426254273,0.0,0.0,0.0,0.0,-1.1881662591726534
1666088441331774999,0.4406915426254273,0.0,0.0,0.0,0.0,-1.09967822983851
1666088441381475532,0.4556915426254273,0.0,0.0,0.0,0.0,-1.0111902005043665
1666088441431871495,0.47069154262542734,0.0,0.0,0.0,0.0,-0.9322927616887963
1666088441482136779,0.48569154262542735,0.0,0.0,0.0,0.0,-0.8533953228732261
1666088441531762009,0.5006915426254274,0.0,0.0,0.0,0.0,-0.8151143476080406
1666088441581528313,0.5156915426254274,0.0,0.0,0.0,0.0,-0.7852779740911233
1666088441631578203,0.5306915426254274,0.0,0.0,0.0,0.0,-0.7554416005742061
1666088441681365878,0.5456915426254274,0.0,0.0,0.0,0.0,-0.7256052270572888
1666088441731532023,0.5606915426254274,0.0,0.0,0.0,0.0,-0.7000651599312285
1666088441781377888,0.5756915426254274,0.0,0.0,0.0,0.0,-0.6728384673746576
1666088441831930868,0.5906915426254274,0.0,0.0,0.0,0.0,-0.6455977703805008
1666088441881548831,0.6056915426254275,0.0,0.0,0.0,0.0,-0.6108021706282613
1666088441931685863,0.6206915426254275,0.0,0.0,0.0,0.0,-0.5760065708760217
1666088441981453279,0.6356915426254275,0.0,0.0,0.0,0.0,-0.5412109711237821
1666088442031532085,0.6506915426254275,0.0,0.0,0.0,0.0,-0.5036777817112545
1666088442082759860,0.6656915426254275,0.0,0.0,0.0,0.0,-0.4703987516049896
1666088442131669834,0.6806915426254275,0.0,0.0,0.0,0.0,-0.4371197214987247
1666088442181452374,0.6956915426254275,0.0,0.0,0.0,0.0,-0.4011100286012226
1666088442231766150,0.7106915426254276,0.0,0.0,0.0,0.0,-0.3651003357037204
1666088442281666215,0.7256915426254276,0.0,0.0,0.0,0.0,-0.32585624910811645
1666088442331463554,0.7406915426254276,0.0,0.0,0.0,0.0,-0.2866121625125124
1666088442381581161,0.7556915426254276,0.0,0.0,0.0,0.0,-0.2426630004559277
1666088442431840530,0.7706915426254276,0.0,0.0,0.0,0.0,-0.19470083968844082
1666088442482578064,0.7856915426254276,0.0,0.0,0.0,0.0,-0.1467386789209539
1666088442532162673,0.7999999999999999,0.0,0.0,0.0,0.0,-0.008888527750968933
1666088442581950298,0.7999999999999999,0.0,0.0,0.0,0.0,-0.08592546731233597
1666088442631908326,0.7999999999999999,0.0,0.0,0.0,0.0,-0.08592546731233597
1666088442681735836,0.7999999999999999,0.0,0.0,0.0,0.0,-0.08210517466068268
1666088442732091928,0.7999999999999999,0.0,0.0,0.0,0.0,-4.996003610813204e-16
1666088442781607363,0.7999999999999999,0.0,0.0,0.0,0.0,-0.07764298468828201
1666088442833967512,0.7999999999999999,0.0,0.0,0.0,0.0,-0.07764298468828201
1666088442882614889,0.7999999999999999,0.0,0.0,0.0,0.0,-0.07764298468828201
1666088442931647258,0.7999999999999999,0.0,0.0,0.0,0.0,-0.07733053714036942
1666088442981478151,0.7496324777603149,0.0,0.0,0.0,0.0,-0.07848750054836273
1666088443031728668,0.7496324777603149,0.0,0.0,0.0,0.0,-0.07848750054836273
1666088443081449594,0.7496324777603149,0.0,0.0,0.0,0.0,-0.07848750054836273
1666088443131749337,0.702640950679779,0.0,0.0,0.0,0.0,-0.17453292519943345
1666088443182010328,0.6758086681365967,0.0,0.0,0.0,0.0,-0.07922561466693878
1666088443231963471,0.6417340636253357,0.0,0.0,0.0,0.0,-0.07938673347234726
1666088443281378390,0.6417340636253357,0.0,0.0,0.0,0.0,-0.07938673347234726
1666088443332578171,0.6070421934127807,0.0,0.0,0.0,0.0,-0.07935290038585663
1666088443381403009,0.5718514919281006,0.0,0.0,0.0,0.0,-0.07868967205286026
1666088443431630574,0.5718514919281006,0.0,0.0,0.0,0.0,-0.07868967205286026
1666088443481544706,0.5718514919281006,0.0,0.0,0.0,0.0,-0.07868967205286026
1666088443531743066,0.5431938767433167,0.0,0.0,0.0,0.0,-0.07779192924499512
1666088443581524443,0.5130863189697266,0.0,0.0,0.0,0.0,-0.07681817561388016
1666088443631728937,0.5130863189697266,0.0,0.0,0.0,0.0,-0.07681817561388016
1666088443681585824,0.44724735617637634,0.0,0.0,0.0,0.0,-0.07393650710582733
1666088443731490734,0.44724735617637634,0.0,0.0,0.0,0.0,-0.07393650710582733
1666088443781737765,0.4166345298290252,0.0,0.0,0.0,0.0,-0.07387556880712509
1666088443831732568,0.4181271493434906,0.0,0.0,0.0,0.0,-0.07390699535608292
1666088443881512202,0.2681271493434906,0.0,0.0,0.0,0.0,-0.04739341134026672
1666088443931672833,0.11812714934349056,0.0,0.0,0.0,0.0,-0.020879827324450522
1666088443981489032,0.0,0.0,0.0,0.0,0.0,-4.996003610813204e-16
1666088444032592622,0.0,0.0,0.0,0.0,0.0,-4.996003610813204e-16
1666088444081952714,0.0,0.0,0.0,0.0,0.0,-4.996003610813204e-16
1666088444131808448,0.0,0.0,0.0,0.0,0.0,-4.996003610813204e-16
1666088444181620315,0.0,0.0,0.0,0.0,0.0,-4.996003610813204e-16
1666088444232012460,0.0,0.0,0.0,0.0,0.0,-4.996003610813204e-16
1666088444281505060,0.0,0.0,0.0,0.0,0.0,-4.996003610813204e-16
1666088444332228537,0.0,0.0,0.0,0.0,0.0,-4.996003610813204e-16
1666088444381836558,0.0,0.0,0.0,0.0,0.0,-4.996003610813204e-16
1666088444431640017,0.0,0.0,0.0,0.0,0.0,-4.996003610813204e-16
1666088444481445487,0.0,0.0,0.0,0.0,0.0,-4.996003610813204e-16
1666088444531559256,0.0,0.0,0.0,0.0,0.0,-4.996003610813204e-16
1666088444581845602,0.0,0.0,0.0,0.0,0.0,-4.996003610813204e-16
1666088444631713526,0.0,0.0,0.0,0.0,0.0,-4.996003610813204e-16
1666088444681440872,0.0,0.0,0.0,0.0,0.0,-4.996003610813204e-16
1666088444731945963,0.0,0.0,0.0,0.0,0.0,-4.996003610813204e-16
1666088444781421666,0.015,0.0,0.0,0.0,0.0,-0.002053716247100757
1666088444831488037,0.03,0.0,0.0,0.0,0.0,-0.003793346366141074
1666088444881444498,0.045,0.0,0.0,0.0,0.0,-0.005532976485181391
1666088444931852606,0.06,0.0,0.0,0.0,0.0,-0.007272606604221707
1666088444981618446,0.075,0.0,0.0,0.0,0.0,-0.0047515614773431985
1666088445031672001,0.09,0.0,0.0,0.0,0.0,-0.005737368172055087
1666088445082483727,0.105,0.0,0.0,0.0,0.0,-0.006723174866766976
1666088445137230590,0.12,0.0,0.0,0.0,0.0,-0.0074347051070248965
1666088445181454693,0.135,0.0,0.0,0.0,0.0,-0.008146235347282817
1666088445231576465,0.15000000000000002,0.0,0.0,0.0,0.0,-0.008619350250672429
1666088445281653997,0.16500000000000004,0.0,0.0,0.0,0.0,-0.00909246515406204
1666088445333089716,0.18000000000000005,0.0,0.0,0.0,0.0,-0.009128981313749228
1666088445381501901,0.19500000000000006,0.0,0.0,0.0,0.0,-0.009031998328078616
1666088445431724370,0.21000000000000008,0.0,0.0,0.0,0.0,-0.008935015342408004
1666088445481504081,0.2250000000000001,0.0,0.0,0.0,0.0,-0.008699074457294667
1666088445532251388,0.2400000000000001,0.0,0.0,0.0,0.0,-0.008311999992730709
1666088445581931150,0.2550000000000001,0.0,0.0,0.0,0.0,-0.007924925528166751
1666088445632233908,0.27000000000000013,0.0,0.0,0.0,0.0,-0.007419406280016914
1666088445681442343,0.28500000000000014,0.0,0.0,0.0,0.0,-0.006747104283422074
1666088445731953884,0.30000000000000016,0.0,0.0,0.0,0.0,-0.0060748022868272345
1666088445781622999,0.31500000000000017,0.0,0.0,0.0,0.0,-0.005272865816962291
1666088445831649227,0.3300000000000002,0.0,0.0,0.0,0.0,-0.004319271997575824
1666088445881621980,0.3450000000000002,0.0,0.0,0.0,0.0,-0.003365678178189358
1666088445931577312,0.3600000000000002,0.0,0.0,0.0,0.0,-0.0022365419823877058
1666088445981487107,0.3750000000000002,0.0,0.0,0.0,0.0,-0.0011074057865860536
1666088446031744660,0.39000000000000024,0.0,0.0,0.0,0.0,0.0001585074430904027
1666088446081573398,0.40500000000000025,0.0,0.0,0.0,0.0,0.0015342503023899872
1666088446131733847,0.42000000000000026,0.0,0.0,0.0,0.0,0.0029099931616895715
1666088446181485482,0.4350000000000003,0.0,0.0,0.0,0.0,0.004484436093273755
1666088446231663932,0.4500000000000003,0.0,0.0,0.0,0.0,0.00994225689360708
1666088446281559939,0.4650000000000003,0.0,0.0,0.0,0.0,0.011459016954282142
1666088446331547439,0.4800000000000003,0.0,0.0,0.0,0.0,0.012975777014957203
1666088446381394000,0.49500000000000033,0.0,0.0,0.0,0.0,0.01451900658684346
1666088446431881822,0.5100000000000003,0.0,0.0,0.0,0.0,0.01605820236486874
1666088446482072762,0.5250000000000004,0.0,0.0,0.0,0.0,0.01759739814289402
1666088446531781840,0.5400000000000004,0.0,0.0,0.0,0.0,0.024719462994565882
1666088446581380543,0.5550000000000004,0.0,0.0,0.0,0.0,0.032001171060364875
1666088446631564209,0.5700000000000004,0.0,0.0,0.0,0.0,0.032838420103848326
1666088446682227059,0.5850000000000004,0.0,0.0,0.0,0.0,0.04148602809658951
1666088446731454706,0.6000000000000004,0.0,0.0,0.0,0.0,0.05013363608933069
1666088446781650516,0.6150000000000004,0.0,0.0,0.0,0.0,0.050146953310679365
1666088446831517041,0.6300000000000004,0.0,0.0,0.0,0.0,0.05016027053202804
1666088446881439442,0.6450000000000005,0.0,0.0,0.0,0.0,0.11775907564518028
1666088446931535663,0.6600000000000005,0.0,0.0,0.0,0.0,0.20013639078228238
1666088446981462038,0.6750000000000005,0.0,0.0,0.0,0.0,0.2825137059193845
1666088447031656724,0.670074999332428,0.0,0.0,0.0,0.0,0.3490658503988654
1666088447081546140,0.670074999332428,0.0,0.0,0.0,0.0,0.3490658503988654
1666088447131399809,0.6496052145957947,0.0,0.0,0.0,0.0,0.3490658503988654
1666088447181692374,0.6646052145957947,0.0,0.0,0.0,0.0,0.3490658503988654
1666088447231465449,0.6712278127670288,0.0,0.0,0.0,0.0,0.3490658503988654
1666088447281657143,0.6581294565428578,0.0,0.0,0.0,0.0,0.4490658503988654
1666088447331576916,0.6483668684959412,0.0,0.0,0.0,0.0,0.5235987755982984
1666088447382146312,0.6483668684959412,0.0,0.0,0.0,0.0,0.5235987755982984
1666088447431490771,0.5682337880134583,0.0,0.0,0.0,0.0,0.5235987755982984
1666088447481515340,0.5832337880134583,0.0,0.0,0.0,0.0,0.6035385127844891
1666088447531974256,0.5138195753097534,0.0,0.0,0.0,0.0,0.6981317007977313
1666088447581371283,0.5138195753097534,0.0,0.0,0.0,0.0,0.6981317007977313
1666088447632005129,0.4631776809692383,0.0,0.0,0.0,0.0,0.6981317007977313
1666088447681478374,0.44225257635116577,0.0,0.0,0.0,0.0,0.6981317007977313
1666088447731468832,0.44225257635116577,0.0,0.0,0.0,0.0,0.6981317007977313
1666088447781522019,0.44225257635116577,0.0,0.0,0.0,0.0,0.6981317007977313
1666088447831533394,0.4572525763511658,0.0,0.0,0.0,0.0,0.7346228230545121
1666088447881504867,0.4117755591869354,0.0,0.0,0.0,0.0,0.6981317007977313
1666088447932054947,0.4117755591869354,0.0,0.0,0.0,0.0,0.6981317007977313
1666088447981434994,0.42677555918693544,0.0,0.0,0.0,0.0,0.7346399298462398
1666088448031405124,0.44177555918693545,0.0,0.0,0.0,0.0,0.7711481588947482
1666088448081399445,0.45677555918693546,0.0,0.0,0.0,0.0,0.8151039072413346
1666088448131489987,0.3688983917236328,0.0,0.0,0.0,0.0,0.6981317007977313
1666088448181526479,0.3688983917236328,0.0,0.0,0.0,0.0,0.6981317007977313
1666088448231414301,0.3688983917236328,0.0,0.0,0.0,0.0,0.6981317007977313
1666088448281437560,0.3656630218029022,0.0,0.0,0.0,0.0,0.6981317007977313
1666088448332283343,0.38066302180290224,0.0,0.0,0.0,0.0,0.6981317007977313
1666088448384087380,0.39566302180290225,0.0,0.0,0.0,0.0,0.6981317007977313
1666088448431393983,0.35892409086227417,0.0,0.0,0.0,0.0,0.6981317007977313
1666088448481569062,0.3574945628643036,0.0,0.0,0.0,0.0,0.6981317007977313
1666088448532014370,0.3574945628643036,0.0,0.0,0.0,0.0,0.6981317007977313
1666088448581481437,0.35805371403694153,0.0,0.0,0.0,0.0,0.6981317007977313
1666088448631493154,0.3620589971542358,0.0,0.0,0.0,0.0,0.6981317007977313
1666088448681403852,0.3679509162902832,0.0,0.0,0.0,0.0,0.5235987755982984
1666088448731819830,0.37547144293785095,0.0,0.0,0.0,0.0,0.5235987755982984
1666088448781804346,0.37547144293785095,0.0,0.0,0.0,0.0,0.5235987755982984
1666088448831449916,0.38349324464797974,0.0,0.0,0.0,0.0,0.5235987755982984
1666088448881396233,0.38349324464797974,0.0,0.0,0.0,0.0,0.5235987755982984
1666088448931421483,0.3886762857437134,0.0,0.0,0.0,0.0,0.5235987755982984
1666088448981494966,0.3886762857437134,0.0,0.0,0.0,0.0,0.5235987755982984
1666088449032088924,0.3886532187461853,0.0,0.0,0.0,0.0,0.5235987755982984
1666088449081605918,0.3886532187461853,0.0,0.0,0.0,0.0,0.5235987755982984
1666088449131540517,0.38704702258110046,0.0,0.0,0.0,0.0,0.3490658503988654
1666088449181523401,0.38704702258110046,0.0,0.0,0.0,0.0,0.3490658503988654
1666088449231592679,0.4020470225811005,0.0,0.0,0.0,0.0,0.3490658503988654
1666088449281452288,0.36333879828453064,0.0,0.0,0.0,0.0,0.3490658503988654
1666088449331474412,0.36333879828453064,0.0,0.0,0.0,0.0,0.3490658503988654
1666088449381608419,0.21333879828453062,0.0,0.0,0.0,0.0,0.30890343687232946
1666088449431470735,0.0633387982845306,0.0,0.0,0.0,0.0,0.26874102334579353
1666088449482687487,0.0,0.0,0.0,0.0,0.0,0.2306480797400239
1666088449531860937,0.0,0.0,0.0,0.0,0.0,0.24114778686896518
1666088449581415303,0.0,0.0,0.0,0.0,0.0,0.24114778686896518
1666088449632171619,0.0,0.0,0.0,0.0,0.0,0.2398816585707283
1666088449681470887,0.0,0.0,0.0,0.0,0.0,0.2398816585707283
1666088449732077333,0.0,0.0,0.0,0.0,0.0,0.23716243524206265
1666088449781566597,0.0,0.0,0.0,0.0,0.0,0.23716243524206265
1666088449831477347,0.0,0.0,0.0,0.0,0.0,0.23525454567155193
1666088449881779787,0.0,0.0,0.0,0.0,0.0,0.23199377661202855
1666088449931426145,0.0,0.0,0.0,0.0,0.0,0.23199377661202855
1666088449981484788,0.0,0.0,0.0,0.0,0.0,0.22432524561392847
1666088450031425805,0.0,0.0,0.0,0.0,0.0,0.22432524561392847
1666088450082036529,0.0,0.0,0.0,0.0,0.0,0.17453292519943245
1666088450131541463,0.0,0.0,0.0,0.0,0.0,0.17453292519943245
1666088450181492597,0.0,0.0,0.0,0.0,0.0,0.17453292519943245
1666088450231781541,0.0,0.0,0.0,0.0,0.0,0.17453292519943245
1666088450281436762,0.0,0.0,0.0,0.0,0.0,0.17453292519943245
1666088450332004924,0.0,0.0,0.0,0.0,0.0,0.17453292519943245
1666088450381511759,0.0,0.0,0.0,0.0,0.0,0.17453292519943245
1666088450431579268,0.0,0.0,0.0,0.0,0.0,0.17453292519943245
1666088450481894598,0.0,0.0,0.0,0.0,0.0,0.17453292519943245
1666088450532670115,0.0,0.0,0.0,0.0,0.0,0.17453292519943245
1666088450582280389,0.0,0.0,0.0,0.0,0.0,0.17453292519943245
1666088450631637292,0.0,0.0,0.0,0.0,0.0,0.07453292519943244
1666088450682038645,0.0,0.0,0.0,0.0,0.0,-4.996003610813204e-16
1666088450731412277,0.0,0.0,0.0,0.0,0.0,-4.996003610813204e-16
1666088450781564574,0.0,0.0,0.0,0.0,0.0,-4.996003610813204e-16
1666088450831480599,0.0,0.0,0.0,0.0,0.0,-4.996003610813204e-16
1666088450881541539,0.0,0.0,0.0,0.0,0.0,-4.996003610813204e-16
1666088450931560798,0.0,0.0,0.0,0.0,0.0,-4.996003610813204e-16
1666088450981740595,0.0,0.0,0.0,0.0,0.0,-4.996003610813204e-16
1666088451031594321,0.0,0.0,0.0,0.0,0.0,-4.996003610813204e-16
1666088451081755165,0.0,0.0,0.0,0.0,0.0,-4.996003610813204e-16
1666088451131457632,0.0,0.0,0.0,0.0,0.0,-4.996003610813204e-16
1666088451181572897,0.0,0.0,0.0,0.0,0.0,-4.996003610813204e-16
1666088451231611658,0.0,0.0,0.0,0.0,0.0,-4.996003610813204e-16
1666088451281607872,0.0,0.0,0.0,0.0,0.0,-4.996003610813204e-16
1666088451331494887,0.0,0.0,0.0,0.0,0.0,-4.996003610813204e-16
1666088451381577784,0.0,0.0,0.0,0.0,0.0,-4.996003610813204e-16
1666088451431421977,0.0,0.0,0.0,0.0,0.0,-4.996003610813204e-16
1666088451481540379,0.0,0.0,0.0,0.0,0.0,-4.996003610813204e-16
1666088451531467125,0.0,0.0,0.0,0.0,0.0,-4.996003610813204e-16
1666088451582044786,0.0,0.0,0.0,0.0,0.0,-4.996003610813204e-16
1666088451631507670,0.0,0.0,0.0,0.0,0.0,-4.996003610813204e-16
1666088451681672929,0.0,0.0,0.0,0.0,0.0,-4.996003610813204e-16
1666088451732045984,0.0,0.0,0.0,0.0,0.0,-4.996003610813204e-16
1666088451781460106,0.0,0.0,0.0,0.0,0.0,-4.996003610813204e-16
1666088451831512747,0.0,0.0,0.0,0.0,0.0,-4.996003610813204e-16
1666088451881469266,0.0,0.0,0.0,0.0,0.0,-4.996003610813204e-16
1666088451931622487,0.0,0.0,0.0,0.0,0.0,-4.996003610813204e-16
1666088451981665759,0.0,0.0,0.0,0.0,0.0,-4.996003610813204e-16
1666088452031871643,0.0,0.0,0.0,0.0,0.0,-4.996003610813204e-16
1666088452081374469,0.0,0.0,0.0,0.0,0.0,-4.996003610813204e-16
1666088452131430061,0.0,0.0,0.0,0.0,0.0,-4.996003610813204e-16
1666088452181667621,0.0,0.0,0.0,0.0,0.0,-4.996003610813204e-16
1666088452231765335,0.0,0.0,0.0,0.0,0.0,-4.996003610813204e-16
1666088452281447682,0.0,0.0,0.0,0.0,0.0,-4.996003610813204e-16
1666088452331709106,0.0,0.0,0.0,0.0,0.0,-4.996003610813204e-16
1666088452381531010,0.0,0.0,0.0,0.0,0.0,-4.996003610813204e-16
1666088452433257844,0.0,0.0,0.0,0.0,0.0,-4.996003610813204e-16
1666088452481519413,0.0,0.0,0.0,0.0,0.0,-4.996003610813204e-16
1666088452531512617,0.0,0.0,0.0,0.0,0.0,-4.996003610813204e-16
1666088452581928821,0.0,0.0,0.0,0.0,0.0,-4.996003610813204e-16
1666088452631584594,0.0,0.0,0.0,0.0,0.0,-4.996003610813204e-16
1666088452682151814,0.0,0.0,0.0,0.0,0.0,-4.996003610813204e-16
1666088452731449835,0.0,0.0,0.0,0.0,0.0,-4.996003610813204e-16
1666088452782174822,0.0,0.0,0.0,0.0,0.0,-4.996003610813204e-16
1666088452831563665,0.0,0.0,0.0,0.0,0.0,-4.996003610813204e-16
1666088452881535717,0.0,0.0,0.0,0.0,0.0,-4.996003610813204e-16
1666088452931574743,0.0,0.0,0.0,0.0,0.0,-4.996003610813204e-16
1666088452982021783,0.0,0.0,0.0,0.0,0.0,-4.996003610813204e-16
1666088453032466655,0.0,0.0,0.0,0.0,0.0,-4.996003610813204e-16
1666088453082132431,0.0,0.0,0.0,0.0,0.0,-4.996003610813204e-16
1666088453131540208,0.0,0.0,0.0,0.0,0.0,-4.996003610813204e-16
1666088453181438234,0.0,0.0,0.0,0.0,0.0,-4.996003610813204e-16
1666088453231489618,0.0,0.0,0.0,0.0,0.0,-4.996003610813204e-16
1666088453281492022,0.0,0.0,0.0,0.0,0.0,-4.996003610813204e-16
1666088453332174043,0.0,0.0,0.0,0.0,0.0,-4.996003610813204e-16
1666088453381824965,0.0,0.0,0.0,0.0,0.0,-4.996003610813204e-16
1666088453431390557,0.0,0.0,0.0,0.0,0.0,-4.996003610813204e-16
1666088453481591816,0.0,0.0,0.0,0.0,0.0,-4.996003610813204e-16
1666088453531561115,0.0,0.0,0.0,0.0,0.0,-4.996003610813204e-16
1666088453581500031,0.0,0.0,0.0,0.0,0.0,-4.996003610813204e-16
1666088453631584874,0.0,0.0,0.0,0.0,0.0,-4.996003610813204e-16
1666088453681455270,0.0,0.0,0.0,0.0,0.0,-4.996003610813204e-16
1666088453731509327,0.0,0.0,0.0,0.0,0.0,-4.996003610813204e-16
1666088453781537079,0.0,0.0,0.0,0.0,0.0,-4.996003610813204e-16
1666088453831458240,0.0,0.0,0.0,0.0,0.0,-4.996003610813204e-16
1666088453881660287,0.0,0.0,0.0,0.0,0.0,-4.996003610813204e-16
1666088453931913751,0.0,0.0,0.0,0.0,0.0,0.0999999999999995
1666088453981445398,0.0,0.0,0.0,0.0,0.0,0.17453292519943245
1666088454031763192,0.0,0.0,0.0,0.0,0.0,0.17453292519943245
1666088454081573727,0.0,0.0,0.0,0.0,0.0,0.17453292519943245
1666088454131483912,0.0,0.0,0.0,0.0,0.0,0.17453292519943245
1666088454182063445,0.0,0.0,0.0,0.0,0.0,0.17453292519943245
1666088454231515411,0.0,0.0,0.0,0.0,0.0,0.17453292519943245
1666088454281891014,0.0,0.0,0.0,0.0,0.0,0.17453292519943245
1666088454331486551,0.0,0.0,0.0,0.0,0.0,0.17453292519943245
1666088454382064431,0.0,0.0,0.0,0.0,0.0,0.17453292519943245
1666088454431683784,0.0,0.0,0.0,0.0,0.0,0.17453292519943245
1666088454482455693,0.0,0.0,0.0,0.0,0.0,0.17453292519943245
1666088454532114687,0.0,0.0,0.0,0.0,0.0,0.17453292519943245
1666088454582722615,0.0,0.0,0.0,0.0,0.0,0.17453292519943245
1666088454631632653,0.0,0.0,0.0,0.0,0.0,0.2220234929049244
1666088454681763689,0.0,0.0,0.0,0.0,0.0,0.2165685116157388
1666088454731489824,0.0,0.0,0.0,0.0,0.0,0.2165685116157388
1666088454781557060,0.0,0.0,0.0,0.0,0.0,0.2165685116157388
1666088454831652174,0.0,0.0,0.0,0.0,0.0,0.22545832902013965
1666088454881613056,0.0,0.0,0.0,0.0,0.0,0.22726888576329618
1666088454931570296,0.0,0.0,0.0,0.0,0.0,0.22460619157102352
1666088454981487408,0.0,0.0,0.0,0.0,0.0,0.22573936170355266
1666088455031423441,0.0,0.0,0.0,0.0,0.0,0.22573936170355266
1666088455081838682,0.0,0.0,0.0,0.0,0.0,0.23008697776288647
1666088455131722524,0.0,0.0,0.0,0.0,0.0,0.22990798804094914
1666088455181501682,0.0,0.0,0.0,0.0,0.0,0.22990798804094914
1666088455231694037,0.0,0.0,0.0,0.0,0.0,0.229381145175143
1666088455281456004,0.0,0.0,0.0,0.0,0.0,0.22641319567196402
1666088455331919802,0.0,0.0,0.0,0.0,0.0,0.22641319567196402
1666088455381832197,0.0,0.0,0.0,0.0,0.0,0.22564007419436644
1666088455431416584,0.0,0.0,0.0,0.0,0.0,0.22564007419436644
1666088455481433308,0.0,0.0,0.0,0.0,0.0,0.22785145266773615
1666088455531551092,0.0,0.0,0.0,0.0,0.0,0.22256125228686768
1666088455581545097,0.0,0.0,0.0,0.0,0.0,0.22256125228686768
1666088455631774291,0.0,0.0,0.0,0.0,0.0,0.22356754136618304
1666088455681408700,0.0,0.0,0.0,0.0,0.0,0.2167761992222213
1666088455731532978,0.0,0.0,0.0,0.0,0.0,0.2167761992222213
1666088455781576901,0.0,0.0,0.0,0.0,0.0,0.2167761992222213
1666088455831907204,0.0,0.0,0.0,0.0,0.0,0.22278186268782674
1666088455881603757,0.0,0.0,0.0,0.0,0.0,0.22278186268782674
1666088455931463343,0.0,0.0,0.0,0.0,0.0,0.22278186268782674
1666088455981447473,0.0,0.0,0.0,0.0,0.0,0.17453292519943245
1666088456031538488,0.0,0.0,0.0,0.0,0.0,0.17453292519943245
1666088456081649018,0.0,0.0,0.0,0.0,0.0,0.17453292519943245
1666088456131542093,0.0,0.0,0.0,0.0,0.0,0.17453292519943245
1666088456181493436,0.0,0.0,0.0,0.0,0.0,0.17453292519943245
1666088456231339840,0.0,0.0,0.0,0.0,0.0,0.17453292519943245
1666088456281548770,0.0,0.0,0.0,0.0,0.0,0.17453292519943245
1666088456331427116,0.0,0.0,0.0,0.0,0.0,0.17453292519943245
1666088456381442748,0.0,0.0,0.0,0.0,0.0,0.17453292519943245
1666088456431696159,0.0,0.0,0.0,0.0,0.0,0.17453292519943245
1666088456481973566,0.0,0.0,0.0,0.0,0.0,0.17453292519943245
1666088456531749297,0.0,0.0,0.0,0.0,0.0,0.17453292519943245
1666088456582205685,0.0,0.0,0.0,0.0,0.0,0.17453292519943245
1666088456632077302,0.0,0.0,0.0,0.0,0.0,0.17453292519943245
1666088456681499975,0.0,0.0,0.0,0.0,0.0,0.17453292519943245
1666088456731515659,0.0,0.0,0.0,0.0,0.0,0.17453292519943245
1666088456781832392,0.0,0.0,0.0,0.0,0.0,0.17453292519943245
1666088456831482324,0.0,0.0,0.0,0.0,0.0,0.17453292519943245
1666088456881550309,0.0,0.0,0.0,0.0,0.0,0.17453292519943245
1666088456931516177,0.0,0.0,0.0,0.0,0.0,0.17453292519943245
1666088456982112560,0.0,0.0,0.0,0.0,0.0,0.17453292519943245
1666088457031854390,0.0,0.0,0.0,0.0,0.0,0.17453292519943245
1666088457081662241,0.0,0.0,0.0,0.0,0.0,0.17453292519943245
1666088457131469314,0.0,0.0,0.0,0.0,0.0,0.17453292519943245
1666088457182010161,0.0,0.0,0.0,0.0,0.0,0.17453292519943245
1666088457231467026,0.0,0.0,0.0,0.0,0.0,0.17453292519943245
1666088457281505191,0.0,0.0,0.0,0.0,0.0,0.17453292519943245
1666088457332071409,0.0,0.0,0.0,0.0,0.0,0.17453292519943245
1666088457381721109,0.0,0.0,0.0,0.0,0.0,0.17453292519943245
1666088457431922226,0.0,0.0,0.0,0.0,0.0,0.17453292519943245
1666088457481736113,0.0,0.0,0.0,0.0,0.0,0.17453292519943245
1666088457532634921,0.0,0.0,0.0,0.0,0.0,0.17453292519943245
1666088457581489958,0.0,0.0,0.0,0.0,0.0,0.17453292519943245
1666088457631919855,0.0,0.0,0.0,0.0,0.0,0.17453292519943245
1666088457681725136,0.0,0.0,0.0,0.0,0.0,0.17453292519943245
1666088457731752539,0.0,0.0,0.0,0.0,0.0,0.17453292519943245
1666088457781450502,0.0,0.0,0.0,0.0,0.0,0.17453292519943245
1666088457831647494,0.0,0.0,0.0,0.0,0.0,0.17453292519943245
1666088457881669481,0.0,0.0,0.0,0.0,0.0,0.17453292519943245
1666088457931547422,0.0,0.0,0.0,0.0,0.0,0.17453292519943245
1666088457981464166,0.0,0.0,0.0,0.0,0.0,0.17453292519943245
1666088458031571233,0.0,0.0,0.0,0.0,0.0,0.17453292519943245
1666088458081636702,0.0,0.0,0.0,0.0,0.0,0.17453292519943245
1666088458131906817,0.0,0.0,0.0,0.0,0.0,0.17453292519943245
1666088458181678286,0.0,0.0,0.0,0.0,0.0,0.17453292519943245
1666088458232112951,0.0,0.0,0.0,0.0,0.0,0.17453292519943245
1666088458281572895,0.0,0.0,0.0,0.0,0.0,0.17453292519943245
1666088458331478133,0.0,0.0,0.0,0.0,0.0,0.17453292519943245
1666088458383554842,0.0,0.0,0.0,0.0,0.0,0.17453292519943245
