%time,field.linear.x,field.linear.y,field.linear.z,field.angular.x,field.angular.y,field.angular.z
1666088483454256663,0.0,0.0,0.0,0.0,0.0,0.0
1666088483475128170,0.0,0.0,0.0,0.0,0.0,0.0
1666088483495156624,0.0,0.0,0.0,0.0,0.0,0.0
1666088483515112994,0.0,0.0,0.0,0.0,0.0,0.0
1666088483535077340,0.0,0.0,0.0,0.0,0.0,0.0
1666088483555116389,0.0,0.0,0.0,0.0,0.0,0.0
1666088483575099272,0.0,0.0,0.0,0.0,0.0,0.0
1666088483595106279,0.0,0.0,0.0,0.0,0.0,0.0
1666088483615136966,0.0,0.0,0.0,0.0,0.0,0.0
1666088483656063557,0.0,0.0,0.0,0.0,0.0,0.0
1666088483656072919,0.0,0.0,0.0,0.0,0.0,0.0
1666088483700093766,0.0,0.0,0.0,0.0,0.0,0.0
1666088483700104267,0.0,0.0,0.0,0.0,0.0,0.0
1666088483748028854,0.0,0.0,0.0,0.0,0.0,0.0
1666088483748036898,0.0,0.0,0.0,0.0,0.0,0.0
1666088483796077630,0.0,0.0,0.0,0.0,0.0,0.0
1666088483796087333,0.0,0.0,0.0,0.0,0.0,0.0
1666088483796101403,0.002132302208337933,0.0,0.0,0.0,0.0,-0.0005235987755982988
1666088483840029707,0.002132302208337933,0.0,0.0,0.0,0.0,0.0
1666088483840039829,0.0,0.0,0.0,0.0,0.0,0.0
1666088483854990020,0.0,0.0,0.0,0.0,0.0,0.0
1666088483875014870,0.0,0.0,0.0,0.0,0.0,0.0
1666088483916036455,0.0,0.0,0.0,0.0,0.0,0.0
1666088483916045501,0.0,0.0,0.0,0.0,0.0,0.0
1666088483960024900,0.0,0.0,0.0,0.0,0.0,0.0
1666088483960030712,0.0,0.0,0.0,0.0,0.0,0.0
1666088484004018435,0.0,0.0,0.0,0.0,0.0,0.0
1666088484004025864,0.0,0.0,0.0,0.0,0.0,0.0
1666088484052051499,0.0,0.0,0.0,0.0,0.0,0.0
1666088484052062318,-0.002132302208337933,0.0,0.0,0.0,0.0,0.0
1666088484096028556,0.0,0.0,0.0,0.0,0.0,0.0
1666088484096046748,0.0,0.0,0.0,0.0,0.0,0.0
1666088484096053280,0.0,0.0,0.0,0.0,0.0,0.0
1666088484140061177,0.0,0.0,0.0,0.0,0.0,0.0
1666088484140076463,0.0,0.0,0.0,0.0,0.0,0.0
1666088484154903639,0.0,0.0,0.0,0.0,0.0,0.0
1666088484174889828,0.0,0.0,0.0,0.0,0.0,0.0
1666088484216032695,0.0,0.0,0.0,0.0,0.0,0.0
1666088484216041664,0.0,0.0,0.0,0.0,0.0,0.0
1666088484260031685,0.0,0.0,0.0,0.0,0.0,0.0
1666088484260036871,0.0,0.0,0.0,0.0,0.0,0.0
1666088484304024935,0.0,0.0,0.0,0.0,0.0,0.0
1666088484304033984,0.0,0.0,0.0,0.0,0.0,0.0
1666088484348033446,0.0,0.0,0.0,0.0,0.0,0.0
1666088484348049992,0.0,0.0,0.0,0.0,0.0,0.0
1666088484392087255,0.0,0.0,0.0,0.0,0.0,0.0
1666088484392096793,0.0,0.0,0.0,0.0,0.0,0.0
1666088484436060259,0.0,0.0,0.0,0.0,0.0,0.0
1666088484436066183,0.0,0.0,0.0,0.0,0.0,0.0
1666088484436078482,0.0,0.0,0.0,0.0,0.0,0.0
1666088484480054261,0.0,0.0,0.0,0.0,0.0,0.0
1666088484480060521,0.0,0.0,0.0,0.0,0.0,0.0
1666088484494693545,0.0,0.0,0.0,0.0,0.0,0.0
1666088484514718145,0.0,0.0,0.0,0.0,0.0,0.0
1666088484556061528,0.0,0.0,0.0,0.0,0.0,0.0
1666088484556070223,0.0,0.0,0.0,0.0,0.0,0.0
1666088484600051563,0.0,0.0,0.0,0.0,0.0,0.0
1666088484600056494,0.0,0.0,0.0,0.0,0.0,0.0
1666088484644059622,0.0,0.0,0.0,0.0,0.0,0.0
1666088484644069915,0.0,0.0,0.0,0.0,0.0,0.0
1666088484688099983,0.0,0.0,0.0,0.0,0.0,0.0
1666088484688109075,0.0,0.0,0.0,0.0,0.0,0.0
1666088484732057333,0.0,0.0,0.0,0.0,0.0,0.0
1666088484732065423,0.0,0.0,0.0,0.0,0.0,0.0
1666088484776046389,0.0,0.0,0.0,0.0,0.0,0.0
1666088484776054478,0.0,0.0,0.0,0.0,0.0,0.0
1666088484776060765,0.0,0.0,0.0,0.0,0.0,0.0
1666088484820057830,0.0,0.0,0.0,0.0,0.0,0.0
1666088484820067173,0.0,0.0,0.0,0.0,0.0,0.0
1666088484836616751,0.0,0.0,0.0,0.0,0.0,0.0
1666088484855667890,0.0,0.0,0.0,0.0,0.0,0.0
1666088484896048175,0.0,0.0,0.0,0.0,0.0,0.0
1666088484896056943,0.0,0.0,0.0,0.0,0.0,0.0
1666088484940063588,0.0,0.0,0.0,0.0,0.0,0.0
1666088484940070554,0.0,0.0,0.0,0.0,0.0,0.0
1666088484984157336,0.0,0.0,0.0,0.0,0.0,0.0
1666088484984162972,0.0,0.0,0.0,0.0,0.0,0.0
1666088485028381822,0.0,0.0,0.0,0.0,0.0,0.0
1666088485028426877,0.0,0.0,0.0,0.0,0.0,0.0
1666088485072058201,0.0,0.0,0.0,0.0,0.0,0.0
1666088485072068177,0.0,0.0,0.0,0.0,0.0,0.0
1666088485116058112,0.0,0.0,0.0,0.0,0.0,0.0
1666088485116067424,0.0,0.0,0.0,0.0,0.0,0.0
1666088485116070902,0.0,0.0,0.0,0.0,0.0,0.0
1666088485160094420,0.0,0.0,0.0,0.0,0.0,0.0
1666088485160108796,0.0,0.0,0.0,0.0,0.0,0.0
1666088485175565854,0.0,0.0,0.0,0.0,0.0,0.0
1666088485195870838,0.0,0.0,0.0,0.0,0.0,0.0
1666088485236038399,0.0,0.0,0.0,0.0,0.0,0.0
1666088485236051409,0.0,0.0,0.0,0.0,0.0,0.0
1666088485280037103,0.0,0.0,0.0,0.0,0.0,0.0
1666088485280042482,0.0,0.0,0.0,0.0,0.0,0.0
1666088485324048733,0.0,0.0,0.0,0.0,0.0,0.0
1666088485324057230,0.0,0.0,0.0,0.0,0.0,0.0
1666088485368036429,0.0,0.0,0.0,0.0,0.0,0.0
1666088485368047048,0.0,0.0,0.0,0.0,0.0,0.0
1666088485412037356,0.0,0.0,0.0,0.0,0.0,0.0
1666088485412046029,0.0,0.0,0.0,0.0,0.0,0.0
1666088485456097269,0.0,0.0,0.0,0.0,0.0,0.0
1666088485456112016,0.0,0.0,0.0,0.0,0.0,0.0
1666088485500069748,0.0,0.0,0.0,0.0,0.0,0.0
1666088485500081174,0.0,0.0,0.0,0.0,0.0,0.0
1666088485500088011,0.0,0.0,0.0,0.0,0.0,0.0
1666088485544035224,0.0,0.0,0.0,0.0,0.0,0.0
1666088485544041537,0.0,0.0,0.0,0.0,0.0,0.0
1666088485555411291,0.0,0.0,0.0,0.0,0.0,0.0
1666088485576262104,0.0,0.0,0.0,0.0,0.0,0.0
1666088485620052014,0.0,0.0,0.0,0.0,0.0,0.0
1666088485620064212,0.0,0.0,0.0,0.0,0.0,0.0
1666088485668078729,0.0,0.0,0.0,0.0,0.0,0.0
1666088485668090500,0.0,0.0,0.0,0.0,0.0,0.0
1666088485716036111,0.0,0.0,0.0,0.0,0.0,0.0
1666088485716047227,0.0,0.0,0.0,0.0,0.0,0.0
1666088485760038617,0.0,0.0,0.0,0.0,0.0,0.0
1666088485760049969,0.0,0.0,0.0,0.0,0.0,0.0
1666088485760056441,0.0,0.0,0.0,0.0,0.0,0.0
1666088485804032283,0.0,0.0,0.0,0.0,0.0,0.0
1666088485804038289,0.0,0.0,0.0,0.0,0.0,0.0
1666088485816862884,0.0,0.0,0.0,0.0,0.0,0.0
1666088485836195121,0.0,0.0,0.0,0.0,0.0,0.0
1666088485884051610,0.0,0.0,0.0,0.0,0.0,0.0
1666088485884062783,0.0,0.0,0.0,0.0,0.0,0.0
1666088485928056689,0.0,0.0,0.0,0.0,0.0,0.0
1666088485928065118,0.0,0.0,0.0,0.0,0.0,0.0
1666088485976032333,0.0,0.0,0.0,0.0,0.0,0.0
1666088485976041181,0.0,0.0,0.0,0.0,0.0,0.0
1666088486016079227,0.0,0.0,0.0,0.0,0.0,0.0
1666088486016091839,0.0,0.0,0.0,0.0,0.0,0.0
1666088486064501555,0.0,0.0,0.0,0.0,0.0,0.0
1666088486064556642,0.0,0.0,0.0,0.0,0.0,0.0
1666088486064568922,0.0,0.0,0.0,0.0,0.0,0.0
1666088486108212151,0.0,0.0,0.0,0.0,0.0,0.0
1666088486108241252,0.0,0.0,0.0,0.0,0.0,0.0
1666088486116389625,0.0,0.0,0.0,0.0,0.0,0.0
1666088486136135152,0.0,0.0,0.0,0.0,0.0,0.0
1666088486180501030,0.0,0.0,0.0,0.0,0.0,0.0
1666088486180516630,0.0,0.0,0.0,0.0,0.0,0.0
1666088486224074089,0.0,0.0,0.0,0.0,0.0,0.0
1666088486224086892,0.0,0.0,0.0,0.0,0.0,0.0
1666088486268151584,0.0,0.0,0.0,0.0,0.0,0.0
1666088486268175951,0.0,0.0,0.0,0.0,0.0,0.0
1666088486312122637,0.0,0.0,0.0,0.0,0.0,0.0
1666088486312143438,0.0,0.0,0.0,0.0,0.0,0.0
1666088486360068498,0.0,0.0,0.0,0.0,0.0,0.0
1666088486360086715,0.0,0.0,0.0,0.0,0.0,0.0
1666088486360102228,0.0,0.0,0.0,0.0,0.0,0.0
1666088486404272870,0.0,0.0,0.0,0.0,0.0,0.0
1666088486404313945,0.0,0.0,0.0,0.0,0.0,0.0
1666088486417441780,0.0,0.0,0.0,0.0,0.0,0.0
1666088486437075103,0.0,0.0,0.0,0.0,0.0,0.0
1666088486484214972,0.0,0.0,0.0,0.0,0.0,0.0
1666088486484242056,0.0,0.0,0.0,0.0,0.0,0.0
1666088486528051954,0.0,0.0,0.0,0.0,0.0,0.0
1666088486528063472,0.0,0.0,0.0,0.0,0.0,0.0
1666088486572085965,0.0,0.0,0.0,0.0,0.0,0.0
1666088486572100214,0.0,0.0,0.0,0.0,0.0,0.0
1666088486620047664,0.0,0.0,0.0,0.0,0.0,0.0
1666088486620059339,0.0,0.0,0.0,0.0,0.0,0.0
1666088486620068085,0.0,0.0,0.0,0.0,0.0,0.0
1666088486664045960,0.0,0.0,0.0,0.0,0.0,0.0
1666088486664058880,0.0,0.0,0.0,0.0,0.0,0.0
1666088486677502428,0.0,0.0,0.0,0.0,0.0,0.0
1666088486696874705,0.0,0.0,0.0,0.0,0.0,0.0
1666088486740048429,0.0,0.0,0.0,0.0,0.0,0.0
1666088486740060416,0.0,0.0,0.0,0.0,0.0,0.0
1666088486788054544,0.0,0.0,0.0,0.0,0.0,0.0
1666088486788066068,0.0,0.0,0.0,0.0,0.0,0.0
1666088486832052769,0.0,0.0,0.0,0.0,0.0,0.0
1666088486832065245,0.0,0.0,0.0,0.0,0.0,0.0
1666088486876049378,0.0,0.0,0.0,0.0,0.0,0.0
1666088486876060049,0.0,0.0,0.0,0.0,0.0,0.0
1666088486920048870,0.0,0.0,0.0,0.0,0.0,0.0
1666088486920060344,0.0,0.0,0.0,0.0,0.0,0.0
1666088486920068925,0.0,0.0,0.0,0.0,0.0,0.0
1666088486964057540,0.0,0.0,0.0,0.0,0.0,0.0
1666088486964072980,0.0,0.0,0.0,0.0,0.0,0.0
1666088486977886127,0.0,0.0,0.0,0.0,0.0,0.0
1666088486996833818,0.0,0.0,0.0,0.0,0.0,0.0
1666088487040043746,0.0,0.0,0.0,0.0,0.0,0.0
1666088487040054083,0.0,0.0,0.0,0.0,0.0,0.0
1666088487084039180,0.0,0.0,0.0,0.0,0.0,0.0
1666088487084046426,0.0,0.0,0.0,0.0,0.0,0.0
1666088487128050147,0.0,0.0,0.0,0.0,0.0,0.0
1666088487128060386,0.0,0.0,0.0,0.0,0.0,0.0
1666088487172066624,0.0,0.0,0.0,0.0,0.0,0.0
1666088487172078097,0.0,0.0,0.0,0.0,0.0,0.0
1666088487216060805,0.0,0.0,0.0,0.0,0.0,0.0
1666088487216074423,0.0,0.0,0.0,0.0,0.0,0.0
1666088487264121703,0.0,0.0,0.0,0.0,0.0,0.0
1666088487264139437,0.0,0.0,0.0,0.0,0.0,0.0
1666088487264150623,0.0,0.0,0.0,0.0,0.0,0.0
1666088487312090152,0.0,0.0,0.0,0.0,0.0,0.0
1666088487312116439,0.0,0.0,0.0,0.0,0.0,0.0
1666088487316870278,0.0,0.0,0.0,0.0,0.0,0.0
1666088487337866406,0.0,0.0,0.0,0.0,0.0,0.0
1666088487380098075,0.0,0.0,0.0,0.0,0.0,0.0
1666088487380112335,0.0,0.0,0.0,0.0,0.0,0.0
1666088487424065973,0.0,0.0,0.0,0.0,0.0,0.0
1666088487424078052,0.0,0.0,0.0,0.0,0.0,0.0
1666088487468080250,0.0,0.0,0.0,0.0,0.0,0.0
1666088487468100281,0.0,0.0,0.0,0.0,0.0,0.0
1666088487512092300,0.0,0.0,0.0,0.0,0.0,0.0
1666088487512108853,0.0,0.0,0.0,0.0,0.0,0.0
1666088487556072029,0.0,0.0,0.0,0.0,0.0,0.0
1666088487556082077,0.0,0.0,0.0,0.0,0.0,0.0
1666088487600055226,0.0,0.0,0.0,0.0,0.0,0.0
1666088487600067653,0.0,0.0,0.0,0.0,0.0,0.0
1666088487600072118,0.0,0.0,0.0,0.0,0.0,0.0
1666088487644099340,0.0,0.0,0.0,0.0,0.0,0.0
1666088487644109703,0.0,0.0,0.0,0.0,0.0,0.0
1666088487657703650,0.0,0.0,0.0,0.0,0.0,0.0
1666088487677451247,0.0,0.0,0.0,0.0,0.0,0.0
1666088487720074878,0.0,0.0,0.0,0.0,0.0,0.0
1666088487720086163,0.0,0.0,0.0,0.0,0.0,0.0
1666088487764094538,0.0,0.0,0.0,0.0,0.0,0.0
1666088487764111624,0.0,0.0,0.0,0.0,0.0,0.0
1666088487808155734,0.0,0.0,0.0,0.0,0.0,0.0
1666088487808178661,0.0,0.0,0.0,0.0,0.0,0.0
1666088487852074950,0.0,0.0,0.0,0.0,0.0,0.0
1666088487852084366,0.0,0.0,0.0,0.0,0.0,0.0
1666088487896180012,0.0,0.0,0.0,0.0,0.0,0.0
1666088487896201133,0.0,0.0,0.0,0.0,0.0,0.0
1666088487940093574,0.0,0.0,0.0,0.0,0.0,0.0
1666088487940111249,0.0,0.0,0.0,0.0,0.0,0.0
1666088487940118857,0.0,0.0,0.0,0.0,0.0,0.0
1666088487984054591,0.0,0.0,0.0,0.0,0.0,0.0
1666088487984069796,0.0,0.0,0.0,0.0,0.0,0.0
1666088487997696169,0.0,0.0,0.0,0.0,0.0,0.0
1666088488017441489,0.0,0.0,0.0,0.0,0.0,0.0
1666088488064207755,0.0,0.0,0.0,0.0,0.0,0.0
1666088488064234752,0.0,0.0,0.0,0.0,0.0,0.0
1666088488108215214,0.0,0.0,0.0,0.0,0.0,0.0
1666088488108229509,0.0,0.0,0.0,0.0,0.0,0.0
1666088488152070231,0.0,0.0,0.0,0.0,0.0,0.0
1666088488152084929,0.0,0.0,0.0,0.0,0.0,0.0
1666088488196098729,0.0,0.0,0.0,0.0,0.0,0.0
1666088488196109795,0.0,0.0,0.0,0.0,0.0,0.0
1666088488240420617,0.0,0.0,0.0,0.0,0.0,0.0
1666088488240448057,0.0,0.0,0.0,0.0,0.0,0.0
1666088488240611234,0.0,0.0,0.0,0.0,0.0,0.0
1666088488288084942,0.0,0.0,0.0,0.0,0.0,0.0
1666088488288092739,0.0,0.0,0.0,0.0,0.0,0.0
1666088488297456380,0.0,0.0,0.0,0.0,0.0,0.0
1666088488317561202,0.0,0.0,0.0,0.0,0.0,0.0
1666088488364089974,0.0,0.0,0.0,0.0,0.0,0.0
1666088488364104755,0.0,0.0,0.0,0.0,0.0,0.0
1666088488408150942,0.0,0.0,0.0,0.0,0.0,0.0
1666088488408172362,0.0,0.0,0.0,0.0,0.0,0.0
1666088488456098737,0.0,0.0,0.0,0.0,0.0,0.0
1666088488456112968,0.0,0.0,0.0,0.0,0.0,0.0
1666088488504095662,0.0,0.0,0.0,0.0,0.0,0.0
1666088488504114336,0.0,0.0,0.0,0.0,0.0,0.0
1666088488504127587,0.0,0.0,0.0,0.0,0.0,0.0
1666088488548068419,0.0,0.0,0.0,0.0,0.0,0.0
1666088488548083117,0.0,0.0,0.0,0.0,0.0,0.0
1666088488558464020,0.0,0.0,0.0,0.0,0.0,0.0
1666088488578743617,0.0,0.0,0.0,0.0,0.0,0.0
1666088488620082508,0.0,0.0,0.0,0.0,0.0,0.0
1666088488620096453,0.0,0.0,0.0,0.0,0.0,0.0
1666088488664141446,0.0,0.0,0.0,0.0,0.0,0.0
1666088488664160782,0.0,0.0,0.0,0.0,0.0,0.0
1666088488708137271,0.0,0.0,0.0,0.0,0.0,0.0
1666088488708154581,0.0,0.0,0.0,0.0,0.0,0.0
1666088488752068396,0.0,0.0,0.0,0.0,0.0,0.0
1666088488752079217,0.0,0.0,0.0,0.0,0.0,0.0
1666088488796079826,0.0,0.0,0.0,0.0,0.0,0.0
1666088488796093822,0.0,0.0,0.0,0.0,0.0,0.0
1666088488845315582,0.0,0.0,0.0,0.0,0.0,0.0
1666088488845332307,0.0,0.0,0.0,0.0,0.0,0.0
1666088488845369971,0.0,0.0,0.0,0.0,0.0,0.0
1666088488888103529,0.0,0.0,0.0,0.0,0.0,0.0
1666088488888115188,0.0,0.0,0.0,0.0,0.0,0.0
1666088488898255114,0.0,0.0,0.0,0.0,0.0,0.0
1666088488918265753,0.0,0.0,0.0,0.0,0.0,0.0
1666088488960051066,0.0,0.0,0.0,0.0,0.0,0.0
1666088488960062372,0.0,0.0,0.0,0.0,0.0,0.0
1666088489004054385,0.0,0.0,0.0,0.0,0.0,0.0
1666088489004118204,0.0,0.0,0.0,0.0,0.0,0.0
1666088489048127087,0.0,0.0,0.0,0.0,0.0,0.0
1666088489048144239,0.0,0.0,0.0,0.0,0.0,0.0
1666088489092052961,0.0,0.0,0.0,0.0,0.0,0.0
1666088489092066488,0.0,0.0,0.0,0.0,0.0,0.0
1666088489136136614,0.0,0.0,0.0,0.0,0.0,0.0
1666088489136155448,0.0,0.0,0.0,0.0,0.0,0.0
1666088489180168187,0.0,0.0,0.0,0.0,0.0,0.0
1666088489180197933,0.0,0.0,0.0,0.0,0.0,0.0
1666088489180203200,0.0,0.0,0.0,0.0,0.0,0.0
1666088489224086365,0.0,0.0,0.0,0.0,0.0,0.0
1666088489224099776,0.0,0.0,0.0,0.0,0.0,0.0
1666088489238221180,0.0,0.0,0.0,0.0,0.0,0.0
1666088489258146292,0.0,0.0,0.0,0.0,0.0,0.0
1666088489304075119,0.0,0.0,0.0,0.0,0.0,0.0
1666088489304093046,0.0,0.0,0.0,0.0,0.0,0.0
1666088489348090249,0.0,0.0,0.0,0.0,0.0,0.0
1666088489348103492,0.0,0.0,0.0,0.0,0.0,0.0
1666088489392075939,0.0,0.0,0.0,0.0,0.0,0.0
1666088489392090442,0.0,0.0,0.0,0.0,0.0,0.0
1666088489436179325,0.0,0.0,0.0,0.0,0.0,0.0
1666088489436201676,0.0,0.0,0.0,0.0,0.0,0.0
1666088489484406012,0.0,0.0,0.0,0.0,0.0,0.0
1666088489484446251,0.0,0.0,0.0,0.0,0.0,0.0
1666088489484473524,0.0,0.0,0.0,0.0,0.0,0.0
1666088489528219924,0.0,0.0,0.0,0.0,0.0,0.0
1666088489528296408,0.0,0.0,0.0,0.0,0.0,0.0
1666088489539422261,0.0,0.0,0.0,0.0,0.0,0.0
1666088489558005480,0.0,0.0,0.0,0.0,0.0,0.0
1666088489600158718,0.0,0.0,0.0,0.0,0.0,0.0
1666088489600183483,0.0,0.0,0.0,0.0,0.0,0.0
1666088489648093993,0.0,0.0,0.0,0.0,0.0,0.0
1666088489648105709,0.0,0.0,0.0,0.0,0.0,0.0
1666088489692107285,0.0,0.0,0.0,0.0,0.0,0.0
1666088489692124223,0.0,0.0,0.0,0.0,0.0,0.0
1666088489736210739,0.0,0.0,0.0,0.0,0.0,0.0
1666088489736233665,0.0,0.0,0.0,0.0,0.0,0.0
1666088489780228768,0.0,0.0,0.0,0.0,0.0,0.0
1666088489780253623,0.0,0.0,0.0,0.0,0.0,0.0
1666088489780259508,0.0,0.0,0.0,0.0,0.0,0.0
1666088489824115445,0.0,0.0,0.0,0.0,0.0,0.0
1666088489824136408,0.0,0.0,0.0,0.0,0.0,0.0
1666088489839414874,0.0,0.0,0.0,0.0,0.0,0.0
1666088489859125716,0.0,0.0,0.0,0.0,0.0,0.0
1666088489900796824,0.0,0.0,0.0,0.0,0.0,0.0
1666088489900821420,0.0,0.0,0.0,0.0,0.0,0.0
1666088489944103478,0.0,0.0,0.0,0.0,0.0,0.0
1666088489944119293,0.0,0.0,0.0,0.0,0.0,0.0
1666088489988110875,0.0,0.0,0.0,0.0,0.0,0.0
1666088489988124683,0.0,0.0,0.0,0.0,0.0,0.0
1666088490032435553,0.0,0.0,0.0,0.0,0.0,0.0
1666088490032483967,0.0,0.0,0.0,0.0,0.0,0.0
1666088490076296173,0.0,0.0,0.0,0.0,0.0,0.0
1666088490076319392,0.0,0.0,0.0,0.0,0.0,0.0
1666088490120125599,0.0,0.0,0.0,0.0,0.0,0.0
1666088490120142278,0.0,0.0,0.0,0.0,0.0,0.0
1666088490120151821,0.0,0.0,0.0,0.0,0.0,0.0
1666088490164141549,0.0,0.0,0.0,0.0,0.0,0.0
1666088490164170510,0.0,0.0,0.0,0.0,0.0,0.0
1666088490179752115,0.0,0.0,0.0,0.0,0.0,0.0
1666088490200039703,0.0,0.0,0.0,0.0,0.0,0.0
1666088490244234246,0.0,0.0,0.0,0.0,0.0,0.0
1666088490244256708,0.0,0.0,0.0,0.0,0.0,0.0
1666088490288350962,0.0,0.0,0.0,0.0,0.0,0.0
1666088490288399522,0.0,0.0,0.0,0.0,0.0,0.0
1666088490332202795,0.0,0.0,0.0,0.0,0.0,0.0
1666088490332226859,0.0,0.0,0.0,0.0,0.0,0.0
1666088490376132944,0.0,0.0,0.0,0.0,0.0,0.0
1666088490376152010,0.0,0.0,0.0,0.0,0.0,0.0
1666088490420336145,0.0,0.0,0.0,0.0,0.0,0.0
1666088490420393008,0.0,0.0,0.0,0.0,0.0,0.0
1666088490420399754,0.0,0.0,0.0,0.0,0.0,0.0
1666088490464154369,0.0,0.0,0.0,0.0,0.0,0.0
1666088490464184861,0.0,0.0,0.0,0.0,0.0,0.0
1666088490478842165,0.0,0.0,0.0,0.0,0.0,0.0
1666088490499960390,0.0,0.0,0.0,0.0,0.0,0.0
1666088490540164378,0.0,0.0,0.0,0.0,0.0,0.0
1666088490584189449,0.0,0.0,0.0,0.0,0.0,0.0
1666088490584212260,0.0,0.0,0.0,0.0,0.0,0.0
1666088490584220075,0.0,0.0,0.0,0.0,0.0,0.0
1666088490628149176,0.0,0.0,0.0,0.0,0.0,0.0
1666088490628165794,0.0,0.0,0.0,0.0,0.0,0.0
1666088490638743262,0.0,0.0,0.0,0.0,0.0,0.0
1666088490659765768,0.0,0.0,0.0,0.0,0.0,0.0
1666088490700150191,0.0,0.0,0.0,0.0,0.0,0.0
1666088490700172846,0.0,0.0,0.0,0.0,0.0,0.0
1666088490744143721,0.0,0.0,0.0,0.0,0.0,0.0
1666088490744175704,0.0,0.0,0.0,0.0,0.0,0.0
1666088490792075086,0.0,0.0,0.0,0.0,0.0,0.0
1666088490792089467,0.0,0.0,0.0,0.0,0.0,0.0
1666088490836160658,0.0,0.0,0.0,0.0,0.0,0.0
1666088490836187187,0.0,0.0,0.0,0.0,0.0,0.0
1666088490880073576,0.0,0.0,0.0,0.0,0.0,0.0
1666088490880094443,0.0,0.0,0.0,0.0,0.0,0.0
1666088490880186506,0.0,0.0,0.0,0.0,0.0,0.0
1666088490928128633,0.0,0.0,0.0,0.0,0.0,0.0
1666088490928141509,0.0,0.0,0.0,0.0,0.0,0.0
1666088490938723720,0.0,0.0,0.0,0.0,0.0,0.0
1666088490959591457,0.0,0.0,0.0,0.0,0.0,0.0
1666088491000565687,0.0,0.0,0.0,0.0,0.0,0.0
1666088491048159127,0.0,0.0,0.0,0.0,0.0,0.0
1666088491048177365,0.0,0.0,0.0,0.0,0.0,0.0
1666088491048203079,0.0,0.0,0.0,0.0,0.0,0.0
1666088491092141496,0.0,0.0,0.0,0.0,0.0,0.0
1666088491092169441,0.0,0.0,0.0,0.0,0.0,0.0
1666088491100907998,0.0,0.0,0.0,0.0,0.0,0.0
1666088491120385226,0.0,0.0,0.0,0.0,0.0,0.0
1666088491164059897,0.0,0.0,0.0,0.0,0.0,0.0
1666088491164074627,0.0,0.0,0.0,0.0,0.0,0.0
1666088491208278473,0.0,0.0,0.0,0.0,0.0,0.0
1666088491208320840,0.0,0.0,0.0,0.0,0.0,0.0
1666088491252141710,0.0,0.0,0.0,0.0,0.0,0.0
1666088491252156939,0.0,0.0,0.0,0.0,0.0,0.0
1666088491296070383,0.0,0.0,0.0,0.0,0.0,0.0
1666088491296082689,0.0,0.0,0.0,0.0,0.0,0.0
1666088491344425433,0.0,0.0,0.0,0.0,0.0,0.0
1666088491344480189,0.0,0.0,0.0,0.0,0.0,0.0
1666088491344489493,0.0,0.0,0.0,0.0,0.0,0.0
1666088491392125203,0.0,0.0,0.0,0.0,0.0,0.0
1666088491392159060,0.0,0.0,0.0,0.0,0.0,0.0
1666088491400619759,0.0,0.0,0.0,0.0,0.0,0.0
1666088491420547122,0.0,0.0,0.0,0.0,0.0,0.0
1666088491464077456,0.0,0.0,0.0,0.0,0.0,0.0
1666088491464092913,0.0,0.0,0.0,0.0,0.0,0.0
1666088491512104731,0.0,0.0,0.0,0.0,0.0,0.0
1666088491512127370,0.0,0.0,0.0,0.0,0.0,0.0
1666088491560085280,0.0,0.0,0.0,0.0,0.0,0.0
1666088491560102908,0.0,0.0,0.0,0.0,0.0,0.0
1666088491560109052,0.0,0.0,0.0,0.0,0.0,0.0
1666088491604258485,0.0,0.0,0.0,0.0,0.0,0.0
1666088491604299376,0.0,0.0,0.0,0.0,0.0,0.0
1666088491619492338,0.0,0.0,0.0,0.0,0.0,0.0
1666088491639675174,0.0,0.0,0.0,0.0,0.0,0.0
1666088491684082228,0.0,0.0,0.0,0.0,0.0,0.0
1666088491684098799,0.0,0.0,0.0,0.0,0.0,0.0
1666088491728162104,0.0,0.0,0.0,0.0,0.0,0.0
1666088491728184218,0.0,0.0,0.0,0.0,0.0,0.0
1666088491772164394,0.0,0.0,0.0,0.0,0.0,0.0
1666088491772190648,0.0,0.0,0.0,0.0,0.0,0.0
1666088491816208054,0.0,0.0,0.0,0.0,0.0,0.0
1666088491816229937,0.0,0.0,0.0,0.0,0.0,0.0
1666088491860333792,0.0,0.0,0.0,0.0,0.0,0.0
1666088491860374627,0.0,0.0,0.0,0.0,0.0,0.0
1666088491904379762,0.0,0.0,0.0,0.0,0.0,0.0
1666088491904420109,0.0,0.0,0.0,0.0,0.0,0.0
1666088491904435207,0.0,0.0,0.0,0.0,0.0,0.0
1666088491948417533,0.0,0.0,0.0,0.0,0.0,0.0
1666088491948450399,0.0,0.0,0.0,0.0,0.0,0.0
1666088491960816068,0.0,0.0,0.0,0.0,0.0,0.0
1666088491979824994,0.0,0.0,0.0,0.0,0.0,0.0
1666088492024853873,0.0,0.0,0.0,0.0,0.0,0.0
1666088492024888436,0.0,0.0,0.0,0.0,0.0,0.0
1666088492068423802,0.0,0.0,0.0,0.0,0.0,0.0
1666088492068486427,0.0,0.0,0.0,0.0,0.0,0.0
1666088492116546113,0.0,0.0,0.0,0.0,0.0,0.0
1666088492116577220,0.0,0.0,0.0,0.0,0.0,0.0
1666088492160206794,0.0,0.0,0.0,0.0,0.0,0.0
1666088492160229423,0.0,0.0,0.0,0.0,0.0,0.0
1666088492204133277,0.0,0.0,0.0,0.0,0.0,0.0
1666088492204158587,0.0,0.0,0.0,0.0,0.0,0.0
1666088492204164013,0.0,0.0,0.0,0.0,0.0,0.0
1666088492248197707,0.0,0.0,0.0,0.0,0.0,0.0
1666088492248269934,0.0,0.0,0.0,0.0,0.0,0.0
1666088492260079907,0.0,0.0,0.0,0.0,0.0,0.0
1666088492279876883,0.0,0.0,0.0,0.0,0.0,0.0
1666088492320161405,0.0,0.0,0.0,0.0,0.0,0.0
1666088492320192102,0.0,0.0,0.0,0.0,0.0,0.0
1666088492364074141,0.0,0.0,0.0,0.0,0.0,0.0
1666088492364088499,0.0,0.0,0.0,0.0,0.0,0.0
1666088492408108629,0.0,0.0,0.0,0.0,0.0,0.0
1666088492408128604,0.0,0.0,0.0,0.0,0.0,0.0
1666088492452072244,0.0,0.0,0.0,0.0,0.0,0.0
1666088492452084500,0.0,0.0,0.0,0.0,0.0,0.0
1666088492496247496,0.0,0.0,0.0,0.0,0.0,0.0
1666088492496272152,0.0,0.0,0.0,0.0,0.0,0.0
1666088492544060105,0.0,0.0,0.0,0.0,0.0,0.0
1666088492544070582,0.0,0.0,0.0,0.0,0.0,0.0
1666088492544083822,0.0,0.0,0.0,0.0,0.0,0.0
1666088492588095546,0.0,0.0,0.0,0.0,0.0,0.0
1666088492588110871,0.0,0.0,0.0,0.0,0.0,0.0
1666088492600040254,0.0,0.0,0.0,0.0,0.0,0.0
1666088492619732486,0.0,0.0,0.0,0.0,0.0,0.0
1666088492660086688,0.0,0.0,0.0,0.0,0.0,0.0
1666088492704130146,0.0,0.0,0.0,0.0,0.0,0.0
1666088492704152959,0.0,0.0,0.0,0.0,0.0,0.0
1666088492704182257,0.0,0.0,0.0,0.0,0.0,0.0
1666088492748052936,0.0,0.0,0.0,0.0,0.0,0.0
1666088492748060899,0.0,0.0,0.0,0.0,0.0,0.0
1666088492760002387,0.0,0.0,0.0,0.0,0.0,0.0
1666088492781097386,0.0,0.0,0.0,0.0,0.0,0.0
1666088492824171885,0.0,0.0,0.0,0.0,0.0,0.0
1666088492824193041,0.0,0.0,0.0,0.0,0.0,0.0
1666088492872169428,0.0,0.0,0.0,0.0,0.0,0.0
1666088492872197065,0.0,0.0,0.0,0.0,0.0,0.0
1666088492916210832,0.0,0.0,0.0,0.0,0.0,0.0
1666088492916237992,0.0,0.0,0.0,0.0,0.0,0.0
1666088492960083292,0.0,0.0,0.0,0.0,0.0,0.0
1666088492960098448,0.0,0.0,0.0,0.0,0.0,0.0
1666088493004161522,0.0,0.0,0.0,0.0,0.0,0.0
1666088493004178335,0.0,0.0,0.0,0.0,0.0,0.0
1666088493004181759,0.0,0.0,0.0,0.0,0.0,0.0
1666088493048427084,0.0,0.0,0.0,0.0,0.0,0.0
1666088493048469162,0.0,0.0,0.0,0.0,0.0,0.0
1666088493061075174,0.0,0.0,0.0,0.0,0.0,0.0
1666088493080629096,0.0,0.0,0.0,0.0,0.0,0.0
1666088493128100839,0.0,0.0,0.0,0.0,0.0,0.0
1666088493128122852,0.0,0.0,0.0,0.0,0.0,0.0
1666088493172128957,0.0,0.0,0.0,0.0,0.0,0.0
1666088493172148219,0.0,0.0,0.0,0.0,0.0,0.0
1666088493216070340,0.0,0.0,0.0,0.0,0.0,0.0
1666088493216086712,0.0,0.0,0.0,0.0,0.0,0.0
1666088493260116609,0.0,0.0,0.0,0.0,0.0,0.0
1666088493260135954,0.0,0.0,0.0,0.0,0.0,0.0
1666088493304213954,0.0,0.0,0.0,0.0,0.0,0.0
1666088493304237913,0.0,0.0,0.0,0.0,0.0,0.0
1666088493304247315,0.0,0.0,0.0,0.0,0.0,0.0
1666088493352052049,0.0,0.0,0.0,0.0,0.0,0.0
1666088493352069929,0.0,0.0,0.0,0.0,0.0,0.0
1666088493360385539,0.0,0.0,0.0,0.0,0.0,0.0
1666088493381037723,0.0,0.0,0.0,0.0,0.0,0.0
1666088493424421802,0.0,0.0,0.0,0.0,0.0,0.0
1666088493424448729,0.0,0.0,0.0,0.0,0.0,0.0
1666088493468230479,0.0,0.0,0.0,0.0,0.0,0.0
1666088493468248795,0.0,0.0,0.0,0.0,0.0,0.0
1666088493512409829,0.0,0.0,0.0,0.0,0.0,0.0
1666088493512458092,0.0,0.0,0.0,0.0,0.0,0.0
1666088493556071483,0.0,0.0,0.0,0.0,0.0,0.0
1666088493556087479,0.0,0.0,0.0,0.0,0.0,0.0
1666088493600058084,0.0,0.0,0.0,0.0,0.0,0.0
1666088493600073328,0.0,0.0,0.0,0.0,0.0,0.0
1666088493644128027,0.0,0.0,0.0,0.0,0.0,0.0
1666088493644145132,0.0,0.0,0.0,0.0,0.0,0.0
1666088493644167247,0.0,0.0,0.0,0.0,0.0,0.0
1666088493688204959,0.0,0.0,0.0,0.0,0.0,0.0
1666088493688225992,0.0,0.0,0.0,0.0,0.0,0.0
1666088493700461205,0.0,0.0,0.0,0.0,0.0,0.0
1666088493721339425,0.0,0.0,0.0,0.0,0.0,0.0
1666088493768255932,0.0,0.0,0.0,0.0,0.0,0.0
1666088493768329369,0.0,0.0,0.0,0.0,0.0,0.0
1666088493812085289,0.0,0.0,0.0,0.0,0.0,0.0
1666088493812101665,0.0,0.0,0.0,0.0,0.0,0.0
1666088493860225498,0.0,0.0,0.0,0.0,0.0,0.0
1666088493860246381,0.0,0.0,0.0,0.0,0.0,0.0
1666088493909745819,0.0,0.0,0.0,0.0,0.0,0.0
1666088493909766344,0.0,0.0,0.0,0.0,0.0,0.0
1666088493909778699,0.0,0.0,0.0,0.0,0.0,0.0
1666088493956228620,0.0,0.0,0.0,0.0,0.0,0.0
1666088493956248850,0.0,0.0,0.0,0.0,0.0,0.0
1666088493960717236,0.0,0.0,0.0,0.0,0.0,0.0
1666088493981628484,0.0,0.0,0.0,0.0,0.0,0.0
1666088494024060459,0.0,0.0,0.0,0.0,0.0,0.0
1666088494024075708,0.0,0.0,0.0,0.0,0.0,0.0
1666088494068165759,0.0,0.0,0.0,0.0,0.0,0.0
1666088494068177377,0.0,0.0,0.0,0.0,0.0,0.0
1666088494112109136,0.0,0.0,0.0,0.0,0.0,0.0
1666088494112130766,0.0,0.0,0.0,0.0,0.0,0.0
1666088494156077410,0.0,0.0,0.0,0.0,0.0,0.0
1666088494156090163,0.0,0.0,0.0,0.0,0.0,0.0
1666088494200400760,0.0,0.0,0.0,0.0,0.0,0.0
1666088494200430566,0.0,0.0,0.0,0.0,0.0,0.0
1666088494244222526,0.0,0.0,0.0,0.0,0.0,0.0
1666088494244272640,0.0,0.0,0.0,0.0,0.0,0.0
1666088494244302540,0.0,0.0,0.0,0.0,0.0,0.0
1666088494288422114,0.0,0.0,0.0,0.0,0.0,0.0
1666088494288461225,0.0,0.0,0.0,0.0,0.0,0.0
1666088494301264967,0.0,0.0,0.0,0.0,0.0,0.0
1666088494323140410,0.0,0.0,0.0,0.0,0.0,0.0019198621771937623
1666088494368260747,0.0,0.0,0.0,0.0,0.0,0.0013962634015954637
1666088494368295316,0.0,0.0,0.0,0.0,0.0,0.0012217304763960308
1666088494416187280,0.0,0.0,0.0,0.0,0.0,0.0
1666088494416228455,0.0,0.0,0.0,0.0,0.0,0.0008726646259971648
1666088494464257394,0.017058417666703463,0.0,0.0,0.0,0.0,0.0005235987755982988
1666088494464275353,0.021323022083379328,0.0,0.0,0.0,0.0,-0.00034906585039886593
1666088494464440972,0.027719928708393127,0.0,0.0,0.0,0.0,0.0
1666088494522641984,0.014926115458365532,0.0,0.0,0.0,0.0,0.0022689280275926286
1666088494522674319,0.02345532429171726,0.0,0.0,0.0,0.0,-0.0005235987755982988
1666088494522851088,0.034116835333406925,0.0,0.0,0.0,0.0,-0.0015707963267948967
1666088494541825576,0.034116835333406925,0.0,0.0,0.0,0.0,0.0010471975511965976
1666088494588103898,0.044778346375096596,0.0,0.0,0.0,0.0,0.00034906585039886593
1666088494588120553,0.044778346375096596,0.0,0.0,0.0,0.0,-0.0036651914291880917
1666088494636303857,0.04691064858343452,0.0,0.0,0.0,0.0,-0.005585053606381855
1666088494636331219,0.06183676404180006,0.0,0.0,0.0,0.0,-0.0024434609527920616
1666088494680133955,0.06610136845847592,0.0,0.0,0.0,0.0,0.0
1666088494680152594,0.07249827508348972,0.0,0.0,0.0,0.0,-0.0041887902047863905
1666088494724162829,0.07463057729182765,0.0,0.0,0.0,0.0,-0.0027925268031909274
1666088494724177063,0.07249827508348972,0.0,0.0,0.0,0.0,-0.0038397243543875246
1666088494724180997,0.09382129716686904,0.0,0.0,0.0,0.0,-0.015533430342749534
1666088494772158195,0.09808590158354492,0.0,0.0,0.0,0.0,-0.030717794835100197
1666088494772180825,0.10021820379188286,0.0,0.0,0.0,0.0,-0.03735004599267865
1666088494782198717,0.09808590158354492,0.0,0.0,0.0,0.0,-0.011693705988362009
1666088494801084229,0.09808590158354492,0.0,0.0,0.0,0.0,-0.008203047484373348
1666088494848241394,0.12154122587526218,0.0,0.0,0.0,0.0,-0.01308996938995747
1666088494848265963,0.12367352808360012,0.0,0.0,0.0,0.0,-0.007330382858376183
1666088494896205682,0.13220273691695184,0.0,0.0,0.0,0.0,0.0006981317007977319
1666088494896268645,0.1300704347086139,0.0,0.0,0.0,0.0,-0.0022689280275926286
1666088494944167157,0.1300704347086139,0.0,0.0,0.0,0.0,-0.014660765716752367
1666088494944188011,0.13859964354196566,0.0,0.0,0.0,0.0,-0.022863813201125717
1666088494944194790,0.1556580612086691,0.0,0.0,0.0,0.0,-0.00942477796076938
1666088494992251043,0.159922665625345,0.0,0.0,0.0,0.0,-0.011693705988362009
1666088494992284607,0.15139345679199323,0.0,0.0,0.0,0.0,-0.02617993877991494
1666088495003338307,0.15779036341700706,0.0,0.0,0.0,0.0,-0.03560471674068432
1666088495021539677,0.17058417666703463,0.0,0.0,0.0,0.0,-0.04782202150464464
1666088495068334630,0.17484878108371052,0.0,0.0,0.0,0.0,-0.0439822971502571
1666088495068359710,0.1876425943337381,0.0,0.0,0.0,0.0,-0.049043751981040655
1666088495116127684,0.17911338550038639,0.0,0.0,0.0,0.0,-0.07644542123735164
1666088495116154177,0.18551029212540016,0.0,0.0,0.0,0.0,-0.08482300164692441
1666088495160308666,0.19617180316708985,0.0,0.0,0.0,0.0,-0.11082840750163991
1666088495160359997,0.20256870979210362,0.0,0.0,0.0,0.0,-0.1117010721276371
1666088495204081875,0.20256870979210362,0.0,0.0,0.0,0.0,-0.10157816246606997
1666088495204097446,0.20256870979210362,0.0,0.0,0.0,0.0,-0.14206980111233844
1666088495204102590,0.20896561641711744,0.0,0.0,0.0,0.0,-0.15498523757709648
1666088495252315202,0.23028863850049677,0.0,0.0,0.0,0.0,-0.16772614111665504
1666088495252345461,0.22602403408382088,0.0,0.0,0.0,0.0,-0.17453292519943295
1666088495262110978,0.23455324291717264,0.0,0.0,0.0,0.0,-0.17453292519943295
1666088495282726077,0.22815633629215884,0.0,0.0,0.0,0.0,-0.19826940302655582
1666088495328193110,0.2388178473338485,0.0,0.0,0.0,0.0,-0.20961404316451898
1666088495328217366,0.2516116605838761,0.0,0.0,0.0,0.0,-0.2181661564992912
1666088495376204100,0.24521475395886227,0.0,0.0,0.0,0.0,-0.2357939819444339
1666088495376231527,0.25800856720888987,0.0,0.0,0.0,0.0,-0.22985986248765322
1666088495420128541,0.2622731716255658,0.0,0.0,0.0,0.0,-0.25202554398798116
1666088495420152242,0.26440547383390367,0.0,0.0,0.0,0.0,-0.2762856205907024
1666088495464649596,0.2771992870839313,0.0,0.0,0.0,0.0,-0.2871066619530672
1666088495464671340,0.27506698487559333,0.0,0.0,0.0,0.0,-0.29792770331543206
1666088495464685788,0.27506698487559333,0.0,0.0,0.0,0.0,-0.2986258350162298
1666088495508163208,0.26867007825057954,0.0,0.0,0.0,0.0,-0.31590459461097364
1666088495508190050,0.2793315892922692,0.0,0.0,0.0,0.0,-0.3255039054969424
1666088495522096819,0.27080238045891747,0.0,0.0,0.0,0.0,-0.35674529910764097
1666088495542927313,0.2793315892922692,0.0,0.0,0.0,0.0,-0.3928736146239236
1666088495588094264,0.28786079812562093,0.0,0.0,0.0,0.0,-0.39810960237990656
1666088495588111395,0.28359619370894507,0.0,0.0,0.0,0.0,-0.41905355340383854
1666088495636406312,0.2921254025422968,0.0,0.0,0.0,0.0,-0.4628613176288962
1666088495636623498,0.2985223091673106,0.0,0.0,0.0,0.0,-0.49410271123959465
1666088495684775436,0.2963900069589727,0.0,0.0,0.0,0.0,-0.5024802916491674
1666088495685842087,0.30918382020900026,0.0,0.0,0.0,0.0,-0.4920083161372015
1666088495732099018,0.3070515180006623,0.0,0.0,0.0,0.0,-0.4951499087907913
1666088495732114187,0.30918382020900026,0.0,0.0,0.0,0.0,-0.5129522671611334
1666088495732119380,0.32197763345902786,0.0,0.0,0.0,0.0,-0.5206317158699084
1666088495780668143,0.3262422378757037,0.0,0.0,0.0,0.0,-0.5164429256651221
1666088495780711828,0.33050684229237964,0.0,0.0,0.0,0.0,-0.5155702610391248
1666088495782256132,0.32837454008404166,0.0,0.0,0.0,0.0,-0.5159193268895238
1666088495802034763,0.3326391445007175,0.0,0.0,0.0,0.0,-0.48781952593241507
1666088495844847509,0.34116835333406925,0.0,0.0,0.0,0.0,-0.4881685917828139
1666088495844875272,0.34969756216742104,0.0,0.0,0.0,0.0,-0.5080653452555492
1666088495888064353,0.23028863850049677,0.0,0.0,0.0,0.0,-0.5398303376418461
1666088495888080658,0.21109791862545538,0.0,0.0,0.0,0.0,-0.5510004448546099
1666088495932050563,0.2793315892922692,0.0,0.0,0.0,0.0,-0.5735151922053366
1666088495932059557,0.3262422378757037,0.0,0.0,0.0,0.0,-0.6236061417375739
1666088495976341398,0.26867007825057954,0.0,0.0,0.0,0.0,-0.6763150851478027
1666088495976368559,0.24734705616720024,0.0,0.0,0.0,0.0,-0.6724753607934152
1666088496024296522,0.26653777604224166,0.0,0.0,0.0,0.0,-0.6716026961674179
1666088496024334657,0.30491921579232445,0.0,0.0,0.0,0.0,-0.6850417314077742
1666088496024358515,0.2963900069589727,0.0,0.0,0.0,0.0,-0.7004006288253245
1666088496068069420,0.2771992870839313,0.0,0.0,0.0,0.0,-0.6825982704549822
1666088496068084128,0.2793315892922692,0.0,0.0,0.0,0.0,-0.676838683923401
1666088496083230513,0.28359619370894507,0.0,0.0,0.0,0.0,-0.7016223593017205
1666088496102542033,0.2921254025422968,0.0,0.0,0.0,0.0,-0.6579891280018623
1666088496144227402,0.2985223091673106,0.0,0.0,0.0,0.0,-0.6398377037811211
1666088496144258801,0.29425770475063473,0.0,0.0,0.0,0.0,-0.6496115475922895
1666088496192211072,0.2388178473338485,0.0,0.0,0.0,0.0,-0.6551966011986713
1666088496192244219,0.21536252304213124,0.0,0.0,0.0,0.0,-0.6620033852814492
1666088496240201109,0.253743962792214,0.0,0.0,0.0,0.0,-0.6396631708559217
1666088496240226381,0.2814638915006072,0.0,0.0,0.0,0.0,-0.598647933434055
1666088496288102304,0.25800856720888987,0.0,0.0,0.0,0.0,-0.5504768460790115
1666088496288115129,0.23028863850049677,0.0,0.0,0.0,0.0,-0.5468116546498234
1666088496288126072,0.23242094070883468,0.0,0.0,0.0,0.0,-0.5181882549171164
1666088496332634519,0.2622731716255658,0.0,0.0,0.0,0.0,-0.47979101137324115
1666088496332690651,0.25800856720888987,0.0,0.0,0.0,0.0,-0.4197516851046363
1666088496343358031,0.23028863850049677,0.0,0.0,0.0,0.0,-0.36425021489121656
1666088496362509839,0.22815633629215884,0.0,0.0,0.0,0.0,-0.3724532623755899
1666088496408466256,0.23028863850049677,0.0,0.0,0.0,0.0,-0.3703588672731967
1666088496408559977,0.22815633629215884,0.0,0.0,0.0,0.0,-0.34976398209966364
1666088496452808803,0.08102748391684146,0.0,0.0,0.0,0.0,-0.3375466773357033
1666088496452839277,0.06610136845847592,0.0,0.0,0.0,0.0,-0.3267256359733385
1666088496496264297,0.029852230916731063,0.0,0.0,0.0,0.0,-0.34871678454846705
1666088496496279335,0.03838143975008279,0.0,0.0,0.0,0.0,-0.36058502346202853
1666088496544085923,0.04691064858343452,0.0,0.0,0.0,0.0,-0.37856191475757006
1666088496544102748,0.04051374195842073,0.0,0.0,0.0,0.0,-0.34540065896967775
1666088496544113641,0.034116835333406925,0.0,0.0,0.0,0.0,-0.2958333082130388
1666088496588187244,0.029852230916731063,0.0,0.0,0.0,0.0,-0.2970550386894349
1666088496588203509,0.027719928708393127,0.0,0.0,0.0,0.0,-0.3075270142014009
1666088496602510063,0.027719928708393127,0.0,0.0,0.0,0.0,-0.2876302607286655
1666088496624706620,0.029852230916731063,0.0,0.0,0.0,0.0,-0.21851522234969004
1666088496664091558,0.027719928708393127,0.0,0.0,0.0,0.0,-0.2092649773141201
1666088496664120694,0.006396906625013799,0.0,0.0,0.0,0.0,-0.22916173078685548
1666088496708520399,-0.010661511041689664,0.0,0.0,0.0,0.0,-0.23125612588924865
1666088496708679448,-0.004264604416675866,0.0,0.0,0.0,0.0,-0.1949532774477666
1666088496752348089,-0.002132302208337933,0.0,0.0,0.0,0.0,-0.16807520696705394
1666088496752402713,-0.010661511041689664,0.0,0.0,0.0,0.0,-0.14870205226991687
1666088496796220321,-0.021323022083379328,0.0,0.0,0.0,0.0,-0.14364059743913332
1666088496796249002,-0.017058417666703463,0.0,0.0,0.0,0.0,-0.11344640137963143
1666088496840304124,-0.008529208833351731,0.0,0.0,0.0,0.0,-0.08220500776893291
1666088496840335466,0.002132302208337933,0.0,0.0,0.0,0.0,-0.07452555906015787
1666088496884098911,0.004264604416675866,0.0,0.0,0.0,0.0,-0.08726646259971647
1666088496884127661,0.006396906625013799,0.0,0.0,0.0,0.0,-0.08656833089891874
1666088496884134490,0.014926115458365532,0.0,0.0,0.0,0.0,-0.08185594191853407
1666088496932168733,0.014926115458365532,0.0,0.0,0.0,0.0,-0.09267698328089889
1666088496932185271,0.017058417666703463,0.0,0.0,0.0,0.0,-0.12723450247038662
1666088496942555759,0.019190719875041395,0.0,0.0,0.0,0.0,-0.14416419621473162
1666088496963727581,0.019190719875041395,0.0,0.0,0.0,0.0,-0.14905111812031574
1666088497004146220,0.014926115458365532,0.0,0.0,0.0,0.0,-0.1514945790731078
1666088497004163591,0.019190719875041395,0.0,0.0,0.0,0.0,-0.16283921921107095
1666088497048185391,0.019190719875041395,0.0,0.0,0.0,0.0,-0.17505652397503124
1666088497048199817,0.010661511041689664,0.0,0.0,0.0,0.0,-0.17418385934903408
1666088497096127395,0.0,0.0,0.0,0.0,0.0,-0.1668534764906579
1666088497096156566,0.0,0.0,0.0,0.0,0.0,-0.15062191444711065
1666088497140432181,0.008529208833351731,0.0,0.0,0.0,0.0,-0.1457349925415265
1666088497140499210,0.0,0.0,0.0,0.0,0.0,-0.14608405839192537
1666088497184148975,-0.006396906625013799,0.0,0.0,0.0,0.0,-0.14748032179352083
1666088497184186311,-0.002132302208337933,0.0,0.0,0.0,0.0,-0.14765485471872028
1666088497184209578,0.006396906625013799,0.0,0.0,0.0,0.0,-0.14974924982111348
1666088497232360153,0.008529208833351731,0.0,0.0,0.0,0.0,-0.14765485471872028
1666088497232387177,0.010661511041689664,0.0,0.0,0.0,0.0,-0.14294246573833558
1666088497244141074,0.006396906625013799,0.0,0.0,0.0,0.0,-0.136659280431156
1666088497264474630,0.014926115458365532,0.0,0.0,0.0,0.0,-0.13386675362796507
1666088497308193434,0.017058417666703463,0.0,0.0,0.0,0.0,-0.1223475805648025
1666088497308215215,0.012793813250027599,0.0,0.0,0.0,0.0,-0.11571532940722405
1666088497352152058,0.004264604416675866,0.0,0.0,0.0,0.0,-0.11135200627723822
1666088497352178324,0.004264604416675866,0.0,0.0,0.0,0.0,-0.1218239817892042
1666088497396158946,0.012793813250027599,0.0,0.0,0.0,0.0,-0.12514010736799341
1666088497396182276,0.004264604416675866,0.0,0.0,0.0,0.0,-0.11554079648202462
1666088497440333501,0.006396906625013799,0.0,0.0,0.0,0.0,-0.10855947947404729
1666088497440374099,0.002132302208337933,0.0,0.0,0.0,0.0,-0.11972958668681102
1666088497484247807,0.008529208833351731,0.0,0.0,0.0,0.0,-0.13805554383275145
1666088497484287967,0.0,0.0,0.0,0.0,0.0,-0.14381513036433274
1666088497484294945,0.010661511041689664,0.0,0.0,0.0,0.0,-0.1478293876439197
1666088497528277879,0.008529208833351731,0.0,0.0,0.0,0.0,-0.15585790220309362
1666088497528363138,0.008529208833351731,0.0,0.0,0.0,0.0,-0.15847589608108512
1666088497544601403,0.008529208833351731,0.0,0.0,0.0,0.0,-0.17453292519943295
1666088497563635901,0.006396906625013799,0.0,0.0,0.0,0.0,-0.17924531417981765
1666088497604142076,0.012793813250027599,0.0,0.0,0.0,0.0,-0.18186330805780915
1666088497604159219,0.0,0.0,0.0,0.0,0.0,-0.19128808601857855
1666088497648260031,0.012793813250027599,0.0,0.0,0.0,0.0,-0.2017600615305445
1666088497648302467,0.006396906625013799,0.0,0.0,0.0,0.0,-0.21799162357409177
1666088497692081535,0.012793813250027599,0.0,0.0,0.0,0.0,-0.22951079663725432
1666088497692095679,0.004264604416675866,0.0,0.0,0.0,0.0,-0.2553416695667704
1666088497740276609,0.004264604416675866,0.0,0.0,0.0,0.0,-0.27366762671271083
1666088497740308068,0.008529208833351731,0.0,0.0,0.0,0.0,-0.2574360646691636
1666088497784188951,0.012793813250027599,0.0,0.0,0.0,0.0,-0.25883232807075907
1666088497784233079,-0.002132302208337933,0.0,0.0,0.0,0.0,-0.2682571060315284
1666088497784255746,0.008529208833351731,0.0,0.0,0.0,0.0,-0.2649409804527392
1666088497828201562,0.008529208833351731,0.0,0.0,0.0,0.0,-0.25237460983838006
1666088497828237298,0.006396906625013799,0.0,0.0,0.0,0.0,-0.24312436480281008
1666088497844563685,0.004264604416675866,0.0,0.0,0.0,0.0,-0.25359634031477607
1666088497864240180,0.004264604416675866,0.0,0.0,0.0,0.0,-0.2537708732399755
1666088497908200256,0.010661511041689664,0.0,0.0,0.0,0.0,-0.24870941840919195
1666088497908245835,0.006396906625013799,0.0,0.0,0.0,0.0,-0.2555162024919699
1666088497952384157,0.006396906625013799,0.0,0.0,0.0,0.0,-0.2722713633111154
1666088497952424361,0.006396906625013799,0.0,0.0,0.0,0.0,-0.27960174616949157
1666088498000148587,0.012793813250027599,0.0,0.0,0.0,0.0,-0.29007372168145756
1666088498000172187,0.002132302208337933,0.0,0.0,0.0,0.0,-0.3082251459021986
1666088498044381782,0.008529208833351731,0.0,0.0,0.0,0.0,-0.3227113786937515
1666088498044420320,0.006396906625013799,0.0,0.0,0.0,0.0,-0.32812189937493397
1666088498044436465,0.008529208833351731,0.0,0.0,0.0,0.0,-0.3279473664497345
1666088498092219464,0.002132302208337933,0.0,0.0,0.0,0.0,-0.33178709080412205
1666088498092250552,0.0,0.0,0.0,0.0,0.0,-0.3309144261781249
1666088498103061520,0.006396906625013799,0.0,0.0,0.0,0.0,-0.3354522822333101
1666088498122862466,0.004264604416675866,0.0,0.0,0.0,0.0,-0.3426081321664869
1666088498168192818,0.004264604416675866,0.0,0.0,0.0,0.0,-0.3438298626428829
1666088498168219981,0.004264604416675866,0.0,0.0,0.0,0.0,-0.35255650890285456
1666088498212599164,0.008529208833351731,0.0,0.0,0.0,0.0,-0.3427826650916863
1666088498212674846,0.004264604416675866,0.0,0.0,0.0,0.0,-0.34068826998929314
1666088498256241901,0.002132302208337933,0.0,0.0,0.0,0.0,-0.33388148590651523
1666088498256299534,0.008529208833351731,0.0,0.0,0.0,0.0,-0.32515483964654357
1666088498304087212,0.0,0.0,0.0,0.0,0.0,-0.32131511529215606
1666088498304100612,0.0,0.0,0.0,0.0,0.0,-0.29129545215785363
1666088498304110356,0.006396906625013799,0.0,0.0,0.0,0.0,-0.23561944901923448
1666088498348167998,0.008529208833351731,0.0,0.0,0.0,0.0,-0.19879300180215415
1666088498348193862,0.002132302208337933,0.0,0.0,0.0,0.0,-0.16790067404185446
1666088498363953349,0.004264604416675866,0.0,0.0,0.0,0.0,-0.1541125729510993
1666088498384681870,0.008529208833351731,0.0,0.0,0.0,0.0,-0.1392772743091475
1666088498432448499,0.008529208833351731,0.0,0.0,0.0,0.0,-0.1223475805648025
1666088498432469842,0.004264604416675866,0.0,0.0,0.0,0.0,-0.13055062804917586
1666088498472314330,0.004264604416675866,0.0,0.0,0.0,0.0,-0.15987215948268058
1666088498472393328,0.027719928708393127,0.0,0.0,0.0,0.0,-0.1837831702350029
1666088498516099778,0.017058417666703463,0.0,0.0,0.0,0.0,-0.1795943800302165
1666088498516115172,0.014926115458365532,0.0,0.0,0.0,0.0,-0.17139133254584316
1666088498560304419,0.025587626500055197,0.0,0.0,0.0,0.0,-0.1754055898254301
1666088498560334197,0.025587626500055197,0.0,0.0,0.0,0.0,-0.18011797880581482
1666088498604415173,0.034116835333406925,0.0,0.0,0.0,0.0,-0.1562069680534925
1666088498604461106,0.019190719875041395,0.0,0.0,0.0,0.0,-0.14329153158873445
1666088498652247148,0.029852230916731063,0.0,0.0,0.0,0.0,-0.1642354826126664
1666088498652275616,0.04904295079177246,0.0,0.0,0.0,0.0,-0.18535396656179778
1666088498652285682,0.051175253000110395,0.0,0.0,0.0,0.0,-0.19338248112097173
1666088498696550558,0.05330755520844832,0.0,0.0,0.0,0.0,-0.2001892652037496
1666088498696637718,0.05330755520844832,0.0,0.0,0.0,0.0,-0.19722220547535924
1666088498703956971,0.059704461833462126,0.0,0.0,0.0,0.0,-0.182212373908208
1666088498724027855,0.0703659728751518,0.0,0.0,0.0,0.0,-0.170518667919846
1666088498764269459,0.07463057729182765,0.0,0.0,0.0,0.0,-0.15725416560468908
1666088498812531752,0.08315978612517938,0.0,0.0,0.0,0.0,-0.14870205226991687
1666088498812561998,0.08102748391684146,0.0,0.0,0.0,0.0,-0.13369222070276562
1666088498812569529,0.07676287950016558,0.0,0.0,0.0,0.0,-0.13002702927357757
1666088498856564487,0.09595359937520698,0.0,0.0,0.0,0.0,-0.13631021458075712
1666088498856623679,0.10448280820855872,0.0,0.0,0.0,0.0,-0.13334315485236678
1666088498863961120,0.1108797148335725,0.0,0.0,0.0,0.0,-0.13212142437597077
1666088498884651842,0.10235050600022079,0.0,0.0,0.0,0.0,-0.1270599695451872
1666088498928584050,0.10448280820855872,0.0,0.0,0.0,0.0,-0.13124875974997358
1666088498928610611,0.1300704347086139,0.0,0.0,0.0,0.0,-0.1473057888683214
1666088498972284676,0.12793813250027597,0.0,0.0,0.0,0.0,-0.1439896632895322
1666088498972309403,0.13433503912528977,0.0,0.0,0.0,0.0,-0.13456488532876282
1666088499016392280,0.13220273691695184,0.0,0.0,0.0,0.0,-0.14817845349431857
1666088499016428679,0.12580583029193804,0.0,0.0,0.0,0.0,-0.1589994948566834
1666088499064071037,0.14499655016697943,0.0,0.0,0.0,0.0,-0.1425933998879367
1666088499064113621,0.15139345679199323,0.0,0.0,0.0,0.0,-0.1340412865531645
1666088499108381106,0.1556580612086691,0.0,0.0,0.0,0.0,-0.14713125594312196
1666088499108434728,0.16418727004202083,0.0,0.0,0.0,0.0,-0.1478293876439197
1666088499108448103,0.15779036341700706,0.0,0.0,0.0,0.0,-0.15673056682909078
1666088499152246391,0.17698108329204845,0.0,0.0,0.0,0.0,-0.14625859131712485
1666088499152326766,0.18124568770872432,0.0,0.0,0.0,0.0,-0.1445132620651305
1666088499163664693,0.1876425943337381,0.0,0.0,0.0,0.0,-0.16022122533307945
1666088499183901619,0.1876425943337381,0.0,0.0,0.0,0.0,-0.15062191444711065
1666088499224226362,0.17911338550038639,0.0,0.0,0.0,0.0,-0.14294246573833558
1666088499272762900,0.21109791862545538,0.0,0.0,0.0,0.0,-0.13997540600994524
1666088499272805400,0.20896561641711744,0.0,0.0,0.0,0.0,-0.14049900478554353
1666088499272814357,0.21749482525046915,0.0,0.0,0.0,0.0,-0.136659280431156
1666088499320291819,0.20470101200044158,0.0,0.0,0.0,0.0,-0.15742869852988853
1666088499320326508,0.20896561641711744,0.0,0.0,0.0,0.0,-0.17139133254584316
1666088499325328567,0.22389173187548297,0.0,0.0,0.0,0.0,-0.19181168479417682
1666088499344576823,0.23455324291717264,0.0,0.0,0.0,0.0,-0.21572269554649914
1666088499392253735,0.23455324291717264,0.0,0.0,0.0,0.0,-0.22602013813326566
1666088499392284472,0.23242094070883468,0.0,0.0,0.0,0.0,-0.2740166925631097
1666088499436216620,0.23455324291717264,0.0,0.0,0.0,0.0,-0.292691715559449
1666088499436249705,0.24947935837553817,0.0,0.0,0.0,0.0,-0.29478611066184224
1666088499480234875,0.25587626500055194,0.0,0.0,0.0,0.0,-0.29775317039023264
1666088499480263085,0.2601408694172278,0.0,0.0,0.0,0.0,-0.3029891581462156
1666088499524051371,0.25800856720888987,0.0,0.0,0.0,0.0,-0.3110176727053895
1666088499524061217,0.2601408694172278,0.0,0.0,0.0,0.0,-0.3141592653589793
1666088499568214300,0.2793315892922692,0.0,0.0,0.0,0.0,-0.30839967882739805
1666088499568253901,0.2793315892922692,0.0,0.0,0.0,0.0,-0.3010692959690218
1666088499568511432,0.28359619370894507,0.0,0.0,0.0,0.0,-0.2972295716146343
1666088499616365077,0.28572849591728305,0.0,0.0,0.0,0.0,-0.31293753488258325
1666088499616399201,0.2814638915006072,0.0,0.0,0.0,0.0,-0.30717794835100204
1666088499624644645,0.3006546113756486,0.0,0.0,0.0,0.0,-0.29670597283903605
1666088499644356618,0.3134484246256761,0.0,0.0,0.0,0.0,-0.290248254606657
1666088499688222266,0.31984533125069,0.0,0.0,0.0,0.0,-0.27523842303950574
1666088499688250367,0.317713029042352,0.0,0.0,0.0,0.0,-0.26616271092913524
1666088499732272236,0.3134484246256761,0.0,0.0,0.0,0.0,-0.2553416695667704
1666088499732308789,0.32837454008404166,0.0,0.0,0.0,0.0,-0.2506292805863857
1666088499776434140,0.33050684229237964,0.0,0.0,0.0,0.0,-0.24940755010998966
1666088499776462799,0.3390360511257314,0.0,0.0,0.0,0.0,-0.23858650874762483
1666088499824338438,0.34116835333406925,0.0,0.0,0.0,0.0,-0.23404865269243957
1666088499824384238,0.34116835333406925,0.0,0.0,0.0,0.0,-0.23701571242082992
1666088499868205260,0.36035907320911065,0.0,0.0,0.0,0.0,-0.24382249650360785
1666088499868222387,0.3646236776257865,0.0,0.0,0.0,0.0,-0.24277529895241123
1666088499868260493,0.36249137541744864,0.0,0.0,0.0,0.0,-0.2307325271136504
1666088499916516881,0.36249137541744864,0.0,0.0,0.0,0.0,-0.22392574303087245
1666088499916537297,0.36888828204246243,0.0,0.0,0.0,0.0,-0.2234021442552742
1666088499926106822,0.38168209529249003,0.0,0.0,0.0,0.0,-0.2124065699677099
1666088499946352506,0.3838143975008279,0.0,0.0,0.0,0.0,-0.19565140914856435
1666088499988366531,0.38807900191750383,0.0,0.0,0.0,0.0,-0.17802358370342158
1666088499988411824,0.39447590854251763,0.0,0.0,0.0,0.0,-0.15498523757709648
1666088500036149718,0.3923436063341797,0.0,0.0,0.0,0.0,-0.15376350710070044
1666088500036181903,0.41153432620922104,0.0,0.0,0.0,0.0,-0.14538592669112765
1666088500080286835,0.41366662841755897,0.0,0.0,0.0,0.0,-0.1583013631558857
1666088500080313541,0.41579893062589696,0.0,0.0,0.0,0.0,-0.17610372152622786
1666088500129059402,0.42006353504257277,0.0,0.0,0.0,0.0,-0.1864011641129944
1666088500129152465,0.41579893062589696,0.0,0.0,0.0,0.0,-0.19041542139258136
1666088500129530295,0.43712195270927623,0.0,0.0,0.0,0.0,-0.18029251173101427
1666088500176310707,0.44778346375096595,0.0,0.0,0.0,0.0,-0.19320794819577228
1666088500176338322,0.44778346375096595,0.0,0.0,0.0,0.0,-0.19530234329816545
1666088500186194255,0.44351885933429,0.0,0.0,0.0,0.0,-0.17994344588061537
1666088500205090427,0.44351885933429,0.0,0.0,0.0,0.0,-0.1684242728174528
1666088500252266214,0.46057727700099355,0.0,0.0,0.0,0.0,-0.1605702911834783
1666088500252300473,0.4691064858343453,0.0,0.0,0.0,0.0,-0.154810704651897
1666088500300106942,0.4733710902510211,0.0,0.0,0.0,0.0,-0.14102260356114182
1666088500300138381,0.4755033924593591,0.0,0.0,0.0,0.0,-0.12897983172238095
1666088500348246350,0.477635694667697,0.0,0.0,0.0,0.0,-0.10978120995044333
1666088500348289054,0.49682641454273835,0.0,0.0,0.0,0.0,-0.10192722831646885
1666088500348298957,0.49682641454273835,0.0,0.0,0.0,0.0,-0.08569566627292158
1666088500396246053,0.49042950791772455,0.0,0.0,0.0,0.0,-0.0715584993317675
1666088500396301526,0.5032233211677521,0.0,0.0,0.0,0.0,-0.06073745796940267
1666088500406442416,0.5138848322094418,0.0,0.0,0.0,0.0,-0.047647488579445195
1666088500426529512,0.5181494366261178,0.0,0.0,0.0,0.0,-0.035255650890285456
1666088500468324210,0.5181494366261178,0.0,0.0,0.0,0.0,-0.027401669256310976
1666088500468369383,0.5202817388344556,0.0,0.0,0.0,0.0,-0.034557519189487726
1666088500516097492,0.5288109476678073,0.0,0.0,0.0,0.0,-0.03787364476827695
1666088500516106783,0.5266786454594694,0.0,0.0,0.0,0.0,-0.04345869837465881
1666088500560502067,0.5288109476678073,0.0,0.0,0.0,0.0,-0.0486946861306418
1666088500560877029,0.5394724587094971,0.0,0.0,0.0,0.0,-0.03804817769347638
1666088500604324752,0.5480016675428488,0.0,0.0,0.0,0.0,-0.041015237421866746
1666088500604384851,0.5522662719595246,0.0,0.0,0.0,0.0,-0.052883476335428184
1666088500648175084,0.5586631785845384,0.0,0.0,0.0,0.0,-0.039968039870670144
1666088500648210361,0.5565308763762006,0.0,0.0,0.0,0.0,-0.028797932657906436
1666088500648304288,0.5671923874178901,0.0,0.0,0.0,0.0,-0.01832595714594046
1666088500692401042,0.5650600852095522,0.0,0.0,0.0,0.0,-0.016057029118347832
1666088500692422962,0.5650600852095522,0.0,0.0,0.0,0.0,-0.017976891295541593
1666088500705789615,0.5757215962512419,0.0,0.0,0.0,0.0,-0.007504915783575617
1666088500725668454,0.5863831072929316,0.0,0.0,0.0,0.0,0.0013962634015954637
1666088500768106255,0.5906477117096074,0.0,0.0,0.0,0.0,-0.004886921905584123
1666088500768130169,0.5906477117096074,0.0,0.0,0.0,0.0,-0.01658062789394613
1666088500812464349,0.5927800139179454,0.0,0.0,0.0,0.0,-0.010122909661567111
1666088500812637850,0.5906477117096074,0.0,0.0,0.0,0.0,-0.023736477827122886
1666088500856108043,0.5949123161262834,0.0,0.0,0.0,0.0,-0.01902408884673819
1666088500856126184,0.6013092227512972,0.0,0.0,0.0,0.0,0.0012217304763960308
1666088500904135698,0.5991769205429591,0.0,0.0,0.0,0.0,-0.017104226669544427
1666088500904158401,0.5991769205429591,0.0,0.0,0.0,0.0,-0.004886921905584123
1666088500948279347,0.6055738271679729,0.0,0.0,0.0,0.0,-0.031415926535897934
1666088500948335652,0.6141030360013247,0.0,0.0,0.0,0.0,-0.017453292519943295
1666088500948362580,0.6183676404180005,0.0,0.0,0.0,0.0,-0.009250245035569947
1666088500992222381,0.6290291514596902,0.0,0.0,0.0,0.0,-0.00471238898038469
1666088500992242883,0.6204999426263385,0.0,0.0,0.0,0.0,-0.0054105206811824215
1666088501004879356,0.6332937558763662,0.0,0.0,0.0,0.0,0.0010471975511965976
1666088501025223326,0.63969066250138,0.0,0.0,0.0,0.0,0.0
1666088501068041558,0.6460875691263938,0.0,0.0,0.0,0.0,-0.015184364492350668
1666088501068052555,0.6546167779597455,0.0,0.0,0.0,0.0,0.013264502315156903
1666088501116333770,0.6524844757514074,0.0,0.0,0.0,0.0,0.0
1666088501116361385,0.6610136845847593,0.0,0.0,0.0,0.0,0.0008726646259971648
1666088501164162564,0.6610136845847593,0.0,0.0,0.0,0.0,0.0041887902047863905
1666088501164190258,0.6546167779597455,0.0,0.0,0.0,0.0,0.004537856055185257
1666088501208144159,0.667410591209773,0.0,0.0,0.0,0.0,-0.0008726646259971648
1666088501208164093,0.6631459867930972,0.0,0.0,0.0,0.0,-0.0036651914291880917
1666088501208182563,0.671675195626449,0.0,0.0,0.0,0.0,0.012391837689159739
1666088501252613471,0.6631459867930972,0.0,0.0,0.0,0.0,0.012566370614359173
1666088501252653162,0.6610136845847593,0.0,0.0,0.0,0.0,0.007330382858376183
1666088501266916417,0.665278289001435,0.0,0.0,0.0,0.0,0.01780235837034216
1666088501285037976,0.6588813823764212,0.0,0.0,0.0,0.0,0.00645771823237902
1666088501328087797,0.665278289001435,0.0,0.0,0.0,0.0,-0.0006981317007977319
1666088501328104396,0.6631459867930972,0.0,0.0,0.0,0.0,0.029845130209103034
1666088501376241075,0.667410591209773,0.0,0.0,0.0,0.0,0.016231562043547268
1666088501376266443,0.669542893418111,0.0,0.0,0.0,0.0,-0.00645771823237902
1666088501420620515,0.667410591209773,0.0,0.0,0.0,0.0,-0.008552113334772213
1666088501420679709,0.669542893418111,0.0,0.0,0.0,0.0,-0.007679448708775049
1666088501468284933,0.671675195626449,0.0,0.0,0.0,0.0,-0.008552113334772213
1666088501468308384,0.6588813823764212,0.0,0.0,0.0,0.0,-0.007504915783575617
1666088501468378611,0.5927800139179454,0.0,0.0,0.0,0.0,-0.004014257279586958
1666088501512532891,0.5671923874178901,0.0,0.0,0.0,0.0,-0.0010471975511965976
1666088501512582782,0.5991769205429591,0.0,0.0,0.0,0.0,0.0012217304763960308
1666088501525457931,0.635426058084704,0.0,0.0,0.0,0.0,-0.029845130209103034
1666088501545796225,0.635426058084704,0.0,0.0,0.0,0.0,-0.06754424205218056
1666088501588132256,0.6183676404180005,0.0,0.0,0.0,0.0,-0.05794493116621174
1666088501588145854,0.603441524959635,0.0,0.0,0.0,0.0,-0.012391837689159739
1666088501632499524,0.6226322448346764,0.0,0.0,0.0,0.0,-0.006283185307179587
1666088501632533681,0.635426058084704,0.0,0.0,0.0,0.0,-0.05480333851262195
1666088501676091508,0.6332937558763662,0.0,0.0,0.0,0.0,-0.06178465552059926
1666088501676114428,0.5352078542928211,0.0,0.0,0.0,0.0,-0.0036651914291880917
1666088501720114784,0.5138848322094418,0.0,0.0,0.0,0.0,0.004014257279586958
1666088501720131569,0.5416047609178349,0.0,0.0,0.0,0.0,-0.013788101090755204
1666088501764058562,0.5458693653345108,0.0,0.0,0.0,0.0,-0.04782202150464464
1666088501764069379,0.5245463432511316,0.0,0.0,0.0,0.0,-0.06597344572538565
1666088501812164102,0.5245463432511316,0.0,0.0,0.0,0.0,-0.04468042885105484
1666088501812188074,0.5309432498761453,0.0,0.0,0.0,0.0,-0.00017453292519943296
1666088501812208346,0.5480016675428488,0.0,0.0,0.0,0.0,-0.004014257279586958
1666088501856114262,0.5480016675428488,0.0,0.0,0.0,0.0,-0.05044001538263612
1666088501856133353,0.5416047609178349,0.0,0.0,0.0,0.0,-0.013439035240356337
1666088501866288795,0.5416047609178349,0.0,0.0,0.0,0.0,0.02809980095710871
1666088501885778373,0.5416047609178349,0.0,0.0,0.0,0.0,-0.0038397243543875246
1666088501928206789,0.5480016675428488,0.0,0.0,0.0,0.0,-0.024260076602721177
1666088501928278596,0.5522662719595246,0.0,0.0,0.0,0.0,-0.0291469985083053
1666088501976121443,0.5458693653345108,0.0,0.0,0.0,0.0,-0.026354471705114374
1666088501976150417,0.5522662719595246,0.0,0.0,0.0,0.0,-0.038397243543875255
1666088502024049017,0.5480016675428488,0.0,0.0,0.0,0.0,-0.04991641660703782
1666088502024062214,0.5565308763762006,0.0,0.0,0.0,0.0,-0.049043751981040655
1666088502068162939,0.5607954807928763,0.0,0.0,0.0,0.0,-0.053407075111026485
1666088502068189493,0.5586631785845384,0.0,0.0,0.0,0.0,-0.07225663103256524
1666088502068215483,0.5757215962512419,0.0,0.0,0.0,0.0,-0.06492624817418907
1666088502112300464,0.5714569918345661,0.0,0.0,0.0,0.0,-0.04642575810304917
1666088502112327783,0.5885154095012695,0.0,0.0,0.0,0.0,-0.054977871437821374
1666088502126240516,0.5949123161262834,0.0,0.0,0.0,0.0,-0.03769911184307752
1666088502146578394,0.5842508050845936,0.0,0.0,0.0,0.0,0.0020943951023931952
1666088502192250879,0.5949123161262834,0.0,0.0,0.0,0.0,-0.012391837689159739
1666088502192270934,0.5949123161262834,0.0,0.0,0.0,0.0,-0.0143116998663535
1666088502236128996,0.5906477117096074,0.0,0.0,0.0,0.0,-0.03752457891787808
1666088502236154743,0.5906477117096074,0.0,0.0,0.0,0.0,-0.05515240436302082
1666088502280150302,0.5906477117096074,0.0,0.0,0.0,0.0,-0.03769911184307752
1666088502280209105,0.5991769205429591,0.0,0.0,0.0,0.0,-0.04153883619746504
1666088502324062156,0.6055738271679729,0.0,0.0,0.0,0.0,-0.016406094968746697
1666088502324078099,0.603441524959635,0.0,0.0,0.0,0.0,-0.01780235837034216
1666088502368346299,0.603441524959635,0.0,0.0,0.0,0.0,-0.03438298626428829
1666088502368451126,0.6098384315846489,0.0,0.0,0.0,0.0,-0.03717551306747922
1666088502368488377,0.6098384315846489,0.0,0.0,0.0,0.0,0.0038397243543875246
1666088502412559245,0.6119707337929867,0.0,0.0,0.0,0.0,0.00017453292519943296
1666088502412608621,0.6098384315846489,0.0,0.0,0.0,0.0,-0.0024434609527920616
1666088502426129531,0.6226322448346764,0.0,0.0,0.0,0.0,-0.0008726646259971648
1666088502448468788,0.6141030360013247,0.0,0.0,0.0,0.0,-0.009250245035569947
1666088502489283990,0.6098384315846489,0.0,0.0,0.0,0.0,-0.024783675378319478
1666088502489312130,0.6055738271679729,0.0,0.0,0.0,0.0,-0.006283185307179587
1666088502532502816,0.5949123161262834,0.0,0.0,0.0,0.0,-0.023212879051524585
1666088502532526221,0.5991769205429591,0.0,0.0,0.0,0.0,-0.026354471705114374
1666088502576101669,0.6055738271679729,0.0,0.0,0.0,0.0,-0.02129301687433082
1666088502576115193,0.603441524959635,0.0,0.0,0.0,0.0,-0.015009831567151233
1666088502620070686,0.6055738271679729,0.0,0.0,0.0,0.0,-0.02391101075232232
1666088502620082148,0.5543985741678626,0.0,0.0,0.0,0.0,-0.032812189937493394
1666088502664184601,0.5437370631261729,0.0,0.0,0.0,0.0,-0.05061454830783556
1666088502664223709,0.5565308763762006,0.0,0.0,0.0,0.0,-0.049567350756638956
1666088502708160731,0.5650600852095522,0.0,0.0,0.0,0.0,-0.056548667764616284
1666088502708185293,0.5501339697511867,0.0,0.0,0.0,0.0,-0.062482787221396996
1666088502708193116,0.5437370631261729,0.0,0.0,0.0,0.0,-0.038397243543875255
1666088502756330415,0.5458693653345108,0.0,0.0,0.0,0.0,-0.034208453339088854
1666088502756372927,0.5586631785845384,0.0,0.0,0.0,0.0,-0.08936085770210968
1666088502766609622,0.5565308763762006,0.0,0.0,0.0,0.0,-0.06876597252857658
1666088502786676338,0.5501339697511867,0.0,0.0,0.0,0.0,-0.03752457891787808
1666088502828188330,0.47976799687603494,0.0,0.0,0.0,0.0,-0.04939281783143952
1666088502828218744,0.4669741836260073,0.0,0.0,0.0,0.0,-0.035255650890285456
1666088502872070646,0.49256181012606254,0.0,0.0,0.0,0.0,-0.03647738136668148
1666088502872085383,0.5181494366261178,0.0,0.0,0.0,0.0,-0.07260569688296412
1666088502916094527,0.5032233211677521,0.0,0.0,0.0,0.0,-0.10629055144645466
1666088502916111827,0.477635694667697,0.0,0.0,0.0,0.0,-0.09826203688728076
1666088502960289327,0.49256181012606254,0.0,0.0,0.0,0.0,-0.07609635538695277
1666088502960632686,0.5053556233760901,0.0,0.0,0.0,0.0,-0.08133234314293576
1666088503004569806,0.49895871675107634,0.0,0.0,0.0,0.0,-0.0958185759344887
1666088503004623185,0.48616490350104874,0.0,0.0,0.0,0.0,-0.08936085770210968
1666088503048174900,0.4840326012927108,0.0,0.0,0.0,0.0,-0.06422811647339133
1666088503048201657,0.4882972057093866,0.0,0.0,0.0,0.0,-0.05061454830783556
1666088503048258960,0.49256181012606254,0.0,0.0,0.0,0.0,-0.040491638646268445
1666088503092126734,0.48616490350104874,0.0,0.0,0.0,0.0,-0.05078908123303499
1666088503092143311,0.4819002990843728,0.0,0.0,0.0,0.0,-0.06527531402458793
1666088503107002070,0.4840326012927108,0.0,0.0,0.0,0.0,-0.05864306286700947
1666088503126783419,0.47976799687603494,0.0,0.0,0.0,0.0,-0.05742133239061344
1666088503168280424,0.4840326012927108,0.0,0.0,0.0,0.0,-0.06667157742618339
1666088503168322981,0.49469411233440047,0.0,0.0,0.0,0.0,-0.0661479786505851
1666088503212200166,0.4882972057093866,0.0,0.0,0.0,0.0,-0.07208209810736581
1666088503212231919,0.49256181012606254,0.0,0.0,0.0,0.0,-0.056025068989017976
1666088503256353899,0.47976799687603494,0.0,0.0,0.0,0.0,-0.04066617157146788
1666088503256391389,0.4840326012927108,0.0,0.0,0.0,0.0,-0.0439822971502571
1666088503300094632,0.48616490350104874,0.0,0.0,0.0,0.0,-0.04415683007545653
1666088503300108517,0.47976799687603494,0.0,0.0,0.0,0.0,-0.054105206811824215
1666088503344574480,0.4691064858343453,0.0,0.0,0.0,0.0,-0.061435589670200394
1666088503344617862,0.46484188141766936,0.0,0.0,0.0,0.0,-0.06178465552059926
1666088503392098590,0.4819002990843728,0.0,0.0,0.0,0.0,-0.04817108735504349
1666088503392115782,0.4819002990843728,0.0,0.0,0.0,0.0,-0.026529004630313806
1666088503392136228,0.4733710902510211,0.0,0.0,0.0,0.0,-0.009773843811168246
1666088503436172101,0.46484188141766936,0.0,0.0,0.0,0.0,-0.033335788713091695
1666088503436199916,0.4563126725843177,0.0,0.0,0.0,0.0,-0.026703537555513242
1666088503447519789,0.4755033924593591,0.0,0.0,0.0,0.0,-0.010995574287564275
1666088503466820964,0.4691064858343453,0.0,0.0,0.0,0.0,-0.024085543677521744
1666088503508272935,0.4627095792093315,0.0,0.0,0.0,0.0,-0.05096361415823442
1666088503552250341,0.4712387880426832,0.0,0.0,0.0,0.0,-0.058468529941810045
1666088503552302398,0.46057727700099355,0.0,0.0,0.0,0.0,-0.04537856055185257
1666088503552326664,0.4712387880426832,0.0,0.0,0.0,0.0,-0.04363323129985824
1666088503596103113,0.4691064858343453,0.0,0.0,0.0,0.0,-0.05096361415823442
1666088503596116091,0.46057727700099355,0.0,0.0,0.0,0.0,-0.04363323129985824
1666088503606879029,0.4563126725843177,0.0,0.0,0.0,0.0,-0.03735004599267865
1666088503626819015,0.445651161542628,0.0,0.0,0.0,0.0,-0.030543261909900768
1666088503668144243,0.45844497479265556,0.0,0.0,0.0,0.0,-0.031939525311496235
1666088503668171674,0.44351885933429,0.0,0.0,0.0,0.0,-0.018500490071139894
1666088503712607995,0.4349896505009383,0.0,0.0,0.0,0.0,-0.006632251157578452
1666088503712688732,0.44351885933429,0.0,0.0,0.0,0.0,-0.02181661564992912
1666088503756057146,0.44351885933429,0.0,0.0,0.0,0.0,-0.011868238913561443
1666088503756069464,0.43712195270927623,0.0,0.0,0.0,0.0,0.00017453292519943296
