%time,field.linear.x,field.linear.y,field.linear.z,field.angular.x,field.angular.y,field.angular.z
1666088494265565067,0.015,0.0,0.0,0.0,0.0,-0.004539979479028684
1666088494315079325,0.03,0.0,0.0,0.0,0.0,-0.009079958958057369
1666088494365120609,0.045,0.0,0.0,0.0,0.0,-0.031793512413267846
1666088494415429120,0.06,0.0,0.0,0.0,0.0,-0.054507065868478324
1666088494465100986,0.075,0.0,0.0,0.0,0.0,-0.07842043194808276
1666088494522687264,0.09,0.0,0.0,0.0,0.0,-0.1023337980276872
1666088494565241816,0.105,0.0,0.0,0.0,0.0,-0.14131392146531624
1666088494615031310,0.12,0.0,0.0,0.0,0.0,-0.18029404490294526
1666088494665125896,0.135,0.0,0.0,0.0,0.0,-0.2200679930589225
1666088494715276363,0.15000000000000002,0.0,0.0,0.0,0.0,-0.25984194121489973
1666088494765083426,0.16500000000000004,0.0,0.0,0.0,0.0,-0.30032902825414765
1666088494815033717,0.18000000000000005,0.0,0.0,0.0,0.0,-0.34081611529339556
1666088494865228526,0.19500000000000006,0.0,0.0,0.0,0.0,-0.38373216422853723
1666088494915105093,0.21000000000000008,0.0,0.0,0.0,0.0,-0.4266482131636789
1666088494964993448,0.2250000000000001,0.0,0.0,0.0,0.0,-0.46759021694368486
1666088495015554843,0.2400000000000001,0.0,0.0,0.0,0.0,-0.5086908164487253
1666088495065188206,0.2550000000000001,0.0,0.0,0.0,0.0,-0.5497914159537657
1666088495115272636,0.27000000000000013,0.0,0.0,0.0,0.0,-0.5817730172134813
1666088495165340393,0.28500000000000014,0.0,0.0,0.0,0.0,-0.615415242310032
1666088495215282016,0.30000000000000016,0.0,0.0,0.0,0.0,-0.6490574674065827
1666088495265136757,0.31500000000000017,0.0,0.0,0.0,0.0,-0.6838797232232006
1666088495316099361,0.3300000000000002,0.0,0.0,0.0,0.0,-0.7202257094484485
1666088495365033684,0.3450000000000002,0.0,0.0,0.0,0.0,-0.7565716956736965
1666088495415173841,0.3428210345186889,0.0,0.0,0.0,0.0,-0.8565716956736965
1666088495465123099,0.3406420690373776,0.0,0.0,0.0,0.0,-0.9565716956736965
1666088495515440613,0.3556420690373776,0.0,0.0,0.0,0.0,-0.9688616695469455
1666088495565338490,0.3706420690373776,0.0,0.0,0.0,0.0,-0.981427004903575
1666088495615122283,0.38564206903737763,0.0,0.0,0.0,0.0,-0.9939923402602046
1666088495665131374,0.40064206903737765,0.0,0.0,0.0,0.0,-1.0094244535797687
1666088495715053359,0.41564206903737766,0.0,0.0,0.0,0.0,-1.024856566899333
1666088495768343683,0.4306420690373777,0.0,0.0,0.0,0.0,-1.0464996052780808
1666088495815050921,0.3026212453842163,0.0,0.0,0.0,0.0,-1.0471975511965983
1666088495865152495,0.3176212453842163,0.0,0.0,0.0,0.0,-1.0471975511965983
1666088495915348859,0.33262124538421634,0.0,0.0,0.0,0.0,-1.0471975511965983
1666088495965232576,0.34762124538421635,0.0,0.0,0.0,0.0,-1.0471975511965983
1666088496015070123,0.36262124538421636,0.0,0.0,0.0,0.0,-1.0120345868677219
1666088496065054019,0.3776212453842164,0.0,0.0,0.0,0.0,-1.0215166949259724
1666088496115149378,0.29472219944000244,0.0,0.0,0.0,0.0,-0.8726646259971653
1666088496165118185,0.29472219944000244,0.0,0.0,0.0,0.0,-0.8726646259971653
1666088496215137698,0.2835704982280731,0.0,0.0,0.0,0.0,-0.6981317007977323
1666088496265080393,0.2835704982280731,0.0,0.0,0.0,0.0,-0.6981317007977323
1666088496315508585,0.2835704982280731,0.0,0.0,0.0,0.0,-0.6981317007977323
1666088496365080291,0.1335704982280731,0.0,0.0,0.0,0.0,-0.6645450673053456
1666088496415181275,0.0,0.0,0.0,0.0,0.0,-0.5235987755982994
1666088496465187117,0.0,0.0,0.0,0.0,0.0,-0.5235987755982994
1666088496515283111,0.0,0.0,0.0,0.0,0.0,-0.4706863970037693
1666088496565338003,0.0,0.0,0.0,0.0,0.0,-0.45559062370071285
1666088496615081852,0.0,0.0,0.0,0.0,0.0,-0.45559062370071285
1666088496664984999,0.0,0.0,0.0,0.0,0.0,-0.43945463370491933
1666088496715202809,0.0,0.0,0.0,0.0,0.0,-0.41820071144260945
1666088496765226764,0.0,0.0,0.0,0.0,0.0,-0.41820071144260945
1666088496815231714,0.0,0.0,0.0,0.0,0.0,-0.41820071144260945
1666088496865236038,0.0,0.0,0.0,0.0,0.0,-0.40946044279338606
1666088496915210551,0.0,0.0,0.0,0.0,0.0,-0.3658726254302446
1666088496965118719,0.0,0.0,0.0,0.0,0.0,-0.3658726254302446
1666088497015436288,0.0,0.0,0.0,0.0,0.0,-0.39421392834289204
1666088497065241009,0.0,0.0,0.0,0.0,0.0,-0.39421392834289204
1666088497115177717,0.0,0.0,0.0,0.0,0.0,-0.39421392834289204
1666088497165062293,0.0,0.0,0.0,0.0,0.0,-0.42245552690292887
1666088497215453112,0.0,0.0,0.0,0.0,0.0,-0.42245552690292887
1666088497265401583,0.0,0.0,0.0,0.0,0.0,-0.4297212959820694
1666088497315035034,0.0,0.0,0.0,0.0,0.0,-0.45831295561124974
1666088497365033705,0.0,0.0,0.0,0.0,0.0,-0.45831295561124974
1666088497415291215,0.0,0.0,0.0,0.0,0.0,-0.45831295561124974
1666088497465218006,0.0,0.0,0.0,0.0,0.0,-0.5152933264732705
1666088497515671460,0.0,0.0,0.0,0.0,0.0,-0.5152933264732705
1666088497565123979,0.0,0.0,0.0,0.0,0.0,-0.5694385989301642
1666088497615206230,0.0,0.0,0.0,0.0,0.0,-0.5694385989301642
1666088497665068841,0.0,0.0,0.0,0.0,0.0,-0.5694385989301642
1666088497715592910,0.0,0.0,0.0,0.0,0.0,-0.5946618554305574
1666088497765062387,0.0,0.0,0.0,0.0,0.0,-0.5946618554305574
1666088497815351837,0.0,0.0,0.0,0.0,0.0,-0.6084278406453028
1666088497865329735,0.0,0.0,0.0,0.0,0.0,-0.6094896520206691
1666088497915237655,0.0,0.0,0.0,0.0,0.0,-0.6094896520206691
1666088497965300333,0.0,0.0,0.0,0.0,0.0,-0.6181677444607222
1666088498015151831,0.0,0.0,0.0,0.0,0.0,-0.6181677444607222
1666088498065152523,0.0,0.0,0.0,0.0,0.0,-0.6048541140580918
1666088498115267453,0.0,0.0,0.0,0.0,0.0,-0.5702895545723917
1666088498165002393,0.0,0.0,0.0,0.0,0.0,-0.5702895545723917
1666088498215732535,0.0,0.0,0.0,0.0,0.0,-0.5702895545723917
1666088498265274932,0.0,0.0,0.0,0.0,0.0,-0.5373402951892207
1666088498315162023,0.0,0.0,0.0,0.0,0.0,-0.5235987755982994
1666088498365057781,0.0,0.0,0.0,0.0,0.0,-0.5235987755982994
1666088498416266438,0.015,0.0,0.0,0.0,0.0,-0.5102901128636609
1666088498465269017,0.03,0.0,0.0,0.0,0.0,-0.497811828909624
1666088498515114638,0.045,0.0,0.0,0.0,0.0,-0.4853335449555871
1666088498565149597,0.06,0.0,0.0,0.0,0.0,-0.4671669258759017
1666088498615054875,0.075,0.0,0.0,0.0,0.0,-0.4573959743764904
1666088498665088876,0.09,0.0,0.0,0.0,0.0,-0.4486931028491797
1666088498715267745,0.105,0.0,0.0,0.0,0.0,-0.439990231321869
1666088498765271777,0.12,0.0,0.0,0.0,0.0,-0.432227230850577
1666088498815526884,0.135,0.0,0.0,0.0,0.0,-0.42446423037928505
1666088498865218582,0.15000000000000002,0.0,0.0,0.0,0.0,-0.42238036222841263
1666088498915248776,0.16500000000000004,0.0,0.0,0.0,0.0,-0.4202964940775402
1666088498965334829,0.18000000000000005,0.0,0.0,0.0,0.0,-0.41834659811422303
1666088499015729389,0.19500000000000006,0.0,0.0,0.0,0.0,-0.41639670215090585
1666088499065083707,0.21000000000000008,0.0,0.0,0.0,0.0,-0.4193038481151773
1666088499115048927,0.2250000000000001,0.0,0.0,0.0,0.0,-0.42221099407944873
1666088499165138447,0.2400000000000001,0.0,0.0,0.0,0.0,-0.4249539635992278
1666088499215344698,0.2550000000000001,0.0,0.0,0.0,0.0,-0.42759623534920294
1666088499265488384,0.27000000000000013,0.0,0.0,0.0,0.0,-0.43023850709917805
1666088499315303816,0.28500000000000014,0.0,0.0,0.0,0.0,-0.43288077884915316
1666088499365237431,0.30000000000000016,0.0,0.0,0.0,0.0,-0.4304395673408924
1666088499415665410,0.31500000000000017,0.0,0.0,0.0,0.0,-0.4279983558326316
1666088499465232910,0.3300000000000002,0.0,0.0,0.0,0.0,-0.42555714432437086
1666088499515334004,0.3450000000000002,0.0,0.0,0.0,0.0,-0.4231159328161101
1666088499568237121,0.3600000000000002,0.0,0.0,0.0,0.0,-0.42067472130784933
1666088499615111720,0.3750000000000002,0.0,0.0,0.0,0.0,-0.41823350979958857
1666088499666262128,0.39000000000000024,0.0,0.0,0.0,0.0,-0.4157922982913278
1666088499715432374,0.40500000000000025,0.0,0.0,0.0,0.0,-0.41335108678306703
1666088499765134336,0.42000000000000026,0.0,0.0,0.0,0.0,-0.41090987527480627
1666088499815619866,0.4350000000000003,0.0,0.0,0.0,0.0,-0.4084686637665455
1666088499865045151,0.4500000000000003,0.0,0.0,0.0,0.0,-0.40602745225828474
1666088499915963181,0.4650000000000003,0.0,0.0,0.0,0.0,-0.403586240750024
1666088499965034705,0.4800000000000003,0.0,0.0,0.0,0.0,-0.4011450292417632
1666088500016341615,0.49500000000000033,0.0,0.0,0.0,0.0,-0.39870381773350244
1666088500065568235,0.5100000000000003,0.0,0.0,0.0,0.0,-0.3962626062252417
1666088500115094106,0.5250000000000004,0.0,0.0,0.0,0.0,-0.39382139471698085
1666088500165076556,0.5400000000000004,0.0,0.0,0.0,0.0,-0.38186020547056915
1666088500216134990,0.5550000000000004,0.0,0.0,0.0,0.0,-0.3710819801461489
1666088500265236959,0.5700000000000004,0.0,0.0,0.0,0.0,-0.36030375482172866
1666088500315528741,0.5850000000000004,0.0,0.0,0.0,0.0,-0.3495255294973084
1666088500365124407,0.6000000000000004,0.0,0.0,0.0,0.0,-0.33819892446056155
1666088500415324583,0.6150000000000004,0.0,0.0,0.0,0.0,-0.32592397451597693
1666088500465259601,0.6300000000000004,0.0,0.0,0.0,0.0,-0.3136490245713923
1666088500515084501,0.6450000000000005,0.0,0.0,0.0,0.0,-0.30137407462680765
1666088500566305431,0.6600000000000005,0.0,0.0,0.0,0.0,-0.289099124682223
1666088500615064510,0.6750000000000005,0.0,0.0,0.0,0.0,-0.2768241747376383
1666088500666771803,0.6900000000000005,0.0,0.0,0.0,0.0,-0.2645492247930537
1666088500715232836,0.7050000000000005,0.0,0.0,0.0,0.0,-0.25227427484846904
1666088500765195327,0.7200000000000005,0.0,0.0,0.0,0.0,-0.2399993249038844
1666088500815210440,0.7350000000000005,0.0,0.0,0.0,0.0,-0.22772437495929976
1666088500865367627,0.7500000000000006,0.0,0.0,0.0,0.0,-0.21544942501471512
1666088500915457409,0.7650000000000006,0.0,0.0,0.0,0.0,-0.20317447507013048
1666088500965157881,0.7800000000000006,0.0,0.0,0.0,0.0,-0.1908995251255458
1666088501015181676,0.7950000000000006,0.0,0.0,0.0,0.0,-0.17862457518096114
1666088501064991749,0.7999999999999999,0.0,0.0,0.0,0.0,-0.17453292519943345
1666088501115650867,0.7999999999999999,0.0,0.0,0.0,0.0,-0.17453292519943345
1666088501165103795,0.7999999999999999,0.0,0.0,0.0,0.0,-0.17453292519943345
1666088501215250551,0.7999999999999999,0.0,0.0,0.0,0.0,-0.17453292519943345
1666088501265277715,0.7999999999999999,0.0,0.0,0.0,0.0,-0.17453292519943345
1666088501315376892,0.7999999999999999,0.0,0.0,0.0,0.0,-0.17453292519943345
1666088501365394543,0.7999999999999999,0.0,0.0,0.0,0.0,-0.17453292519943345
1666088501415781784,0.6499999999999999,0.0,0.0,0.0,0.0,-0.14180800172453967
1666088501465110671,0.6649999999999999,0.0,0.0,0.0,0.0,-0.14508049407202905
1666088501516387487,0.6799999999999999,0.0,0.0,0.0,0.0,-0.16774553366389985
1666088501565061266,0.695,0.0,0.0,0.0,0.0,-0.19041057325577068
1666088501616637793,0.5449999999999999,0.0,0.0,0.0,0.0,-0.14931476607826621
1666088501665312814,0.5599999999999999,0.0,0.0,0.0,0.0,-0.16106482986183093
1666088501715272734,0.575,0.0,0.0,0.0,0.0,-0.17281489364539565
1666088501765061762,0.59,0.0,0.0,0.0,0.0,-0.19671594131577907
1666088501815216105,0.605,0.0,0.0,0.0,0.0,-0.22171112377040536
1666088501865147947,0.62,0.0,0.0,0.0,0.0,-0.24670630622503165
1666088501915223143,0.635,0.0,0.0,0.0,0.0,-0.27170148867965793
1666088501965284414,0.65,0.0,0.0,0.0,0.0,-0.3021181790589983
1666088502015068591,0.665,0.0,0.0,0.0,0.0,-0.33253486943833865
1666088502065251823,0.68,0.0,0.0,0.0,0.0,-0.3647642550237406
1666088502115475108,0.6950000000000001,0.0,0.0,0.0,0.0,-0.35506021359480033
1666088502165379541,0.6875889897346497,0.0,0.0,0.0,0.0,-0.3490658503988664
1666088502215153270,0.6875889897346497,0.0,0.0,0.0,0.0,-0.3490658503988664
1666088502265532860,0.6875889897346497,0.0,0.0,0.0,0.0,-0.3490658503988664
1666088502315359373,0.7025889897346497,0.0,0.0,0.0,0.0,-0.3490658503988664
1666088502365299942,0.7100265622138976,0.0,0.0,0.0,0.0,-0.3490658503988664
1666088502415313545,0.68684983253479,0.0,0.0,0.0,0.0,-0.3490658503988664
1666088502465217530,0.6614081263542174,0.0,0.0,0.0,0.0,-0.3490658503988664
1666088502515221736,0.6614081263542174,0.0,0.0,0.0,0.0,-0.3490658503988664
1666088502565294747,0.5964899659156798,0.0,0.0,0.0,0.0,-0.3490658503988664
1666088502615235938,0.5964899659156798,0.0,0.0,0.0,0.0,-0.3490658503988664
1666088502665164872,0.5964899659156798,0.0,0.0,0.0,0.0,-0.3490658503988664
1666088502715261490,0.6067476868629456,0.0,0.0,0.0,0.0,-0.3490658503988664
1666088502765464777,0.5155391097068787,0.0,0.0,0.0,0.0,-0.3490658503988664
1666088502817871063,0.5305391097068787,0.0,0.0,0.0,0.0,-0.3490658503988664
1666088502865789264,0.5333820581436157,0.0,0.0,0.0,0.0,-0.3490658503988664
1666088502915132672,0.5333820581436157,0.0,0.0,0.0,0.0,-0.3490658503988664
1666088502965277543,0.53066486120224,0.0,0.0,0.0,0.0,-0.3490658503988664
1666088503015608020,0.529207706451416,0.0,0.0,0.0,0.0,-0.3490658503988664
1666088503065506739,0.529207706451416,0.0,0.0,0.0,0.0,-0.3490658503988664
1666088503115138184,0.529207706451416,0.0,0.0,0.0,0.0,-0.3490658503988664
1666088503165169674,0.5253854393959045,0.0,0.0,0.0,0.0,-0.3490658503988664
1666088503215235942,0.5253854393959045,0.0,0.0,0.0,0.0,-0.3490658503988664
1666088503265176534,0.5134849548339844,0.0,0.0,0.0,0.0,-0.17453292519943345
1666088503315258883,0.5134849548339844,0.0,0.0,0.0,0.0,-0.17453292519943345
1666088503365481792,0.504055380821228,0.0,0.0,0.0,0.0,-0.17453292519943345
1666088503415244647,0.504055380821228,0.0,0.0,0.0,0.0,-0.17453292519943345
1666088503465143600,0.504055380821228,0.0,0.0,0.0,0.0,-0.17453292519943345
1666088503515581163,0.504055380821228,0.0,0.0,0.0,0.0,-0.17453292519943345
1666088503565170648,0.4840957820415497,0.0,0.0,0.0,0.0,-0.07586733251810074
1666088503615019922,0.4689411222934723,0.0,0.0,0.0,0.0,-0.06917555630207062
1666088503665104357,0.4690832495689392,0.0,0.0,0.0,0.0,-0.06901498138904572
1666088503715491003,0.4566163420677185,0.0,0.0,0.0,0.0,-0.062214434146881104
1666088503765234675,0.4566163420677185,0.0,0.0,0.0,0.0,-0.062214434146881104
1666088503816380519,0.4418533444404602,0.0,0.0,0.0,0.0,-0.05574579909443855
1666088503865166538,0.434978574514389,0.0,0.0,0.0,0.0,-0.04839932173490524
1666088503916447422,0.434978574514389,0.0,0.0,0.0,0.0,-0.04839932173490524
1666088503965109699,0.4124147593975067,0.0,0.0,0.0,0.0,-0.036755744367837906
1666088504018174787,0.3991654217243194,0.0,0.0,0.0,0.0,-0.03211979195475578
1666088504065170585,0.3997340202331543,0.0,0.0,0.0,0.0,-0.03245140612125397
1666088504115401933,0.3997340202331543,0.0,0.0,0.0,0.0,-0.03245140612125397
1666088504165052732,0.37937733530998224,0.0,0.0,0.0,0.0,-0.028645040467381477
1666088504215334113,0.22937733530998222,0.0,0.0,0.0,0.0,0.05168842179683139
1666088504265965000,0.0793773353099822,0.0,0.0,0.0,0.0,0.13202188406104426
1666088504315349605,0.0,0.0,0.0,0.0,0.0,0.17453292519943245
1666088504365108943,0.0,0.0,0.0,0.0,0.0,0.22764790073507185
1666088504415230670,0.0,0.0,0.0,0.0,0.0,0.22764790073507185
1666088504465162820,0.0,0.0,0.0,0.0,0.0,0.24580423134787704
1666088504515064772,0.0,0.0,0.0,0.0,0.0,0.24580423134787704
1666088504565134809,0.0,0.0,0.0,0.0,0.0,0.25924221149957666
1666088504615696862,0.0,0.0,0.0,0.0,0.0,0.25924221149957666
1666088504665176264,0.0,0.0,0.0,0.0,0.0,0.26279531449217386
1666088504715013816,0.0,0.0,0.0,0.0,0.0,0.253601533424491
1666088504765130741,0.0,0.0,0.0,0.0,0.0,0.253601533424491
1666088504815602983,0.0,0.0,0.0,0.0,0.0,0.25442165339666584
1666088504865169059,0.0,0.0,0.0,0.0,0.0,0.25442165339666584
1666088504915743441,0.015,0.0,0.0,0.0,0.0,0.24395775884127677
1666088504965090840,0.03,0.0,0.0,0.0,0.0,0.2334938642858877
1666088505015613395,0.045,0.0,0.0,0.0,0.0,0.22919140584262088
1666088505066227438,0.06,0.0,0.0,0.0,0.0,0.2203173983466994
1666088505115086335,0.075,0.0,0.0,0.0,0.0,0.2114433908507779
1666088505165144614,0.09,0.0,0.0,0.0,0.0,0.20801649180400683
1666088505215722099,0.105,0.0,0.0,0.0,0.0,0.20023961015448796
1666088505265128044,0.12,0.0,0.0,0.0,0.0,0.1924627285049691
1666088505315576673,0.135,0.0,0.0,0.0,0.0,0.18516484996628269
1666088505365261970,0.15000000000000002,0.0,0.0,0.0,0.0,0.18260273834360552
1666088505416102975,0.16500000000000004,0.0,0.0,0.0,0.0,0.17593283498568182
1666088505465058359,0.18000000000000005,0.0,0.0,0.0,0.0,0.16926293162775813
1666088505515277361,0.19500000000000006,0.0,0.0,0.0,0.0,0.16287648409937142
1666088505565766407,0.21000000000000008,0.0,0.0,0.0,0.0,0.1564900365709847
1666088505615240191,0.2250000000000001,0.0,0.0,0.0,0.0,0.1507043427786079
1666088505665511772,0.2400000000000001,0.0,0.0,0.0,0.0,0.1450872659094167
1666088505715264619,0.2550000000000001,0.0,0.0,0.0,0.0,0.1394701890402255
1666088505765173698,0.27000000000000013,0.0,0.0,0.0,0.0,0.13392842883495099
1666088505815402973,0.28500000000000014,0.0,0.0,0.0,0.0,0.12838666862967646
1666088505865695943,0.30000000000000016,0.0,0.0,0.0,0.0,0.1229423293573743
1666088505915100623,0.31500000000000017,0.0,0.0,0.0,0.0,0.11768952975394725
1666088505965165181,0.3300000000000002,0.0,0.0,0.0,0.0,0.1124367301505202
1666088506015364705,0.3450000000000002,0.0,0.0,0.0,0.0,0.10718393054709316
1666088506065348014,0.3600000000000002,0.0,0.0,0.0,0.0,0.10690558522197036
1666088506115442308,0.3750000000000002,0.0,0.0,0.0,0.0,0.10662723989684755
1666088506165630245,0.39000000000000024,0.0,0.0,0.0,0.0,0.10641891656089507
1666088506215128817,0.40500000000000025,0.0,0.0,0.0,0.0,0.10631914924982927
1666088506265139913,0.42000000000000026,0.0,0.0,0.0,0.0,0.10119658965726154
1666088506315439195,0.4350000000000003,0.0,0.0,0.0,0.0,0.10520606343718554
1666088506365124583,0.4500000000000003,0.0,0.0,0.0,0.0,0.10921553721710954
1666088506415161720,0.4650000000000003,0.0,0.0,0.0,0.0,0.11301763872349015
1666088506465259330,0.4800000000000003,0.0,0.0,0.0,0.0,0.11683202845287592
1666088506515181217,0.49500000000000033,0.0,0.0,0.0,0.0,0.12064641818226168
1666088506565024057,0.5100000000000003,0.0,0.0,0.0,0.0,0.12430132393734965
1666088506615651218,0.5250000000000004,0.0,0.0,0.0,0.0,0.1279149632605939
1666088506665527622,0.5400000000000004,0.0,0.0,0.0,0.0,0.13152860258383817
1666088506715779892,0.5550000000000004,0.0,0.0,0.0,0.0,0.135126032966088
1666088506765355426,0.5700000000000004,0.0,0.0,0.0,0.0,0.138740997184685
1666088506815309100,0.5850000000000004,0.0,0.0,0.0,0.0,0.142355961403282
1666088506865660833,0.6000000000000004,0.0,0.0,0.0,0.0,0.1462022319143228
1666088506915084984,0.6150000000000004,0.0,0.0,0.0,0.0,0.1500485024253636
1666088506966035138,0.6300000000000004,0.0,0.0,0.0,0.0,0.1538947729364044
1666088507015160410,0.6450000000000005,0.0,0.0,0.0,0.0,0.15864213083375506
1666088507065283597,0.6600000000000005,0.0,0.0,0.0,0.0,0.1633894887311057
1666088507116134736,0.6750000000000005,0.0,0.0,0.0,0.0,0.16889170227976036
1666088507165328543,0.6814212203025818,0.0,0.0,0.0,0.0,0.17453292519943245
1666088507215194067,0.6698973774909973,0.0,0.0,0.0,0.0,0.17453292519943245
1666088507265732732,0.6698973774909973,0.0,0.0,0.0,0.0,0.17453292519943245
1666088507315053043,0.661083459854126,0.0,0.0,0.0,0.0,0.17453292519943245
1666088507364990970,0.661083459854126,0.0,0.0,0.0,0.0,0.17453292519943245
1666088507415427809,0.6436862349510193,0.0,0.0,0.0,0.0,0.17453292519943245
1666088507465064805,0.6436862349510193,0.0,0.0,0.0,0.0,0.17453292519943245
1666088507515277314,0.6436862349510193,0.0,0.0,0.0,0.0,0.17453292519943245
1666088507565150274,0.608954131603241,0.0,0.0,0.0,0.0,0.17453292519943245
1666088507615012216,0.608954131603241,0.0,0.0,0.0,0.0,0.17453292519943245
1666088507665031199,0.5681353211402893,0.0,0.0,0.0,0.0,0.17453292519943245
1666088507715343045,0.5486040115356445,0.0,0.0,0.0,0.0,0.17453292519943245
1666088507765310810,0.5485329031944275,0.0,0.0,0.0,0.0,0.17453292519943245
1666088507815149041,0.5485329031944275,0.0,0.0,0.0,0.0,0.17453292519943245
1666088507865638360,0.54041588306427,0.0,0.0,0.0,0.0,0.07223061472177505
1666088507915142725,0.5141902565956116,0.0,0.0,0.0,0.0,-4.996003610813204e-16
1666088507965059577,0.5141902565956116,0.0,0.0,0.0,0.0,-4.996003610813204e-16
1666088508015502451,0.5141902565956116,0.0,0.0,0.0,0.0,-4.996003610813204e-16
1666088508065355323,0.4965224266052246,0.0,0.0,0.0,0.0,-4.996003610813204e-16
1666088508115520740,0.4963091909885406,0.0,0.0,0.0,0.0,-4.996003610813204e-16
1666088508166521155,0.4963091909885406,0.0,0.0,0.0,0.0,-4.996003610813204e-16
1666088508215205519,0.4837812185287475,0.0,0.0,0.0,0.0,0.05067756399512291
1666088508265143080,0.4837812185287475,0.0,0.0,0.0,0.0,0.05067756399512291
1666088508315336397,0.4919837799530558,0.0,0.0,0.0,0.0,-0.049322436004877096
1666088508365267754,0.49382224678993225,0.0,0.0,0.0,0.0,-0.07173576205968857
1666088508415248625,0.49382224678993225,0.0,0.0,0.0,0.0,-0.07173576205968857
1666088508465182042,0.48882895708084106,0.0,0.0,0.0,0.0,-0.07682246714830399
1666088508515163855,0.4831047058105469,0.0,0.0,0.0,0.0,-0.08250696957111359
1666088508565247994,0.4577838676449666,0.0,0.0,0.0,0.0,0.01749303042888642
1666088508615224184,0.45640972256660456,0.0,0.0,0.0,0.0,0.02291996404528618
1666088508665746968,0.43258601427078247,0.0,0.0,0.0,0.0,0.013406012207269669
1666088508715083517,0.4475860142707825,0.0,0.0,0.0,0.0,-0.07928271569280844
1666088508765392953,0.4526944756507873,0.0,0.0,0.0,0.0,-0.10777486860752106
1666088508815117726,0.4526944756507873,0.0,0.0,0.0,0.0,-0.10777486860752106
1666088508868965020,0.37954230774781894,0.0,0.0,0.0,0.0,-0.007774868607521052
1666088508915123363,0.24714184625947055,0.0,0.0,0.0,0.0,-0.10777486860752106
1666088508965200375,0.11474138477112214,0.0,0.0,0.0,0.0,-0.20777486860752106
1666088509015034004,0.035966867234767455,0.0,0.0,0.0,0.0,-0.30777486860752107
1666088509065223396,0.0,0.0,0.0,0.0,0.0,-0.35343286609150265
1666088509115079516,0.0,0.0,0.0,0.0,0.0,-0.35343286609150265
1666088509165091314,0.0,0.0,0.0,0.0,0.0,-0.3797980114988753
1666088509215063339,0.0,0.0,0.0,0.0,0.0,-0.3797980114988753
1666088509265053126,0.0,0.0,0.0,0.0,0.0,-0.3797980114988753
1666088509315559904,0.0,0.0,0.0,0.0,0.0,-0.4534931105123743
1666088509365436845,0.0,0.0,0.0,0.0,0.0,-0.47289273731587617
1666088509415445641,0.0,0.0,0.0,0.0,0.0,-0.47289273731587617
1666088509467818910,0.0,0.0,0.0,0.0,0.0,-0.47289273731587617
1666088509515110282,0.0,0.0,0.0,0.0,0.0,-0.5016390844054491
1666088509565218224,0.0,0.0,0.0,0.0,0.0,-0.4963990659545768
1666088509615115093,0.0,0.0,0.0,0.0,0.0,-0.4963990659545768
1666088509665041650,0.0,0.0,0.0,0.0,0.0,-0.49284395237629935
1666088509715175566,0.0,0.0,0.0,0.0,0.0,-0.47465253634924914
1666088509765097804,0.0,0.0,0.0,0.0,0.0,-0.47465253634924914
1666088509815253003,0.0,0.0,0.0,0.0,0.0,-0.47465253634924914
1666088509865024666,0.0,0.0,0.0,0.0,0.0,-0.46587993007026696
1666088509915745344,0.0,0.0,0.0,0.0,0.0,-0.46587993007026696
1666088509965194368,0.015,0.0,0.0,0.0,0.0,-0.4541983248600828
1666088510015168925,0.03,0.0,0.0,0.0,0.0,-0.4430301631065561
1666088510065167137,0.045,0.0,0.0,0.0,0.0,-0.4318620013530293
1666088510115135144,0.06,0.0,0.0,0.0,0.0,-0.4215091094830472
1666088510165138185,0.075,0.0,0.0,0.0,0.0,-0.4111562176130651
1666088510215119549,0.09,0.0,0.0,0.0,0.0,-0.40155120046513487
1666088510265152509,0.105,0.0,0.0,0.0,0.0,-0.3928880430446569
1666088510315363149,0.12,0.0,0.0,0.0,0.0,-0.38422488562417895
1666088510365650862,0.135,0.0,0.0,0.0,0.0,-0.375561728203701
1666088510415440723,0.15000000000000002,0.0,0.0,0.0,0.0,-0.36816206822214337
1666088510465124436,0.16500000000000004,0.0,0.0,0.0,0.0,-0.36076240824058575
1666088510514984918,0.18000000000000005,0.0,0.0,0.0,0.0,-0.35396400415846074
1666088510565407984,0.19500000000000006,0.0,0.0,0.0,0.0,-0.34324043211307037
1666088510615043579,0.21000000000000008,0.0,0.0,0.0,0.0,-0.33251686006768
1666088510665021605,0.2250000000000001,0.0,0.0,0.0,0.0,-0.3217932880222896
1666088510715312222,0.2400000000000001,0.0,0.0,0.0,0.0,-0.3069200960538089
1666088510765210091,0.2550000000000001,0.0,0.0,0.0,0.0,-0.29204690408532813
1666088510815165396,0.27000000000000013,0.0,0.0,0.0,0.0,-0.27759539451014925
1666088510865180326,0.28500000000000014,0.0,0.0,0.0,0.0,-0.2631438849349704
1666088510915017012,0.30000000000000016,0.0,0.0,0.0,0.0,-0.24938270452130168
1666088510965986066,0.31500000000000017,0.0,0.0,0.0,0.0,-0.23498346760761335
1666088511015043293,0.3300000000000002,0.0,0.0,0.0,0.0,-0.22058423069392502
1666088511065007937,0.3450000000000002,0.0,0.0,0.0,0.0,-0.2071969902063252
1666088511115068478,0.3600000000000002,0.0,0.0,0.0,0.0,-0.1938097497187254
1666088511165664021,0.3750000000000002,0.0,0.0,0.0,0.0,-0.1804056927951761
1666088511215026564,0.39000000000000024,0.0,0.0,0.0,0.0,-0.16700163587162678
1666088511265614457,0.40500000000000025,0.0,0.0,0.0,0.0,-0.15368096096738185
1666088511315326319,0.42000000000000026,0.0,0.0,0.0,0.0,-0.1403602860631369
1666088511365033912,0.4350000000000003,0.0,0.0,0.0,0.0,-0.1198711894544811
1666088511415208867,0.4500000000000003,0.0,0.0,0.0,0.0,-0.09938209284582528
1666088511465943590,0.4650000000000003,0.0,0.0,0.0,0.0,-0.07889299623716946
1666088511517059765,0.4800000000000003,0.0,0.0,0.0,0.0,-0.058334912791788276
1666088511565283466,0.49500000000000033,0.0,0.0,0.0,0.0,-0.037776829346407095
1666088511614998492,0.5100000000000003,0.0,0.0,0.0,0.0,-0.017336511071033563
1666088511665302641,0.5250000000000004,0.0,0.0,0.0,0.0,0.003103807204339972
1666088511715101340,0.5400000000000004,0.0,0.0,0.0,0.0,0.02393605356857248
1666088511765432583,0.5550000000000004,0.0,0.0,0.0,0.0,0.05674889680652979
1666088511815100541,0.5700000000000004,0.0,0.0,0.0,0.0,0.08956174004448711
1666088511865164649,0.5850000000000004,0.0,0.0,0.0,0.0,0.12304790812881736
1666088511915459935,0.6000000000000004,0.0,0.0,0.0,0.0,0.15708177137070123
1666088511965227930,0.6150000000000004,0.0,0.0,0.0,0.0,0.1753631059742845
1666088512015258934,0.6300000000000004,0.0,0.0,0.0,0.0,0.1936718290028046
1666088512065164087,0.6450000000000005,0.0,0.0,0.0,0.0,0.2119805520313247
1666088512115416408,0.6600000000000005,0.0,0.0,0.0,0.0,0.2311339238206523
1666088512173579191,0.6750000000000005,0.0,0.0,0.0,0.0,0.2519201207225684
1666088512215066918,0.6900000000000005,0.0,0.0,0.0,0.0,0.1947667108956685
1666088512265764457,0.7050000000000005,0.0,0.0,0.0,0.0,0.1376133010687685
1666088512315180150,0.7200000000000005,0.0,0.0,0.0,0.0,0.08045989124186853
1666088512365989156,0.7003727201994692,0.0,0.0,0.0,0.0,-0.019540108758131475
1666088512415077262,0.7153727201994692,0.0,0.0,0.0,0.0,-0.08951511306229148
1666088512465085261,0.7303727201994692,0.0,0.0,0.0,0.0,-0.1628377150072166
1666088512515193911,0.7318734526634216,0.0,0.0,0.0,0.0,-0.1701735556125641
1666088512565192729,0.7316716909408569,0.0,0.0,0.0,0.0,-0.17580989003181458
1666088512615146240,0.7316716909408569,0.0,0.0,0.0,0.0,-0.17580989003181458
1666088512665560554,0.7138785719871521,0.0,0.0,0.0,0.0,-0.17852024734020233
1666088512715499916,0.7141628861427306,0.0,0.0,0.0,0.0,-0.17858655750751495
1666088512765789676,0.7141628861427306,0.0,0.0,0.0,0.0,-0.17858655750751495
1666088512815088771,0.7041160757042264,0.0,0.0,0.0,0.0,-0.27858655750751493
1666088512865167954,0.6940692652657222,0.0,0.0,0.0,0.0,-0.3785865575075149
1666088512915949853,0.6725760390040637,0.0,0.0,0.0,0.0,-0.4785865575075149
1666088512965095614,0.6629014611244202,0.0,0.0,0.0,0.0,-0.5235987755982994
1666088513015107614,0.6629014611244202,0.0,0.0,0.0,0.0,-0.5235987755982994
1666088513065042843,0.6142829060554504,0.0,0.0,0.0,0.0,-0.5235987755982994
1666088513115036711,0.6142829060554504,0.0,0.0,0.0,0.0,-0.5235987755982994
1666088513165084141,0.6142829060554504,0.0,0.0,0.0,0.0,-0.5235987755982994
1666088513215171039,0.5963181257247925,0.0,0.0,0.0,0.0,-0.5235987755982994
1666088513268474759,0.5963181257247925,0.0,0.0,0.0,0.0,-0.5235987755982994
1666088513315148053,0.5265170931816101,0.0,0.0,0.0,0.0,-0.5235987755982994
1666088513365888421,0.5415170931816101,0.0,0.0,0.0,0.0,-0.5235987755982994
1666088513415254220,0.5565170931816101,0.0,0.0,0.0,0.0,-0.5235987755982994
1666088513465788824,0.5715170931816101,0.0,0.0,0.0,0.0,-0.5235987755982994
1666088513515906413,0.583156943321228,0.0,0.0,0.0,0.0,-0.5235987755982994
1666088513565141405,0.575603187084198,0.0,0.0,0.0,0.0,-0.5235987755982994
1666088513615030770,0.575603187084198,0.0,0.0,0.0,0.0,-0.5235987755982994
1666088513664991444,0.575603187084198,0.0,0.0,0.0,0.0,-0.5235987755982994
1666088513715133542,0.5640369653701782,0.0,0.0,0.0,0.0,-0.5235987755982994
1666088513765998792,0.5590161681175232,0.0,0.0,0.0,0.0,-0.5235987755982994
1666088513815134241,0.5019561052322388,0.0,0.0,0.0,0.0,-0.5235987755982994
1666088513865481733,0.5019561052322388,0.0,0.0,0.0,0.0,-0.5235987755982994
1666088513915130433,0.5051466226577759,0.0,0.0,0.0,0.0,-0.5235987755982994
1666088513965514951,0.5201466226577759,0.0,0.0,0.0,0.0,-0.4637573502024584
1666088514015367174,0.5351466226577759,0.0,0.0,0.0,0.0,-0.40391592480661737
1666088514068592940,0.5488954782485962,0.0,0.0,0.0,0.0,-0.3490658503988664
1666088514115455812,0.5435667037963867,0.0,0.0,0.0,0.0,-0.3490658503988664
1666088514165235403,0.5401672124862671,0.0,0.0,0.0,0.0,-0.3490658503988664
1666088514215227567,0.5401672124862671,0.0,0.0,0.0,0.0,-0.3490658503988664
1666088514265163343,0.5367189049720764,0.0,0.0,0.0,0.0,-0.17453292519943345
1666088514315499662,0.5336688756942749,0.0,0.0,0.0,0.0,-0.17453292519943345
1666088514365613534,0.5336688756942749,0.0,0.0,0.0,0.0,-0.17453292519943345
1666088514415358423,0.5118492245674133,0.0,0.0,0.0,0.0,-0.17453292519943345
1666088514465426608,0.5214716792106628,0.0,0.0,0.0,0.0,-0.07369472831487656
1666088514515215194,0.5214716792106628,0.0,0.0,0.0,0.0,-0.07369472831487656
1666088514565489767,0.5005117654800415,0.0,0.0,0.0,0.0,-0.06707029044628143
1666088514615790432,0.5005117654800415,0.0,0.0,0.0,0.0,-0.06707029044628143
1666088514665332353,0.476389080286026,0.0,0.0,0.0,0.0,-4.996003610813204e-16
1666088514715040707,0.46032935380935663,0.0,0.0,0.0,0.0,-0.058295056223869324
1666088514765115917,0.46032935380935663,0.0,0.0,0.0,0.0,-0.058295056223869324
1666088514815206939,0.4386765658855438,0.0,0.0,0.0,0.0,-0.05345055088400841
1666088514865216291,0.42714932560920715,0.0,0.0,0.0,0.0,-0.05314432457089424
1666088514915033395,0.42714932560920715,0.0,0.0,0.0,0.0,-0.05314432457089424
1666088514965790489,0.41982087492942805,0.0,0.0,0.0,0.0,-0.05383254587650299
1666088515015256592,0.40812525153160095,0.0,0.0,0.0,0.0,-0.054606955498456955
1666088515065578179,0.40943023562431335,0.0,0.0,0.0,0.0,-0.05341459810733795
1666088515116301880,0.40943023562431335,0.0,0.0,0.0,0.0,-0.05341459810733795
1666088515165879426,0.4234238834483823,0.0,0.0,0.0,0.0,0.046585401892662054
1666088515215037456,0.4269426763057708,0.0,0.0,0.0,0.0,0.07173104584217072
1666088515265559499,0.44099512696266174,0.0,0.0,0.0,0.0,0.07351671904325485
1666088515315513074,0.44099512696266174,0.0,0.0,0.0,0.0,0.07351671904325485
1666088515365284998,0.4354131366619236,0.0,0.0,0.0,0.0,-0.026483280956745153
1666088515414951942,0.43453216552734375,0.0,0.0,0.0,0.0,-0.04226566478610039
1666088515465911146,0.4353630244731903,0.0,0.0,0.0,0.0,-0.03620065376162529
1666088515515132806,0.4353630244731903,0.0,0.0,0.0,0.0,-0.036329809576272964
1666088515565369996,0.4353630244731903,0.0,0.0,0.0,0.0,-0.036329809576272964
1666088515615243453,0.4503630244731903,0.0,0.0,0.0,0.0,0.05318372482082254
1666088515665184355,0.45614713430404663,0.0,0.0,0.0,0.0,0.08770079910755157
1666088515715181639,0.43480515739157355,0.0,0.0,0.0,0.0,-0.01229920089244843
1666088515765360199,0.4309433698654175,0.0,0.0,0.0,0.0,-0.02633475698530674
1666088515815343867,0.4291937947273254,0.0,0.0,0.0,0.0,-0.021354954689741135
1666088515865824515,0.4226433336734772,0.0,0.0,0.0,0.0,-0.01766958087682724
1666088515915377441,0.4226433336734772,0.0,0.0,0.0,0.0,-0.01766958087682724
1666088515965502174,0.4200053513050079,0.0,0.0,0.0,0.0,-0.013214458711445332
1666088516015359300,0.41321203112602234,0.0,0.0,0.0,0.0,-0.009402813389897346
1666088516065044991,0.41321203112602234,0.0,0.0,0.0,0.0,-0.009402813389897346
1666088516115092609,0.41118764877319336,0.0,0.0,0.0,0.0,-0.004449562635272741
1666088516165377635,0.4124854505062103,0.0,0.0,0.0,0.0,0.0013655677903443575
1666088516216534286,0.40955036878585815,0.0,0.0,0.0,0.0,0.006734385155141354
1666088516265202207,0.40665581822395325,0.0,0.0,0.0,0.0,0.011660730466246605
1666088516315830238,0.40665581822395325,0.0,0.0,0.0,0.0,0.011660730466246605
1666088516365631308,0.3997434079647064,0.0,0.0,0.0,0.0,0.016557062044739723
1666088516415264941,0.3997434079647064,0.0,0.0,0.0,0.0,0.016557062044739723
1666088516465496421,0.39600873771286793,0.0,0.0,0.0,0.0,0.11655706204473973
1666088516515704235,0.39227406746102944,0.0,0.0,0.0,0.0,0.21655706204473973
1666088516565660190,0.38853939720919095,0.0,0.0,0.0,0.0,0.31655706204473977
1666088516615477143,0.3746833351724612,0.0,0.0,0.0,0.0,0.41655706204473975
1666088516665226304,0.36082727313573154,0.0,0.0,0.0,0.0,0.5165570620447397
1666088516715355489,0.3511897921562195,0.0,0.0,0.0,0.0,0.5235987755982984
1666088516765546943,0.3511897921562195,0.0,0.0,0.0,0.0,0.5235987755982984
1666088516815131163,0.33819442987442017,0.0,0.0,0.0,0.0,0.5235987755982984
1666088516865085037,0.33706456422805786,0.0,0.0,0.0,0.0,0.5235987755982984
1666088516915213956,0.3364035785198211,0.0,0.0,0.0,0.0,0.5235987755982984
1666088516966127492,0.3380357623100281,0.0,0.0,0.0,0.0,0.5235987755982984
1666088517015192131,0.3380357623100281,0.0,0.0,0.0,0.0,0.5235987755982984
1666088517065990054,0.3380357623100281,0.0,0.0,0.0,0.0,0.5235987755982984
1666088517115014394,0.33957776289252306,0.0,0.0,0.0,0.0,0.6235987755982983
1666088517165052503,0.3407270610332489,0.0,0.0,0.0,0.0,0.6981317007977313
1666088517215548237,0.3421536386013031,0.0,0.0,0.0,0.0,0.6981317007977313
1666088517265076192,0.3421536386013031,0.0,0.0,0.0,0.0,0.6981317007977313
1666088517315325863,0.3512680232524872,0.0,0.0,0.0,0.0,0.6981317007977313
1666088517365134834,0.3662680232524872,0.0,0.0,0.0,0.0,0.6981317007977313
1666088517415050836,0.3812680232524872,0.0,0.0,0.0,0.0,0.6981317007977313
1666088517465469843,0.35718053579330444,0.0,0.0,0.0,0.0,0.6981317007977313
1666088517515318018,0.35718053579330444,0.0,0.0,0.0,0.0,0.6981317007977313
1666088517565240178,0.35759168863296503,0.0,0.0,0.0,0.0,0.6981317007977313
1666088517615149811,0.35759168863296503,0.0,0.0,0.0,0.0,0.6981317007977313
1666088517665109340,0.35408547520637507,0.0,0.0,0.0,0.0,0.6981317007977313
1666088517715214192,0.35408547520637507,0.0,0.0,0.0,0.0,0.6981317007977313
1666088517765883189,0.3513031303882599,0.0,0.0,0.0,0.0,0.6981317007977313
1666088517815578052,0.3513031303882599,0.0,0.0,0.0,0.0,0.6981317007977313
1666088517865142582,0.3471817970275879,0.0,0.0,0.0,0.0,0.6981317007977313
1666088517915133022,0.3621817970275879,0.0,0.0,0.0,0.0,0.6981317007977313
1666088517965217533,0.3771817970275879,0.0,0.0,0.0,0.0,0.6981317007977313
1666088518015275298,0.3260215222835541,0.0,0.0,0.0,0.0,0.6981317007977313
1666088518065317401,0.3112879991531372,0.0,0.0,0.0,0.0,0.6981317007977313
1666088518115016273,0.3112879991531372,0.0,0.0,0.0,0.0,0.6981317007977313
1666088518165542770,0.3262879991531372,0.0,0.0,0.0,0.0,0.7254898256943292
1666088518215040808,0.34128799915313723,0.0,0.0,0.0,0.0,0.752847950590927
1666088518265153169,0.28979653120040894,0.0,0.0,0.0,0.0,0.6981317007977313
1666088518315846923,0.1397965312004089,0.0,0.0,0.0,0.0,0.6832145117181612
1666088518365162199,0.0,0.0,0.0,0.0,0.0,0.669312036460931
1666088518415879061,0.0,0.0,0.0,0.0,0.0,0.6764533086221128
1666088518465214997,0.0,0.0,0.0,0.0,0.0,0.6764533086221128
1666088518515070108,0.0,0.0,0.0,0.0,0.0,0.6764533086221128
1666088518565656272,0.0,0.0,0.0,0.0,0.0,0.6562045456939398
1666088518615176545,0.0,0.0,0.0,0.0,0.0,0.6562045456939398
1666088518665595363,0.0,0.0,0.0,0.0,0.0,0.6318905594046953
1666088518715507320,0.0,0.0,0.0,0.0,0.0,0.6318905594046953
1666088518765126754,0.0,0.0,0.0,0.0,0.0,0.6200023156234464
1666088518815081928,0.0,0.0,0.0,0.0,0.0,0.6038814292473909
1666088518867031316,0.0,0.0,0.0,0.0,0.0,0.6038814292473909
1666088518915222709,0.0,0.0,0.0,0.0,0.0,0.5617624163714352
1666088518965449730,0.0,0.0,0.0,0.0,0.0,0.5005997296106534
1666088519015393610,0.0,0.0,0.0,0.0,0.0,0.5005997296106534
1666088519065262689,0.0,0.0,0.0,0.0,0.0,0.4666064867841641
1666088519115368301,0.0,0.0,0.0,0.0,0.0,0.4666064867841641
1666088519166784289,0.0,0.0,0.0,0.0,0.0,0.40940205730306867
1666088519215119772,0.0,0.0,0.0,0.0,0.0,0.40940205730306867
1666088519265271075,0.0,0.0,0.0,0.0,0.0,0.31575572573632277
1666088519315184020,0.0,0.0,0.0,0.0,0.0,0.2629587931988796
1666088519365129450,0.0,0.0,0.0,0.0,0.0,0.2605106756471507
1666088519416236222,0.0,0.0,0.0,0.0,0.0,0.2605106756471507
1666088519465121805,0.0,0.0,0.0,0.0,0.0,0.22309212211724136
1666088519515100057,0.0,0.0,0.0,0.0,0.0,0.17453292519943245
1666088519565270196,0.0,0.0,0.0,0.0,0.0,0.07453292519943244
1666088519615037087,0.0,0.0,0.0,0.0,0.0,-4.996003610813204e-16
1666088519665241062,0.0,0.0,0.0,0.0,0.0,-4.996003610813204e-16
1666088519715055005,0.0,0.0,0.0,0.0,0.0,-4.996003610813204e-16
1666088519767106321,0.0,0.0,0.0,0.0,0.0,-4.996003610813204e-16
1666088519815081832,0.0,0.0,0.0,0.0,0.0,-4.996003610813204e-16
1666088519865112589,0.0,0.0,0.0,0.0,0.0,-4.996003610813204e-16
1666088519915126265,0.0,0.0,0.0,0.0,0.0,-4.996003610813204e-16
1666088519965851310,0.0,0.0,0.0,0.0,0.0,-4.996003610813204e-16
1666088520015138671,0.0,0.0,0.0,0.0,0.0,-4.996003610813204e-16
1666088520065400417,0.0,0.0,0.0,0.0,0.0,-4.996003610813204e-16
1666088520115160733,0.0,0.0,0.0,0.0,0.0,-4.996003610813204e-16
1666088520165331362,0.0,0.0,0.0,0.0,0.0,-4.996003610813204e-16
1666088520215124817,0.0,0.0,0.0,0.0,0.0,-4.996003610813204e-16
1666088520265585977,0.0,0.0,0.0,0.0,0.0,-4.996003610813204e-16
1666088520315110166,0.0,0.0,0.0,0.0,0.0,-4.996003610813204e-16
1666088520365406165,0.0,0.0,0.0,0.0,0.0,-4.996003610813204e-16
1666088520415700795,0.0,0.0,0.0,0.0,0.0,-4.996003610813204e-16
1666088520465247917,0.0,0.0,0.0,0.0,0.0,-4.996003610813204e-16
1666088520515104946,0.0,0.0,0.0,0.0,0.0,-4.996003610813204e-16
1666088520565350971,0.0,0.0,0.0,0.0,0.0,-4.996003610813204e-16
1666088520615258020,0.0,0.0,0.0,0.0,0.0,-4.996003610813204e-16
1666088520665310784,0.0,0.0,0.0,0.0,0.0,-4.996003610813204e-16
1666088520715375958,0.0,0.0,0.0,0.0,0.0,-4.996003610813204e-16
1666088520765090702,0.0,0.0,0.0,0.0,0.0,-4.996003610813204e-16
1666088520815381811,0.0,0.0,0.0,0.0,0.0,-4.996003610813204e-16
1666088520865350170,0.0,0.0,0.0,0.0,0.0,-4.996003610813204e-16
1666088520915158267,0.0,0.0,0.0,0.0,0.0,-4.996003610813204e-16
1666088520965389345,0.0,0.0,0.0,0.0,0.0,-4.996003610813204e-16
1666088521015108759,0.0,0.0,0.0,0.0,0.0,-4.996003610813204e-16
1666088521065614437,0.0,0.0,0.0,0.0,0.0,-4.996003610813204e-16
1666088521115247131,0.0,0.0,0.0,0.0,0.0,-4.996003610813204e-16
1666088521165233073,0.0,0.0,0.0,0.0,0.0,-4.996003610813204e-16
1666088521215581961,0.0,0.0,0.0,0.0,0.0,-4.996003610813204e-16
1666088521265319447,0.0,0.0,0.0,0.0,0.0,-4.996003610813204e-16
1666088521315413907,0.0,0.0,0.0,0.0,0.0,-4.996003610813204e-16
1666088521365863249,0.0,0.0,0.0,0.0,0.0,-4.996003610813204e-16
1666088521416053422,0.0,0.0,0.0,0.0,0.0,-4.996003610813204e-16
1666088521465085389,0.0,0.0,0.0,0.0,0.0,-4.996003610813204e-16
1666088521515234836,0.0,0.0,0.0,0.0,0.0,-4.996003610813204e-16
1666088521565113142,0.0,0.0,0.0,0.0,0.0,-4.996003610813204e-16
1666088521615061831,0.0,0.0,0.0,0.0,0.0,-4.996003610813204e-16
1666088521665254614,0.0,0.0,0.0,0.0,0.0,-4.996003610813204e-16
1666088521715245094,0.0,0.0,0.0,0.0,0.0,-4.996003610813204e-16
1666088521765583891,0.0,0.0,0.0,0.0,0.0,-4.996003610813204e-16
1666088521815061627,0.0,0.0,0.0,0.0,0.0,-4.996003610813204e-16
1666088521866495743,0.0,0.0,0.0,0.0,0.0,-4.996003610813204e-16
1666088521916806667,0.0,0.0,0.0,0.0,0.0,-4.996003610813204e-16
1666088521965188686,0.0,0.0,0.0,0.0,0.0,-4.996003610813204e-16
1666088522015622508,0.0,0.0,0.0,0.0,0.0,-4.996003610813204e-16
1666088522065265015,0.0,0.0,0.0,0.0,0.0,-4.996003610813204e-16
1666088522115178402,0.0,0.0,0.0,0.0,0.0,-4.996003610813204e-16
1666088522165357176,0.0,0.0,0.0,0.0,0.0,-4.996003610813204e-16
1666088522215579237,0.0,0.0,0.0,0.0,0.0,-4.996003610813204e-16
1666088522265308613,0.0,0.0,0.0,0.0,0.0,-4.996003610813204e-16
1666088522315472138,0.0,0.0,0.0,0.0,0.0,-4.996003610813204e-16
1666088522368802615,0.0,0.0,0.0,0.0,0.0,-4.996003610813204e-16
1666088522415205619,0.0,0.0,0.0,0.0,0.0,-4.996003610813204e-16
1666088522465238720,0.0,0.0,0.0,0.0,0.0,-4.996003610813204e-16
1666088522515198037,0.0,0.0,0.0,0.0,0.0,-4.996003610813204e-16
1666088522565403100,0.0,0.0,0.0,0.0,0.0,-4.996003610813204e-16
1666088522615143351,0.0,0.0,0.0,0.0,0.0,-4.996003610813204e-16
1666088522665134652,0.0,0.0,0.0,0.0,0.0,-4.996003610813204e-16
1666088522715407560,0.0,0.0,0.0,0.0,0.0,-4.996003610813204e-16
1666088522765332185,0.0,0.0,0.0,0.0,0.0,-4.996003610813204e-16
1666088522815402067,0.0,0.0,0.0,0.0,0.0,-4.996003610813204e-16
1666088522865241446,0.0,0.0,0.0,0.0,0.0,-4.996003610813204e-16
1666088522915939333,0.0,0.0,0.0,0.0,0.0,-4.996003610813204e-16
1666088522965237900,0.0,0.0,0.0,0.0,0.0,-4.996003610813204e-16
1666088523015529820,0.0,0.0,0.0,0.0,0.0,-4.996003610813204e-16
1666088523065121505,0.0,0.0,0.0,0.0,0.0,-4.996003610813204e-16
1666088523115213790,0.0,0.0,0.0,0.0,0.0,-4.996003610813204e-16
1666088523166103518,0.0,0.0,0.0,0.0,0.0,-4.996003610813204e-16
1666088523215055245,0.0,0.0,0.0,0.0,0.0,-4.996003610813204e-16
1666088523265167491,0.0,0.0,0.0,0.0,0.0,-4.996003610813204e-16
1666088523315032142,0.0,0.0,0.0,0.0,0.0,-4.996003610813204e-16
1666088523365409348,0.0,0.0,0.0,0.0,0.0,-4.996003610813204e-16
1666088523415292982,0.0,0.0,0.0,0.0,0.0,-4.996003610813204e-16
1666088523465624391,0.0,0.0,0.0,0.0,0.0,-4.996003610813204e-16
1666088523517781831,0.0,0.0,0.0,0.0,0.0,-4.996003610813204e-16
1666088523565199156,0.0,0.0,0.0,0.0,0.0,-4.996003610813204e-16
1666088523615261408,0.0,0.0,0.0,0.0,0.0,-4.996003610813204e-16
1666088523665203798,0.0,0.0,0.0,0.0,0.0,-4.996003610813204e-16
1666088523715597757,0.0,0.0,0.0,0.0,0.0,-4.996003610813204e-16
1666088523765204016,0.0,0.0,0.0,0.0,0.0,-4.996003610813204e-16
1666088523815406682,0.0,0.0,0.0,0.0,0.0,-4.996003610813204e-16
1666088523865802477,0.0,0.0,0.0,0.0,0.0,-4.996003610813204e-16
1666088523915202642,0.0,0.0,0.0,0.0,0.0,-4.996003610813204e-16
1666088523965009001,0.0,0.0,0.0,0.0,0.0,-4.996003610813204e-16
1666088524015200187,0.0,0.0,0.0,0.0,0.0,-4.996003610813204e-16
1666088524065271683,0.0,0.0,0.0,0.0,0.0,-4.996003610813204e-16
1666088524115132491,0.0,0.0,0.0,0.0,0.0,-4.996003610813204e-16
1666088524165097317,0.0,0.0,0.0,0.0,0.0,-4.996003610813204e-16
1666088524215062702,0.0,0.0,0.0,0.0,0.0,-4.996003610813204e-16
1666088524265200724,0.0,0.0,0.0,0.0,0.0,-4.996003610813204e-16
1666088524315868705,0.0,0.0,0.0,0.0,0.0,-4.996003610813204e-16
1666088524365127652,0.0,0.0,0.0,0.0,0.0,-4.996003610813204e-16
1666088524415524389,0.0,0.0,0.0,0.0,0.0,-4.996003610813204e-16
1666088524465410219,0.0,0.0,0.0,0.0,0.0,-4.996003610813204e-16
1666088524515055984,0.0,0.0,0.0,0.0,0.0,-4.996003610813204e-16
1666088524565095328,0.0,0.0,0.0,0.0,0.0,-4.996003610813204e-16
1666088524615630300,0.0,0.0,0.0,0.0,0.0,-4.996003610813204e-16
1666088524665113576,0.0,0.0,0.0,0.0,0.0,-4.996003610813204e-16
1666088524715607075,0.0,0.0,0.0,0.0,0.0,-4.996003610813204e-16
1666088524765126263,0.0,0.0,0.0,0.0,0.0,-4.996003610813204e-16
1666088524815930769,0.0,0.0,0.0,0.0,0.0,-4.996003610813204e-16
1666088524865056396,0.0,0.0,0.0,0.0,0.0,-4.996003610813204e-16
1666088524915470797,0.0,0.0,0.0,0.0,0.0,-4.996003610813204e-16
1666088524965370876,0.0,0.0,0.0,0.0,0.0,-4.996003610813204e-16
1666088525015098398,0.0,0.0,0.0,0.0,0.0,-4.996003610813204e-16
1666088525065056499,0.0,0.0,0.0,0.0,0.0,-4.996003610813204e-16
1666088525115007340,0.0,0.0,0.0,0.0,0.0,-4.996003610813204e-16
1666088525165076720,0.0,0.0,0.0,0.0,0.0,-4.996003610813204e-16
1666088525215594618,0.0,0.0,0.0,0.0,0.0,-4.996003610813204e-16
1666088525265156783,0.0,0.0,0.0,0.0,0.0,-4.996003610813204e-16
1666088525315979343,0.0,0.0,0.0,0.0,0.0,-4.996003610813204e-16
1666088525365710568,0.0,0.0,0.0,0.0,0.0,-4.996003610813204e-16
1666088525415024374,0.0,0.0,0.0,0.0,0.0,-4.996003610813204e-16
1666088525465057920,0.0,0.0,0.0,0.0,0.0,-4.996003610813204e-16
1666088525515173799,0.0,0.0,0.0,0.0,0.0,-4.996003610813204e-16
1666088525565066747,0.0,0.0,0.0,0.0,0.0,-4.996003610813204e-16
1666088525615170453,0.0,0.0,0.0,0.0,0.0,-4.996003610813204e-16
1666088525665005980,0.0,0.0,0.0,0.0,0.0,-4.996003610813204e-16
1666088525715067282,0.0,0.0,0.0,0.0,0.0,-4.996003610813204e-16
1666088525765115678,0.0,0.0,0.0,0.0,0.0,-4.996003610813204e-16
1666088525815292582,0.0,0.0,0.0,0.0,0.0,-4.996003610813204e-16
1666088525865237592,0.0,0.0,0.0,0.0,0.0,-4.996003610813204e-16
1666088525915168264,0.0,0.0,0.0,0.0,0.0,-4.996003610813204e-16
1666088525965052265,0.0,0.0,0.0,0.0,0.0,-4.996003610813204e-16
1666088526015378829,0.0,0.0,0.0,0.0,0.0,-4.996003610813204e-16
1666088526065180399,0.0,0.0,0.0,0.0,0.0,-4.996003610813204e-16
1666088526115213495,0.0,0.0,0.0,0.0,0.0,-4.996003610813204e-16
1666088526165280001,0.0,0.0,0.0,0.0,0.0,-4.996003610813204e-16
1666088526215253353,0.0,0.0,0.0,0.0,0.0,-4.996003610813204e-16
1666088526265118876,0.0,0.0,0.0,0.0,0.0,-4.996003610813204e-16
1666088526315203399,0.0,0.0,0.0,0.0,0.0,-4.996003610813204e-16
1666088526365544637,0.0,0.0,0.0,0.0,0.0,-4.996003610813204e-16
1666088526415063528,0.0,0.0,0.0,0.0,0.0,-4.996003610813204e-16
1666088526465114961,0.0,0.0,0.0,0.0,0.0,-4.996003610813204e-16
1666088526515326488,0.0,0.0,0.0,0.0,0.0,-4.996003610813204e-16
1666088526565215891,0.0,0.0,0.0,0.0,0.0,-4.996003610813204e-16
1666088526615139936,0.0,0.0,0.0,0.0,0.0,-4.996003610813204e-16
1666088526665102831,0.0,0.0,0.0,0.0,0.0,-4.996003610813204e-16
1666088526715074823,0.0,0.0,0.0,0.0,0.0,-4.996003610813204e-16
1666088526765118678,0.0,0.0,0.0,0.0,0.0,-4.996003610813204e-16
1666088526815490739,0.0,0.0,0.0,0.0,0.0,-4.996003610813204e-16
1666088526865427296,0.0,0.0,0.0,0.0,0.0,-4.996003610813204e-16
1666088526915205297,0.0,0.0,0.0,0.0,0.0,-4.996003610813204e-16
1666088526965332823,0.0,0.0,0.0,0.0,0.0,-4.996003610813204e-16
1666088527015059626,0.0,0.0,0.0,0.0,0.0,-4.996003610813204e-16
1666088527065132186,0.0,0.0,0.0,0.0,0.0,-4.996003610813204e-16
1666088527115196953,0.0,0.0,0.0,0.0,0.0,-4.996003610813204e-16
1666088527165468767,0.0,0.0,0.0,0.0,0.0,-4.996003610813204e-16
1666088527215133719,0.0,0.0,0.0,0.0,0.0,-4.996003610813204e-16
1666088527265143997,0.0,0.0,0.0,0.0,0.0,-4.996003610813204e-16
1666088527315372531,0.0,0.0,0.0,0.0,0.0,-4.996003610813204e-16
1666088527365198201,0.0,0.0,0.0,0.0,0.0,-4.996003610813204e-16
1666088527415172256,0.0,0.0,0.0,0.0,0.0,-4.996003610813204e-16
1666088527465408403,0.0,0.0,0.0,0.0,0.0,-4.996003610813204e-16
1666088527515078268,0.0,0.0,0.0,0.0,0.0,-4.996003610813204e-16
1666088527565070913,0.0,0.0,0.0,0.0,0.0,-4.996003610813204e-16
1666088527615410283,0.0,0.0,0.0,0.0,0.0,-4.996003610813204e-16
1666088527665509724,0.0,0.0,0.0,0.0,0.0,-4.996003610813204e-16
1666088527715137507,0.0,0.0,0.0,0.0,0.0,-4.996003610813204e-16
1666088527765174532,0.0,0.0,0.0,0.0,0.0,-4.996003610813204e-16
1666088527815220925,0.0,0.0,0.0,0.0,0.0,-4.996003610813204e-16
1666088527865046115,0.0,0.0,0.0,0.0,0.0,-4.996003610813204e-16
1666088527915478616,0.0,0.0,0.0,0.0,0.0,-4.996003610813204e-16
1666088527965136759,0.0,0.0,0.0,0.0,0.0,-4.996003610813204e-16
1666088528014984621,0.0,0.0,0.0,0.0,0.0,-4.996003610813204e-16
1666088528065133587,0.0,0.0,0.0,0.0,0.0,-4.996003610813204e-16
1666088528115105561,0.0,0.0,0.0,0.0,0.0,-4.996003610813204e-16
1666088528165200316,0.0,0.0,0.0,0.0,0.0,-4.996003610813204e-16
1666088528218128748,0.0,0.0,0.0,0.0,0.0,-4.996003610813204e-16
