%time,field.x,field.y,field.z
1663839869443348668,0.0,0.0,0.0
1663839869463142971,0.0,0.0,0.0
1663839869483258429,0.0,0.0,0.0
1663839869503077949,0.0,0.0,0.0
1663839869523632137,0.0,0.0,0.0
1663839869545327474,0.0,0.0,0.0
1663839869563077629,0.0,0.0,0.0
1663839869583163654,0.0,0.0,0.0
1663839869603257020,0.0,0.0,0.0
1663839869651012949,0.0,0.0,0.0
1663839869651026703,0.0,0.0,0.0
1663839869698992125,0.0,0.0,0.0
1663839869699015943,0.0,0.0,0.0
1663839869754527126,0.0,0.0,0.0
1663839869754542095,0.0,0.0,0.0
1663839869754564120,0.0,0.0,0.0
1663839869795289853,0.0,0.0,0.0
1663839869795347965,0.0,0.0,0.0
1663839869803879569,0.0,0.0,0.0
1663839869823464583,0.0,0.0,0.0
1663839869867103657,0.0,0.0,0.0
1663839869867178861,0.0,0.0,0.0
1663839869915111524,0.0,0.0,0.0
1663839869915132271,0.0,0.0,0.0
1663839869959069936,0.0,0.0,0.0
1663839869959087227,0.0,0.0,0.0
1663839870003035508,0.0,0.0,0.0
1663839870003053376,0.0,0.0,0.0
1663839870047114419,0.0,0.0,0.0
1663839870047137159,0.0,0.0,0.0
1663839870047149967,0.0,0.0,0.0
1663839870091048898,0.0,0.0,0.0
1663839870091073444,0.0,0.0,0.0
1663839870102858820,0.0,0.0,0.0
1663839870123781996,0.0,0.0,0.0
1663839870167025233,0.0,0.0,0.0
1663839870167055603,0.0,0.0,0.0
1663839870212954748,0.0,0.0,0.0
1663839870212976694,0.0,0.0,0.0
1663839870255013138,0.0,0.0,0.0
1663839870255035973,0.0,0.0,0.0
1663839870298995378,0.0,0.0,0.0
1663839870299008895,0.0,0.0,0.0
1663839870343058053,0.0,0.0,0.0
1663839870343092954,0.0,0.0,0.0
1663839870387039753,0.0,0.0,0.0
1663839870387061501,0.0,0.0,0.0
1663839870387074799,0.0,0.0,0.0
1663839870431089219,0.0,0.0,0.0
1663839870431118409,0.0,0.0,0.0
1663839870445555670,0.0,0.0,0.0
1663839870464798711,0.0,0.0,0.0
1663839870512400522,0.0,0.0,0.0
1663839870512424672,0.0,0.0,0.0
1663839870555124342,0.0,0.0,0.0
1663839870555153112,0.0,0.0,0.0
1663839870599057529,0.0,0.0,0.0
1663839870599070456,0.0,0.0,0.0
1663839870647052867,0.0,0.0,0.0
1663839870647065551,0.0,0.0,0.0
1663839870647072799,0.0,0.0,0.0
1663839870695044382,0.0,0.0,0.0
1663839870695095047,0.0,0.0,0.0
1663839870704129291,0.0,0.0,0.0
1663839870724323123,0.0,0.0,0.0
1663839870767040684,0.0,0.0,0.0
1663839870767055653,0.0,0.0,0.0
1663839870811119755,0.0,0.0,0.0
1663839870811140601,0.0,0.0,0.0
1663839870855015952,0.0,0.0,0.0
1663839870855034790,0.0,0.0,0.0
1663839870899051907,0.0,0.0,0.0
1663839870899078649,0.0,0.0,0.0
1663839870943112779,0.0,0.0,0.0
1663839870943143459,0.0,0.0,0.0
1663839870986990166,0.0,0.0,0.0
1663839870987008598,0.0,0.0,0.0
1663839870987016400,0.0,0.0,0.0
1663839871031068287,0.0,0.0,0.0
1663839871031131938,0.0,0.0,0.0
1663839871043771272,0.0,0.0,0.0
1663839871063505788,0.0,0.0,0.0
1663839871107007841,0.0,0.0,0.0
1663839871107030284,0.0,0.0,0.0
1663839871151255781,0.0,0.0,0.0
1663839871151304089,0.0,0.0,0.0
1663839871199303262,0.0,0.0,0.0
1663839871199359093,0.0,0.0,0.0
1663839871243384008,0.0,0.0,0.0
1663839871243431602,0.0,0.0,0.0
1663839871291054994,0.0,0.0,0.0
1663839871291070810,0.0,0.0,0.0
1663839871291087060,0.0,0.0,0.0
1663839871335031385,0.0,0.0,0.0
1663839871335062465,0.0,0.0,0.0
1663839871347033419,0.0,0.0,0.0
1663839871364443287,0.0,0.0,0.0
1663839871407061536,0.0,0.0,0.0
1663839871407083519,0.0,0.0,0.0
1663839871451138494,0.0,0.0,0.0
1663839871451160464,0.0,0.0,0.0
1663839871495443660,0.0,0.0,0.0
1663839871495494083,0.0,0.0,0.0
1663839871539265523,0.0,0.0,0.0
1663839871539291087,0.0,0.0,0.0
1663839871583118048,0.0,0.0,0.0
1663839871583140866,0.0,0.0,0.0
1663839871627020541,0.0,0.0,0.0
1663839871627040356,0.0,0.0,0.0
1663839871627051465,0.0,0.0,0.0
1663839871671111298,0.0,0.0,0.0
1663839871671135425,0.0,0.0,0.0
1663839871685915467,0.0,0.0,0.0
1663839871704453769,0.0,0.0,0.0
1663839871747176147,0.0,0.0,0.0
1663839871747218013,0.0,0.0,0.0
1663839871795458266,0.0,0.0,0.0
1663839871795488109,0.0,0.0,0.0
1663839871839048917,0.0,0.0,0.0
1663839871839082455,0.0,0.0,0.0
1663839871883080104,0.0,0.0,0.0
1663839871883102618,0.0,0.0,0.0
1663839871927001322,0.0,0.0,0.0
1663839871927014493,0.0,0.0,0.0
1663839871927026017,0.0,0.0,0.0
1663839871971124544,0.0,0.0,0.0
1663839871971160984,0.0,0.0,0.0
1663839871984584960,0.0,0.0,0.0
1663839872006574624,0.0,0.0,0.0
1663839872047139030,0.0,0.0,0.0
1663839872047165633,0.0,0.0,0.0
1663839872095104124,0.0,0.0,0.0
1663839872095115966,0.0,0.0,0.0
1663839872139034534,0.0,0.0,0.0
1663839872139054485,0.0,0.0,0.0
1663839872185538911,0.0,0.0,0.0
1663839872185573343,0.0,0.0,0.0
1663839872227145650,0.0,0.0,0.0
1663839872227176072,0.0,0.0,0.0
1663839872227376731,0.0,0.0,0.0
1663839872271057470,0.0,0.0,0.0
1663839872271070172,0.0,0.0,0.0
1663839872284398035,0.0,0.0,0.0
1663839872305258878,0.0,0.0,0.0
1663839872347194130,0.0,0.0,0.0
1663839872347230000,0.0,0.0,0.0
1663839872391051457,0.0,0.0,0.0
1663839872391069969,0.0,0.0,0.0
1663839872435013808,0.0,0.0,0.0
1663839872435026655,0.0,0.0,0.0
1663839872479029380,0.0,0.0,0.0
1663839872479048474,0.0,0.0,0.0
1663839872527061560,0.0,0.0,0.0
1663839872527101680,0.0,0.0,0.0
1663839872527122297,0.0,0.0,0.0
1663839872571110537,0.0,0.0,0.0
1663839872571129887,0.0,0.0,0.0
1663839872585671819,0.0,0.0,0.0
1663839872604983389,0.0,0.0,0.0
1663839872647166080,0.0,0.0,0.0
1663839872647230678,0.0,0.0,0.0
1663839872691046524,0.0,0.0,0.0
1663839872691066738,0.0,0.0,0.0
1663839872735035819,0.0,0.0,0.0
1663839872735052580,0.0,0.0,0.0
1663839872779108688,0.0,0.0,0.0
1663839872779149723,0.0,0.0,0.0
1663839872823070587,0.0,0.0,0.0
1663839872823103628,0.0,0.0,0.0
1663839872867061211,0.0,0.0,0.0
1663839872867108741,0.0,0.0,0.0
1663839872867119880,0.0,0.0,0.0
1663839872911074371,0.0,0.0,0.0
1663839872911116077,0.0,0.0,0.0
1663839872926363518,0.0,0.0,0.0
1663839872945081352,0.0,0.0,0.0
1663839872987321955,0.0,0.0,0.0
1663839872987365941,0.0,0.0,0.0
1663839873031181227,0.0,0.0,0.0
1663839873031196431,0.0,0.0,0.0
1663839873075052548,0.0,0.0,0.0
1663839873075084079,0.0,0.0,0.0
1663839873119097283,0.0,0.0,0.0
1663839873119116635,0.0,0.0,0.0
1663839873162998539,0.0,0.0,0.0
1663839873163012903,0.0,0.0,0.0
1663839873207028018,0.0,0.0,0.0
1663839873207045363,0.0,0.0,0.0
1663839873207050866,0.0,0.0,0.0
1663839873251089220,0.0,0.0,0.0
1663839873251115767,0.0,0.0,0.0
1663839873264857654,0.0,0.0,0.0
1663839873284921864,0.0,0.0,0.0
1663839873327031652,0.0,0.0,0.0
1663839873327048713,0.0,0.0,0.0
1663839873375063191,0.0,0.0,0.0
1663839873375114941,0.0,0.0,0.0
1663839873419023003,0.0,0.0,0.0
1663839873419039758,0.0,0.0,0.0
1663839873463027008,0.0,0.0,0.0
1663839873463046544,0.0,0.0,0.0
1663839873511034168,0.0,0.0,0.0
1663839873511055419,0.0,0.0,0.0
1663839873511064009,0.0,0.0,0.0
1663839873555028838,0.0,0.0,0.0
1663839873555048932,0.0,0.0,0.0
1663839873565491032,0.0,0.0,0.0
1663839873585774537,0.0,0.0,0.0
1663839873627070816,0.0,0.0,0.0
1663839873627089120,0.0,0.0,0.0
1663839873671142185,0.0,0.0,0.0
1663839873671156993,0.0,0.0,0.0
1663839873715214576,0.0,0.0,0.0
1663839873715250270,0.0,0.0,0.0
1663839873759076723,0.0,0.0,0.0
1663839873759097725,0.0,0.0,0.0
1663839873807163251,0.0,0.0,0.0
1663839873807184596,0.0,0.0,0.0
1663839873807204556,0.0,0.0,0.0
1663839873851256311,0.0,0.0,0.0
1663839873851309158,0.0,0.0,0.0
1663839873866257754,0.0,0.0,0.0
1663839873886298893,0.0,0.0,0.0
1663839873931293483,0.0,0.0,0.0
1663839873931334728,0.0,0.0,0.0
1663839873975161005,0.0,0.0,0.0
1663839873975187666,0.0,0.0,0.0
1663839874023047175,0.0,0.0,0.0
1663839874023066548,0.0,0.0,0.0
1663839874067471515,0.0,0.0,0.0
1663839874067504889,0.0,0.0,0.0
1663839874067722990,0.0,0.0,0.0
1663839874111158565,0.0,0.0,0.0
1663839874111182991,0.0,0.0,0.0
1663839874126486788,0.0,0.0,0.0
1663839874146565161,0.0,0.0,0.0
1663839874191023319,0.0,0.0,0.0
1663839874191044337,0.0,0.0,0.0
1663839874235025196,0.0,0.0,0.0
1663839874235061178,0.0,0.0,0.0
1663839874279161831,0.0,0.0,0.0
1663839874279181764,0.0,0.0,0.0
1663839874323027844,0.0,0.0,0.0
1663839874323046151,0.0,0.0,0.0
1663839874367072703,0.0,0.0,0.0
1663839874367092789,0.0,0.0,0.0
1663839874367099171,0.0,0.0,0.0
1663839874410986031,0.0,0.0,0.0
1663839874411001698,0.0,0.0,0.0
1663839874425518204,0.0,0.0,0.0
1663839874447044616,0.0,0.0,0.0
1663839874491149925,0.0,0.0,0.0
1663839874491169844,0.0,0.0,0.0
1663839874535185260,0.0,0.0,0.0
1663839874535210684,0.0,0.0,0.0
1663839874579026462,0.0,0.0,0.0
1663839874579044020,0.0,0.0,0.0
1663839874623059675,0.0,0.0,0.0
1663839874623081698,0.0,0.0,0.0
1663839874668353959,0.0,0.0,0.0
1663839874668402884,0.0,0.0,0.0
1663839874668447672,0.0,0.0,0.0
1663839874715201861,0.0,0.0,0.0
1663839874715237996,0.0,0.0,0.0
1663839874725132418,0.0,0.0,0.0
1663839874745286825,0.0,0.0,0.0
1663839874787084518,0.0,0.0,0.0
1663839874787120682,0.0,0.0,0.0
1663839874831229901,0.0,0.0,0.0
1663839874831252543,0.0,0.0,0.0
1663839874875022823,0.0,0.0,0.0
1663839874875037194,0.0,0.0,0.0
1663839874919141538,0.0,0.0,0.0
1663839874919187589,0.0,0.0,0.0
1663839874963071728,0.0,0.0,0.0
1663839874963084900,0.0,0.0,0.0
1663839875011296221,0.0,0.0,0.0
1663839875011417045,0.0,0.0,0.0
1663839875011504265,0.0,0.0,0.0
1663839875055186486,0.0,0.0,0.0
1663839875055241159,0.0,0.0,0.0
1663839875066557191,0.0,0.0,0.0
1663839875086728475,0.0,0.0,0.0
1663839875127100088,0.0,0.0,0.0
1663839875127121869,0.0,0.0,0.0
1663839875175062078,0.0,0.0,0.0
1663839875175086203,0.0,0.0,0.0
1663839875230859055,0.0,0.0,0.0
1663839875246038600,0.0,0.0,0.0
1663839875291268491,0.0,0.0,0.0
1663839875291328128,0.0,0.0,0.0
1663839875339146001,0.0,0.0,0.0
1663839875339189284,0.0,0.0,0.0
1663839875383108931,0.0,0.0,0.0
1663839875383134687,0.0,0.0,0.0
1663839875431184111,0.0,0.0,0.0
1663839875431214126,0.0,0.0,0.0
1663839875431246851,0.0,0.0,0.0
1663839875479152709,0.0,0.0,0.0
1663839875479205104,0.0,0.0,0.0
1663839875486222403,0.0,0.0,0.0
1663839875506161027,0.0,0.0,0.0
1663839875551136111,0.0,0.0,0.0
1663839875551171753,0.0,0.0,0.0
1663839875595247719,0.0,0.0,0.0
1663839875595287615,0.0,0.0,0.0
1663839875639122302,0.0,0.0,0.0
1663839875639163615,0.0,0.0,0.0
1663839875683704731,0.0,0.0,0.0
1663839875683786832,0.0,0.0,0.0
1663839875727150197,0.0,0.0,0.0
1663839875727202861,0.0,0.0,0.0
1663839875727234057,0.0,0.0,0.0
1663839875771081905,0.0,0.0,0.0
1663839875771108028,0.0,0.0,0.0
1663839875786144247,0.0,0.0,0.0
1663839875805940132,0.0,0.0,0.0
1663839875847096776,0.0,0.0,0.0
1663839875847146830,0.0,0.0,0.0
1663839875891377109,0.0,0.0,0.0
1663839875891513167,0.0,0.0,0.0
1663839875935132232,0.0,0.0,0.0
1663839875935193158,0.0,0.0,0.0
1663839875983143587,0.0,0.0,0.0
1663839875983190065,0.0,0.0,0.0
1663839876027529574,0.0,0.0,0.0
1663839876027599407,0.0,0.0,0.0
1663839876075159969,0.0,0.0,0.0
1663839876075205255,0.0,0.0,0.0
1663839876075250102,0.0,0.0,0.0
1663839876123103654,0.0,0.0,0.0
1663839876123134290,0.0,0.0,0.0
1663839876126870128,0.0,0.0,0.0
1663839876146811374,0.0,0.0,0.0
1663839876187186074,0.0,0.0,0.0
1663839876187255316,0.0,0.0,0.0
1663839876231087638,0.0,0.0,0.0
1663839876231113090,0.0,0.0,0.0
1663839876275151104,0.0,0.0,0.0
1663839876275201009,0.0,0.0,0.0
1663839876319157300,0.0,0.0,0.0
1663839876319181126,0.0,0.0,0.0
1663839876367316013,0.0,0.0,0.0
1663839876367366466,0.0,0.0,0.0
1663839876367436858,0.0,0.0,0.0
1663839876415126747,0.0,0.0,0.0
1663839876415178190,0.0,0.0,0.0
1663839876426891415,0.0,0.0,0.0
1663839876448855114,0.0,0.0,0.0
1663839876491129990,0.0,0.0,0.0
1663839876491182315,0.0,0.0,0.0
1663839876535020869,0.0,0.0,0.0
1663839876535033664,0.0,0.0,0.0
1663839876579240143,0.0,0.0,0.0
1663839876579272760,0.0,0.0,0.0
1663839876623235920,0.0,0.0,0.0
1663839876623275409,0.0,0.0,0.0
1663839876667083357,0.0,0.0,0.0
1663839876667107082,0.0,0.0,0.0
1663839876667118193,0.0,0.0,0.0
1663839876711201106,0.0,0.0,0.0
1663839876711251803,0.0,0.0,0.0
1663839876726435980,0.0,0.0,0.0
1663839876747569821,0.0,0.0,0.0
1663839876791325620,0.0,0.0,0.0
1663839876791398440,0.0,0.0,0.0
1663839876835207589,0.0,0.0,0.0
1663839876835271289,0.0,0.0,0.0
1663839876879156241,0.0,0.0,0.0
1663839876879204843,0.0,0.0,0.0
1663839876927010864,0.0,0.0,0.0
1663839876927033421,0.0,0.0,0.0
1663839876927043177,0.0,0.0,0.0
1663839876971167692,0.0,0.0,0.0
1663839876971194083,0.0,0.0,0.0
1663839876991995039,0.0,0.0,0.0
1663839877007019749,0.0,0.0,0.0
1663839877047141611,0.0,0.0,0.0
1663839877047170663,0.0,0.0,0.0
1663839877091117650,0.0,0.0,0.0
1663839877091159511,0.0,0.0,0.0
1663839877139169088,0.0,0.0,0.0
1663839877139205980,0.0,0.0,0.0
1663839877187130492,0.0,0.0,0.0
1663839877187198073,0.0,0.0,0.0
1663839877187236634,0.0,0.0,0.0
1663839877231893135,0.0,0.0,0.0
1663839877232116767,0.0,0.0,0.0
1663839877251753101,0.0,0.0,0.0
1663839877267828577,0.0,0.0,0.0
1663839877311117090,0.0,0.0,0.0
1663839877311146868,0.0,0.0,0.0
1663839877359747474,0.0,0.0,0.0
1663839877359793146,0.0,0.0,0.0
1663839877399057580,0.0,0.0,0.0
1663839877399087222,0.0,0.0,0.0
1663839877443359204,0.0,0.0,0.0
1663839877443429575,0.0,0.0,0.0
1663839877487876686,0.0,0.0,0.0
1663839877487936639,0.0,0.0,0.0
1663839877531614187,0.0,0.0,0.0
1663839877531660924,0.0,0.0,0.0
1663839877531673697,0.0,0.0,0.0
1663839877575262335,0.0,0.0,0.0
1663839877575324120,0.0,0.0,0.0
1663839877587551512,0.0,0.0,0.0
1663839877607012744,0.0,0.0,0.0
1663839877651149724,0.0,0.0,0.0
1663839877651173217,0.0,0.0,0.0
1663839877695155518,0.0,0.0,0.0
1663839877695202531,0.0,0.0,0.0
1663839877739203472,0.0,0.0,0.0
1663839877739232661,0.0,0.0,0.0
1663839877783123497,0.0,0.0,0.0
1663839877783162177,0.0,0.0,0.0
1663839877828723651,0.0,0.0,0.0
1663839877828776516,0.0,0.0,0.0
1663839877871051445,0.0,0.0,0.0
1663839877871077581,0.0,0.0,0.0
1663839877871179403,0.0,0.0,0.0
1663839877920624658,0.0,0.0,0.0
1663839877920725759,0.0,0.0,0.0
1663839877927563012,0.0,0.0,0.0
1663839877947174316,0.0,0.0,0.0
1663839877995078082,0.0,0.0,0.0
1663839877995123646,0.0,0.0,0.0
1663839878039154372,0.0,0.0,0.0
1663839878039206127,0.0,0.0,0.0
1663839878087067074,0.0,0.0,0.0
1663839878087101518,0.0,0.0,0.0
1663839878087126005,0.0,0.0,0.0
1663839878135121248,0.0,0.0,0.0
1663839878135147358,0.0,0.0,0.0
1663839878146881108,0.0,0.0,0.0
1663839878167389785,0.0,0.0,0.0
1663839878215126485,0.0,0.0,0.0
1663839878215190340,0.0,0.0,0.0
1663839878259060825,0.0,0.0,0.0
1663839878259086376,0.0,0.0,0.0
1663839878307273226,0.0,0.0,0.0
1663839878307355084,0.0,0.0,0.0
1663839878355261817,0.0,0.0,0.0
1663839878355309892,0.0,0.0,0.0
1663839878355545202,0.0,0.0,0.0
1663839878403021287,0.0,0.0,0.0
1663839878403036619,0.0,0.0,0.0
1663839878407050941,0.0,0.0,0.0
1663839878427325950,0.0,0.0,0.0
1663839878471090200,0.0,0.0,0.0
1663839878471143690,0.0,0.0,0.0
1663839878515130779,0.0,0.0,0.0
1663839878515179609,0.0,0.0,0.0
1663839878570978365,0.0,0.0,0.0
1663839878571063711,0.0,0.0,0.0
1663839878603161106,0.0,0.0,0.0
1663839878603242912,0.0,0.0,0.0
1663839878647189957,0.0,0.0,0.0
1663839878647223970,0.0,0.0,0.0
1663839878691070672,0.0,0.0,0.0
1663839878691100008,0.0,0.0,0.0
1663839878691117210,0.0,0.0,0.0
1663839878735248576,0.0,0.0,0.0
1663839878735284644,0.0,0.0,0.0
1663839878748492599,0.0,0.0,0.0
1663839878769248049,0.0,0.0,0.0
1663839878815054112,0.0,0.0,0.0
1663839878815078568,0.0,0.0,0.0
1663839878859127912,0.0,0.0,0.0
1663839878859151919,0.0,0.0,0.0
1663839878907040957,0.0,0.0,0.0
1663839878907067134,0.0,0.0,0.0
1663839878955173152,0.0,0.0,0.0
1663839878955235762,0.0,0.0,0.0
1663839878955279225,0.0,0.0,0.0
1663839878998972615,0.0,0.0,0.0
1663839878998981780,0.0,0.0,0.0
1663839879007647765,0.0,0.0,0.0
1663839879028940410,0.0,0.0,0.0
1663839879071448235,0.0,0.0,0.0
1663839879071496524,0.0,0.0,0.0
1663839879115070157,0.0,0.0,0.0
1663839879115085287,0.0,0.0,0.0
1663839879159231778,0.0,0.0,0.0
1663839879159274863,0.0,0.0,0.0
1663839879203122673,0.0,0.0,0.0
1663839879203145349,0.0,0.0,0.0
1663839879247698668,0.0,0.0,0.0
1663839879247783423,0.0,0.0,0.0
1663839879291134886,0.0,0.0,0.0
1663839879291156083,0.0,0.0,0.0
1663839879291194602,0.0,0.0,0.0
1663839879335126804,0.0,0.0,0.0
1663839879335155553,0.0,0.0,0.0
1663839879349046351,0.0,0.0,0.0
1663839879369370900,0.0,0.0,0.0
1663839879426996950,0.0,0.0,0.0
1663839879427041410,0.0,0.0,0.0
1663839879459692924,0.0,0.0,0.0
1663839879459737797,0.0,0.0,0.0
1663839879499363071,0.0,0.0,0.0
1663839879499414696,0.0,0.0,0.0
1663839879543115633,0.0,0.0,0.0
1663839879543139396,0.0,0.0,0.0
1663839879587244256,0.0,0.0,0.0
1663839879587295951,0.0,0.0,0.0
1663839879630998319,0.0,0.0,0.0
1663839879631013520,0.0,0.0,0.0
1663839879631018817,0.0,0.0,0.0
1663839879675065701,0.0,0.0,0.0
1663839879675089305,0.0,0.0,0.0
1663839879688921421,0.0,0.0,0.0
1663839879708578793,0.0,0.0,0.0
1663839879755054275,0.0,0.0,0.0
1663839879755072447,0.0,0.0,0.0
1663839879799184708,0.0,0.0,0.0
1663839879799232045,0.0,0.0,0.0
1663839879847095667,0.0,0.0,0.0
1663839879847136647,0.0,0.0,0.0
1663839879895107284,0.0,0.0,0.0
1663839879895136485,0.0,0.0,0.0
1663839879895159806,0.0,0.0,0.0
1663839879939062654,0.0,0.0,0.0
1663839879939091518,0.0,0.0,0.0
1663839879948383434,0.0,0.0,0.0
1663839879968681209,0.0,0.0,0.0
1663839880011081512,0.0,0.0,0.0
1663839880011100549,0.0,0.0,0.0
1663839880055168434,0.0,0.0,0.0
1663839880055211084,0.0,0.0,0.0
1663839880099180520,0.0,0.0,0.0
1663839880099225562,0.0,0.0,0.0
1663839880143156875,0.0,0.0,0.0
1663839880143204274,0.0,0.0,0.0
1663839880187234689,0.0,0.0,0.0
1663839880187262672,0.0,0.0,0.0
1663839880231148294,0.0,0.0,0.0
1663839880231189969,0.0,0.0,0.0
1663839880231205486,0.0,0.0,0.0
1663839880275117250,0.0,0.0,0.0
1663839880275147954,0.0,0.0,0.0
1663839880292319723,0.0,0.0,0.0
1663839880308962300,0.0,0.0,0.0
1663839880351135338,0.0,0.0,0.0
1663839880351183255,0.0,0.0,0.0
1663839880399119667,0.0,0.0,0.0
1663839880399151736,0.0,0.0,0.0
1663839880443050389,0.0,0.0,0.0
1663839880443075044,0.0,0.0,0.0
1663839880490537078,0.0,0.0,0.0
1663839880490639464,0.0,0.0,0.0
1663839880531231384,0.0,0.0,0.0
1663839880531287943,0.0,0.0,0.0
1663839880531318245,0.0,0.0,0.0
1663839880575242715,0.0,0.0,0.0
1663839880575284511,0.0,0.0,0.0
1663839880589814579,0.0,0.0,0.0
1663839880608609838,0.0,0.0,0.0
1663839880655109641,0.0,0.0,0.0
1663839880655138021,0.0,0.0,0.0
1663839880699184229,0.0,0.0,0.0
1663839880699270369,0.0,0.0,0.0
1663839880747138555,0.0,0.0,0.0
1663839880747184412,0.0,0.0,0.0
1663839880791343380,0.0,0.0,0.0
1663839880791379072,0.0,0.0,0.0
1663839880791425634,0.0,0.0,0.0
1663839880839136592,0.0,0.0,0.0
1663839880839190136,0.0,0.0,0.0
1663839880847873757,0.0,0.0,0.0
1663839880868116991,0.0,0.0,0.0
1663839880915040829,0.0,0.0,0.0
1663839880915053788,0.0,0.0,0.0
1663839880959072177,0.0,0.0,0.0
1663839880959097711,0.0,0.0,0.0
1663839881003071540,0.0,0.0,0.0
1663839881003083771,0.0,0.0,0.0
1663839881051286034,0.0,0.0,0.0
1663839881051353058,0.0,0.0,0.0
1663839881051401561,0.0,0.0,0.0
1663839881095175857,0.0,0.0,0.0
1663839881095233523,0.0,0.0,0.0
1663839881109746497,0.0,0.0,0.0
1663839881129516343,0.0,0.0,0.0
1663839881171223571,0.0,0.0,0.0
1663839881171277851,0.0,0.0,0.0
1663839881215169440,0.0,0.0,0.0
1663839881215196378,0.0,0.0,0.0
1663839881259186822,0.0,0.0,0.0
1663839881259228066,0.0,0.0,0.0
1663839881303142343,0.0,0.0,0.0
1663839881303178121,0.0,0.0,0.0
1663839881347290583,0.0,0.0,0.0
1663839881347323540,0.0,0.0,0.0
1663839881391209064,0.0,0.0,0.0
1663839881391249078,0.0,0.0,0.0
1663839881391286499,0.0,0.0,0.0
1663839881435002606,0.0,0.0,0.0
1663839881435013282,0.0,0.0,0.0
1663839881449091585,0.0,0.0,0.0
1663839881472236158,0.0,0.0,0.0
1663839881511183215,0.0,0.0,0.0
1663839881511211986,0.0,0.0,0.0
1663839881559205789,0.0,0.0,0.0
1663839881559260401,0.0,0.0,0.0
1663839881603126348,0.0,0.0,0.0
1663839881603167112,0.0,0.0,0.0
1663839881650990796,0.0,0.0,0.0
1663839881651007561,0.0,0.0,0.0
1663839881651016453,0.0,0.0,0.0
1663839881695242246,0.0,0.0,0.0
1663839881695286018,0.0,0.0,0.0
1663839881708911104,0.0,0.0,0.0
1663839881729553084,0.0,0.0,0.0
1663839881771026908,0.0,0.0,0.0
1663839881771076920,0.0,0.0,0.0
1663839881815127339,0.0,0.0,0.0
1663839881815173094,0.0,0.0,0.0
1663839881859183628,0.0,0.0,0.0
1663839881859237011,0.0,0.0,0.0
1663839881907058914,0.0,0.0,0.0
1663839881907082184,0.0,0.0,0.0
1663839881951114100,0.0,0.0,0.0
1663839881951153044,0.0,0.0,0.0
1663839881951178549,0.0,0.0,0.0
1663839881995203821,0.0,0.0,0.0
1663839881995251054,0.0,0.0,0.0
1663839882014454973,0.0,0.0,0.0
1663839882030013227,0.0,0.0,0.0
1663839882071207406,0.0,0.0,0.0
1663839882071253906,0.0,0.0,0.0
1663839882115045476,0.0,0.0,0.0
1663839882115071015,0.0,0.0,0.0
1663839882159069751,0.0,0.0,0.0
1663839882159099849,0.0,0.0,0.0
1663839882203172175,0.0,0.0,0.0
1663839882203224752,0.0,0.0,0.0
1663839882247035014,0.0,0.0,0.0
1663839882247050967,0.0,0.0,0.0
1663839882291382976,0.0,0.0,0.0
1663839882291431715,0.0,0.0,0.0
1663839882291762951,0.0,0.0,0.0
1663839882335050919,0.0,0.0,0.0
1663839882335071350,0.0,0.0,0.0
1663839882349645970,0.0,0.0,0.0
1663839882369755815,0.0,0.0,0.0
1663839882415236598,0.0,0.0,0.0
1663839882415298319,0.0,0.0,0.0
1663839882459411366,0.0,0.0,0.0
1663839882459450641,0.0,0.0,0.0
1663839882503018555,0.0,0.0,0.0
1663839882503040923,0.0,0.0,0.0
1663839882547181107,0.0,0.0,0.0
1663839882547235533,0.0,0.0,0.0
1663839882595127437,0.0,0.0,0.0
1663839882595152893,0.0,0.0,0.0
1663839882595160388,0.0,0.0,0.0
1663839882639539934,0.0,0.0,0.0
1663839882639596587,0.0,0.0,0.0
1663839882649289645,0.0,0.0,0.0
1663839882670787866,0.0,0.0,0.0
1663839882715189761,0.0,0.0,0.0
1663839882715243973,0.0,0.0,0.0
1663839882759246593,0.0,0.0,0.0
1663839882759306837,0.0,0.0,0.0
1663839882803538484,0.0,0.0,0.0
1663839882803570103,0.0,0.0,0.0
1663839882847141293,0.0,0.0,0.0
1663839882847180193,0.0,0.0,0.0
1663839882891123947,0.0,0.0,0.0
1663839882891168263,0.0,0.0,0.0
1663839882891192177,0.0,0.0,0.0
1663839882935158743,0.0,0.0,0.0
1663839882935196374,0.0,0.0,0.0
1663839882949133612,0.0,0.0,0.0
1663839882969642669,0.0,0.0,0.0
1663839883011007224,0.0,0.0,0.0
1663839883011025978,0.0,0.0,0.0
1663839883055313148,0.0,0.0,0.0
1663839883055364720,0.0,0.0,0.0
1663839883099144736,0.0,0.0,0.0
1663839883099194347,0.0,0.0,0.0
1663839883143121812,0.0,0.0,0.0
1663839883143148841,0.0,0.0,0.0
1663839883191329218,0.0,0.0,0.0
1663839883191386422,0.0,0.0,0.0
1663839883191393480,0.0,0.0,0.0
1663839883235256105,0.0,0.0,0.0
1663839883235312040,0.0,0.0,0.0
1663839883250197036,0.0,0.0,0.0
1663839883271738652,0.0,0.0,0.0
1663839883319124137,0.0,0.0,0.0
1663839883319150716,0.0,0.0,0.0
1663839883363177580,0.0,0.0,0.0
1663839883363232801,0.0,0.0,0.0
1663839883411219616,0.0,0.0,0.0
1663839883411245999,0.0,0.0,0.0
1663839883411252752,0.0,0.0,0.0
1663839883455141623,0.0,0.0,0.0
1663839883455177800,0.0,0.0,0.0
1663839883469746517,0.0,0.0,0.0
1663839883490048658,0.0,0.0,0.0
1663839883531127919,0.0,0.0,0.0
1663839883531178424,0.0,0.0,0.0
1663839883575084960,0.0,0.0,0.0
1663839883575109133,0.0,0.0,0.0
1663839883619155261,0.0,0.0,0.0
1663839883619170737,0.0,0.0,0.0
1663839883667083982,0.0,0.0,0.0
1663839883667122571,0.0,0.0,0.0
1663839883711116620,0.0,0.0,0.0
1663839883711145364,0.0,0.0,0.0
1663839883712794935,0.0,0.0,0.0
1663839883755224404,0.0,0.0,0.0
1663839883755255743,0.0,0.0,0.0
1663839883770214129,0.0,0.0,0.0
1663839883791380652,0.0,0.0,0.0
1663839883835009119,0.0,0.0,0.0
1663839883835025429,0.0,0.0,0.0
1663839883879036470,0.0,0.0,0.0
1663839883879061133,0.0,0.0,0.0
1663839883923321284,0.0,0.0,0.0
1663839883923355428,0.0,0.0,0.0
1663839883967033073,0.0,0.0,0.0
1663839883967051319,0.0,0.0,0.0
1663839884011136374,0.0,0.0,0.0
1663839884011186829,0.0,0.0,0.0
1663839884011198866,0.0,0.0,0.0
1663839884055085293,0.0,0.0,0.0
1663839884055099200,0.0,0.0,0.0
1663839884069871284,0.0,0.0,0.0
1663839884090422987,0.0,0.0,0.0
1663839884131813513,0.0,0.0,0.0
1663839884131856072,0.0,0.0,0.0
1663839884175113590,0.0,0.0,0.0
1663839884175142937,0.0,0.0,0.0
1663839884219218759,0.0,0.0,0.0
1663839884219261886,0.0,0.0,0.0
1663839884267113266,0.0,0.0,0.0
1663839884267157510,0.0,0.0,0.0
1663839884315102005,0.0,0.0,0.0
1663839884315126395,0.0,0.0,0.0
1663839884315135279,0.0,0.0,0.0
1663839884359200541,0.0,0.0,0.0
1663839884359273474,0.0,0.0,0.0
1663839884369669376,0.0,0.0,0.0
1663839884389919334,0.0,0.0,0.0
1663839884435145421,0.0,0.0,0.0
1663839884435177103,0.0,0.0,0.0
1663839884479093870,0.0,0.0,0.0
1663839884479137958,0.0,0.0,0.0
1663839884523060451,0.0,0.0,0.0
1663839884523087763,0.0,0.0,0.0
1663839884567189090,0.0,0.0,0.0
1663839884567247550,0.0,0.0,0.0
1663839884611123546,0.0,0.0,0.0
1663839884611170040,0.0,0.0,0.0
1663839884611198849,0.0,0.0,0.0
1663839884655058463,0.0,0.0,0.0
1663839884655078873,0.0,0.0,0.0
1663839884670686560,0.0,0.0,0.0
1663839884692376880,0.0,0.0,0.0
1663839884731157477,0.0,0.0,0.0
1663839884731209421,0.0,0.0,0.0
1663839884779163299,0.0,0.0,0.0
1663839884779197790,0.0,0.0,0.0
1663839884823167727,0.0,0.0,0.0
1663839884823218652,0.0,0.0,0.0
1663839884867171275,0.0,0.0,0.0
1663839884867198315,0.0,0.0,0.0
1663839884915426951,0.0,0.0,0.0
1663839884915486537,0.0,0.0,0.0
1663839884915509650,0.0,0.0,0.0
1663839884959170418,0.0,0.0,0.0
1663839884959222862,0.0,0.0,0.0
1663839884970512663,0.0,0.0,0.0
1663839884990619673,0.0,0.0,0.0
1663839885039141248,0.0,0.0,0.0
1663839885039196668,0.0,0.0,0.0
1663839885079339276,0.0,0.0,0.0
1663839885079403723,0.0,0.0,0.0
1663839885123339035,0.0,0.0,0.0
1663839885123401266,0.0,0.0,0.0
1663839885167068954,0.0,0.0,0.0
1663839885167097479,0.0,0.0,0.0
1663839885215435805,0.0,0.0,0.0
1663839885215478448,0.0,0.0,0.0
1663839885215514457,0.0,0.0,0.0
1663839885259329231,0.0,0.0,0.0
1663839885259383093,0.0,0.0,0.0
1663839885270358604,0.0,0.0,0.0
1663839885290421380,0.0,0.0,0.0
1663839885331131527,0.0,0.0,0.0
1663839885331172113,0.0,0.0,0.0
1663839885375180166,0.0,0.0,0.0
1663839885375267080,0.0,0.0,0.0
1663839885419075983,0.0,0.0,0.0
1663839885419102265,0.0,0.0,0.0
1663839885463182018,0.0,0.0,0.0
1663839885463228873,0.0,0.0,0.0
1663839885507459974,0.0,0.0,0.0
1663839885507496875,0.0,0.0,0.0
1663839885551264655,0.0,0.0,0.0
1663839885551288771,0.0,0.0,0.0
1663839885595186501,0.0,0.0,0.0
1663839885595242032,0.0,0.0,0.0
1663839885595262910,0.0,0.0,0.0
1663839885639114269,0.0,0.0,0.0
1663839885639141981,0.0,0.0,0.0
1663839885650838323,0.0,0.0,0.0
1663839885671297237,0.0,0.0,0.0
1663839885715202771,0.0,0.0,0.0
1663839885715241518,0.0,0.0,0.0
1663839885759155038,0.0,0.0,0.0
1663839885759175613,0.0,0.0,0.0
1663839885803093556,0.0,0.0,0.0
1663839885803115871,0.0,0.0,0.0
1663839885847201353,0.0,0.0,0.0
1663839885847241708,0.0,0.0,0.0
1663839885891098406,0.0,0.0,0.0
1663839885891141778,0.0,0.0,0.0
1663839885891149289,0.0,0.0,0.0
1663839885939194208,0.0,0.0,0.0
1663839885939250895,0.0,0.0,0.0
1663839885950788875,0.0,0.0,0.0
1663839885971204838,0.0,0.0,0.0
1663839886019087371,0.0,0.0,0.0
1663839886019110121,0.0,0.0,0.0
1663839886063804009,0.0,0.0,0.0
1663839886063855059,0.0,0.0,0.0
1663839886111280095,0.0,0.0,0.0
1663839886111306285,0.0,0.0,0.0
1663839886155152305,0.0,0.0,0.0
1663839886155179233,0.0,0.0,0.0
1663839886155186602,0.0,0.0,0.0
1663839886199288150,0.0,0.0,0.0
1663839886199373491,0.0,0.0,0.0
1663839886211727960,0.0,0.0,0.0
1663839886231071858,0.0,0.0,0.0
1663839886275235828,0.0,0.0,0.0
1663839886275271732,0.0,0.0,0.0
1663839886319128922,0.0,0.0,0.0
1663839886319174267,0.0,0.0,0.0
1663839886367210068,0.0,0.0,0.0
1663839886367275961,0.0,0.0,0.0
1663839886411464482,0.0,0.0,0.0
1663839886411573836,0.0,0.0,0.0
1663839886455115129,0.0,0.0,0.0
1663839886455142913,0.0,0.0,0.0
1663839886456502343,0.0,0.0,0.0
1663839886503130122,0.0,0.0,0.0
1663839886503154232,0.0,0.0,0.0
1663839886513212521,0.0,0.0,0.0
1663839886530833914,0.0,0.0,0.0
1663839886575564751,0.0,0.0,0.0
1663839886575629940,0.0,0.0,0.0
1663839886623152795,0.0,0.0,0.0
1663839886623177939,0.0,0.0,0.0
1663839886671085958,0.0,0.0,0.0
1663839886671114480,0.0,0.0,0.0
1663839886671121642,0.0,0.0,0.0
1663839886719240151,0.0,0.0,0.0
1663839886719298444,0.0,0.0,0.0
1663839886731986374,0.0,0.0,0.0
1663839886753964706,0.0,0.0,0.0
1663839886803214941,0.0,0.0,0.0
1663839886803256421,0.0,0.0,0.0
1663839886843177581,0.0,0.0,0.0
1663839886843223171,0.0,0.0,0.0
1663839886891144278,0.0,0.0,0.0
1663839886891161036,0.0,0.0,0.0
1663839886939336467,0.0,0.0,0.0
1663839886939378681,0.0,0.0,0.0
1663839886939455161,0.0,0.0,0.0
1663839886987247386,0.0,0.0,0.0
1663839886987294027,0.0,0.0,0.0
1663839886991802273,0.0,0.0,0.0
1663839887011787365,0.0,0.0,0.0
1663839887055167552,0.0,0.0,0.0
1663839887055214648,0.0,0.0,0.0
1663839887099425763,0.0,0.0,0.0
1663839887099456284,0.0,0.0,0.0
1663839887147097220,0.0,0.0,0.0
1663839887147119750,0.0,0.0,0.0
1663839887195272237,0.0,0.0,0.0
1663839887195334054,0.0,0.0,0.0
1663839887195841526,0.0,0.0,0.0
1663839887239173866,0.0,0.0,0.0
1663839887239212700,0.0,0.0,0.0
1663839887252033862,0.0,0.0,0.0
1663839887271957530,0.0,0.0,0.0
1663839887315123264,0.0,0.0,0.0
1663839887315179589,0.0,0.0,0.0
1663839887363399617,0.0,0.0,0.0
1663839887363457702,0.0,0.0,0.0
1663839887411229347,0.0,0.0,0.0
1663839887411283897,0.0,0.0,0.0
1663839887459156278,0.0,0.0,0.0
1663839887459209121,0.0,0.0,0.0
1663839887459233194,0.0,0.0,0.0
1663839887507183849,0.0,0.0,0.0
1663839887507240935,0.0,0.0,0.0
1663839887511541360,0.0,0.0,0.0
1663839887531615881,0.0,0.0,0.0
1663839887579074407,0.0,0.0,0.0
1663839887579101521,0.0,0.0,0.0
1663839887623099403,0.0,0.0,0.0
1663839887623124290,0.0,0.0,0.0
1663839887667198707,0.0,0.0,0.0
1663839887667230028,0.0,0.0,0.0
1663839887711071688,0.0,0.0,0.0
1663839887711092692,0.0,0.0,0.0
1663839887755153981,0.0,0.0,0.0
1663839887755179678,0.0,0.0,0.0
1663839887755190721,0.0,0.0,0.0
1663839887799389729,0.0,0.0,0.0
1663839887799432441,0.0,0.0,0.0
1663839887813311505,0.0,0.0,0.0
1663839887831699294,0.0,0.0,0.0
1663839887879194448,0.0,0.0,0.0
1663839887879225499,0.0,0.0,0.0
1663839887927596073,0.0,0.0,0.0
1663839887927686888,0.0,0.0,0.0
1663839887975636816,0.0,0.0,0.0
1663839887975791433,0.0,0.0,0.0
1663839887975820685,0.0,0.0,0.0
1663839888023134251,0.0,0.0,0.0
1663839888023158995,0.0,0.0,0.0
1663839888031151969,0.0,0.0,0.0
1663839888050820448,4.264583371713915e-05,-1.3397627867655612e-07,0.0
1663839888091478238,4.264583371713915e-05,-1.3397627867655612e-07,0.0
1663839888139138096,4.264583371713915e-05,-1.3397627867655612e-07,0.0
1663839888139186773,4.264583371713915e-05,-1.3397627867655612e-07,0.0
1663839888139321507,0.0,0.0,0.0
1663839888183240431,0.0,0.0,0.0
1663839888183294874,4.264583371713915e-05,-1.3397627867655612e-07,0.0
1663839888192185795,4.264583371713915e-05,-1.3397627867655612e-07,0.0
1663839888212310179,4.264583371713915e-05,-1.3397627867655612e-07,0.0
1663839888255108154,0.0,0.0,0.0
1663839888255146295,0.0,0.0,0.0
1663839888299438772,0.0,0.0,0.0
1663839888299474531,4.264580968433425e-05,-1.4141937870441282e-07,0.0
1663839888343193141,8.52916193686685e-05,-2.8283875740882564e-07,0.0
1663839888343267582,8.52916193686685e-05,-2.8283875740882564e-07,0.0
1663839888387207891,4.2645889577139696e-05,-1.1909010537504247e-07,0.0
1663839888387247436,8.52916193686685e-05,-2.8283875740882564e-07,0.0
1663839888431203625,0.00012793734916019731,-4.465874094426088e-07,0.0
1663839888431236738,0.00017058307895172613,-6.10336061476392e-07,0.0
1663839888475152457,0.00021322877951419222,-7.815277949461321e-07,0.0
1663839888475171198,0.00021322877951419222,-7.815277949461321e-07,0.0
1663839888475192402,0.00025587448007665834,-9.527195284158721e-07,0.0
1663839888519256048,0.00029852018063912446,-1.1239112618856122e-06,0.0
1663839888519291580,0.00029852018063912446,-1.1239112618856122e-06,0.0
1663839888532650574,0.00029852018063912446,-1.1239112618856122e-06,0.0
1663839888551768784,0.00029852018063912446,-1.1239112618856122e-06,0.0
1663839888600462520,0.00029852018063912446,-1.1239112618856122e-06,0.0
1663839888600500833,0.00029852018063912446,-1.1239112618856122e-06,0.0
1663839888639212575,0.00029852018063912446,-1.1239112618856122e-06,0.0
1663839888639267118,0.00029852018063912446,-1.1239112618856122e-06,0.0
1663839888683591041,0.0003411659104306533,-1.2876599139193953e-06,0.0
1663839888683685845,0.0003411659104306533,-1.2876599139193953e-06,0.0
1663839888731301224,0.00029852020986818715,-1.1164681804496553e-06,0.0
1663839888731332671,0.00029852020986818715,-1.1164681804496553e-06,0.0
1663839888779088885,0.00029852020986818715,-1.1164681804496553e-06,0.0
1663839888779121852,0.00029852020986818715,-1.1164681804496553e-06,0.0
1663839888779146792,0.00029852020986818715,-1.1164681804496553e-06,0.0
1663839888827140191,0.0003411659104306533,-1.2876599139193953e-06,0.0
1663839888827164555,0.0003411659104306533,-1.2876599139193953e-06,0.0
1663839888832036630,0.0003411659104306533,-1.2876599139193953e-06,0.0
1663839888851810783,0.0003411659104306533,-1.2876599139193953e-06,0.0
1663839888899361831,0.0003411659104306533,-1.2876599139193953e-06,0.0
1663839888899458371,0.0003411659104306533,-1.2876599139193953e-06,0.0
1663839888943145287,0.0003411659104306533,-1.2876599139193953e-06,0.0
1663839888943198350,0.0003411659104306533,-1.2876599139193953e-06,0.0
1663839888991142883,0.0003411659104306533,-1.2876599139193953e-06,0.0
1663839888991173013,0.0003411659104306533,-1.2876599139193953e-06,0.0
1663839889039157126,0.0003411659104306533,-1.2876599139193953e-06,0.0
1663839889039188774,0.0003411659104306533,-1.2876599139193953e-06,0.0
1663839889039217858,0.0003411659104306533,-1.2876599139193953e-06,0.0
1663839889087059367,0.0003411659104306533,-1.2876599139193953e-06,0.0
1663839889087086512,0.0003411659104306533,-1.2876599139193953e-06,0.0
1663839889091731731,0.0003411659104306533,-1.2876599139193953e-06,0.0
1663839889111444811,0.0003411659104306533,-1.2876599139193953e-06,0.0
1663839889155021506,0.0003411659104306533,-1.2876599139193953e-06,0.0
1663839889155041966,0.0003411659104306533,-1.2876599139193953e-06,0.0
1663839889199225973,0.0003411659104306533,-1.2876599139193953e-06,0.0
1663839889199278135,0.0003411659104306533,-1.2876599139193953e-06,0.0
1663839889243175622,0.0003411659104306533,-1.2876599139193953e-06,0.0
1663839889243228320,0.0003411659104306533,-1.2876599139193953e-06,0.0
1663839889287128586,0.0003411659104306533,-1.2876599139193953e-06,0.0
1663839889287153082,0.0003411659104306533,-1.2876599139193953e-06,0.0
1663839889331160750,0.0003411659104306533,-1.2876599139193953e-06,0.0
1663839889331197196,0.0003411659104306533,-1.2876599139193953e-06,0.0
1663839889375718641,0.0003411659104306533,-1.2876599139193953e-06,0.0
1663839889375784479,0.0003411659104306533,-1.2876599139193953e-06,0.0
1663839889379655001,0.0003411659104306533,-1.2876599139193953e-06,0.0
1663839889419197865,0.0003411659104306533,-1.2876599139193953e-06,0.0
1663839889419231382,0.0003411659104306533,-1.2876599139193953e-06,0.0
1663839889433652027,0.0003411659104306533,-1.2876599139193953e-06,0.0
1663839889452687548,0.0003411659104306533,-1.2876599139193953e-06,0.0
1663839889495208146,0.0003411659104306533,-1.2876599139193953e-06,0.0
1663839889495253105,0.0003411659104306533,-1.2876599139193953e-06,0.0
1663839889539188310,0.0003411659104306533,-1.2876599139193953e-06,0.0
1663839889539237102,0.0003411659104306533,-1.2876599139193953e-06,0.0
1663839889587187780,0.0003411659104306533,-1.2876599139193953e-06,0.0
1663839889587230636,0.0003411659104306533,-1.2876599139193953e-06,0.0
1663839889631700061,0.0003411659104306533,-1.2876599139193953e-06,0.0
1663839889631806031,0.0003411659104306533,-1.2876599139193953e-06,0.0
1663839889679082432,0.0003411659104306533,-1.2876599139193953e-06,0.0
1663839889679108686,0.0003411659104306533,-1.2876599139193953e-06,0.0
1663839889679116997,0.0003411659104306533,-1.2876599139193953e-06,0.0
1663839889727256677,0.0003411659104306533,-1.2876599139193953e-06,0.0
1663839889727299781,0.0003411659104306533,-1.2876599139193953e-06,0.0
1663839889732666452,0.0003411659104306533,-1.2876599139193953e-06,0.0
1663839889752259759,0.0003411659104306533,-1.2876599139193953e-06,0.0
1663839889795206017,0.0003411659104306533,-1.2876599139193953e-06,0.0
1663839889795268225,0.0003411659104306533,-1.2876599139193953e-06,0.0
1663839889839235486,0.0003411659104306533,-1.2876599139193953e-06,0.0
1663839889839292128,0.0003411659104306533,-1.2876599139193953e-06,0.0
1663839889883199032,0.0003411659104306533,-1.2876599139193953e-06,0.0
1663839889883245025,0.0003411659104306533,-1.2876599139193953e-06,0.0
1663839889931185568,0.0003411659104306533,-1.2876599139193953e-06,0.0
1663839889931235644,0.0003411659104306533,-1.2876599139193953e-06,0.0
1663839889975205616,0.0003411659104306533,-1.2876599139193953e-06,0.0
1663839889975237032,0.0003411659104306533,-1.2876599139193953e-06,0.0
1663839889975271830,0.0003411659104306533,-1.2876599139193953e-06,0.0
1663839890019418673,0.0003411659104306533,-1.2876599139193953e-06,0.0
1663839890019482593,0.0003411659104306533,-1.2876599139193953e-06,0.0
1663839890033127575,0.0003411659104306533,-1.2876599139193953e-06,0.0
1663839890051991192,0.0003411659104306533,-1.2876599139193953e-06,0.0
1663839890099160680,0.0003411659104306533,-1.2876599139193953e-06,0.0
1663839890099216135,0.0003411659104306533,-1.2876599139193953e-06,0.0
1663839890147297085,0.0003411659104306533,-1.2876599139193953e-06,0.0
1663839890147353051,0.0003411659104306533,-1.2876599139193953e-06,0.0
1663839890195160724,0.0003411659104306533,-1.2876599139193953e-06,0.0
1663839890195186154,0.0003411659104306533,-1.2876599139193953e-06,0.0
1663839890195192863,0.0003411659104306533,-1.2876599139193953e-06,0.0
1663839890240395435,0.0003411659104306533,-1.2876599139193953e-06,0.0
1663839890240415285,0.0003411659104306533,-1.2876599139193953e-06,0.0
1663839890252944600,0.0003411659104306533,-1.2876599139193953e-06,0.0
1663839890272452669,0.0003411659104306533,-1.2876599139193953e-06,0.0
1663839890315084803,0.0003411659104306533,-1.2876599139193953e-06,0.0
1663839890315103803,0.0003411659104306533,-1.2876599139193953e-06,0.0
1663839890359025934,0.0003411659104306533,-1.2876599139193953e-06,0.0
1663839890359049567,0.0003411659104306533,-1.2876599139193953e-06,0.0
1663839890407218151,0.0003411659104306533,-1.2876599139193953e-06,0.0
1663839890407257390,0.0003411659104306533,-1.2876599139193953e-06,0.0
1663839890451179603,0.0003411659104306533,-1.2876599139193953e-06,0.0
1663839890451211700,0.0003411659104306533,-1.2876599139193953e-06,0.0
1663839890495798816,0.0003411659104306533,-1.2876599139193953e-06,0.0
1663839890495928412,0.0003411659104306533,-1.2876599139193953e-06,0.0
1663839890496151610,0.0003411659104306533,-1.2876599139193953e-06,0.0
1663839890539236905,0.0003411659104306533,-1.2876599139193953e-06,0.0
1663839890539307085,0.0003411659104306533,-1.2876599139193953e-06,0.0
1663839890553741862,0.0005970399306366998,-2.3594687720647936e-06,0.0
1663839890573550537,0.0008102681216724732,-3.2898581744174468e-06,0.0
1663839890619096485,0.0012367245037440198,-5.1506369791227536e-06,0.0
1663839890619134232,0.0014925983329869478,-6.267104261945937e-06,0.0
1663839890667154871,0.0017484721622298758,-7.383571544769121e-06,0.0
1663839890667205093,0.002089637267887113,-8.872194588533367e-06,0.0
1663839890715135192,0.00251609364995866,-1.0732973393238674e-05,0.0
1663839890715175582,0.00315577822306598,-1.3524141600296634e-05,0.0
1663839890715209400,0.0037528166941986894,-1.6233434838443324e-05,0.0
1663839890759086112,0.004264563955169583,-1.8555686185426203e-05,0.0
1663839890759115808,0.0038381079043605048,-1.662047672960714e-05,0.0
1663839890775164524,0.0036675256217380985,-1.5816620710413955e-05,0.0
1663839890793486646,0.0036675256217380985,-1.5816620710413955e-05,0.0
1663839890835173107,0.0036675256217380985,-1.5816620710413955e-05,0.0
1663839890835254436,0.0036675256217380985,-1.5816620710413955e-05,0.0
1663839890883181835,0.0036675256217380985,-1.5816620710413955e-05,0.0
1663839890883227232,0.0037101711923937003,-1.601758471521225e-05,0.0
1663839890931356589,0.004136627243202779,-1.7952794171031313e-05,0.0
1663839890931418203,0.0043498552686073175,-1.8920398898940845e-05,0.0
1663839890975785343,0.004520437551229724,-1.972425491813403e-05,0.0
1663839890975821705,0.004776310760817145,-2.0974697265491862e-05,0.0
1663839891019113934,0.004946892900542093,-2.180832549706375e-05,0.0
1663839891019145667,0.0056718669943731205,-2.535124548124427e-05,0.0
1663839891019198680,0.006183613842240339,-2.7762813538823824e-05,0.0
1663839891063090946,0.006652715498130325,-2.9891543940224794e-05,0.0
1663839891063113166,0.0072071083641821266,-3.240731623278958e-05,0.0
1663839891072986946,0.007846792440395744,-3.5310130416518174e-05,0.0
1663839891093034067,0.00891293256741844,-4.014815405606583e-05,0.0
1663839891139418041,0.009893780692497276,-4.477032616642664e-05,0.0
1663839891139469765,0.010874628817576112,-4.939249827678744e-05,0.0
1663839891183202446,0.011983413654621753,-5.461756240154314e-05,0.0
1663839891183231248,0.013262781807048988,-6.042319076900033e-05,0.0
1663839891227123210,0.01484067042071371,-6.730807234640996e-05,0.0
1663839891227171207,0.016333267757964124,-7.382079816287853e-05,0.0
1663839891271344453,0.017868511879200404,-8.025165131175091e-05,0.0
1663839891271384468,0.019659632530444615,-8.712909469716981e-05,0.0
1663839891315172594,0.021450753181688827,-9.40065380825887e-05,0.0
1663839891315211017,0.023668332583208298,-0.00010213442749429602,0.0
1663839891315236865,0.02580062306742501,-0.00010920539642951666,0.0
1663839891359146530,0.02797556058699911,-0.00011603818664202103,0.0
1663839891359183626,0.030278436835346503,-0.00012287097806866864,0.0
1663839891375569791,0.032666605996937256,-0.0001295400217984993,0.0
1663839891393136101,0.035523881164354495,-0.00013702036778437027,0.0
1663839891439063212,0.03825321984324654,-0.00014368941354570914,0.0
1663839891439091415,0.04106785258506095,-0.00014958437519460167,0.0
1663839891483398380,0.04392513227844383,-0.00015506996514731813,0.0
1663839891483446039,0.046867705695692,-0.00015969215246405314,0.0
1663839891531487439,0.05032203337915149,-0.0001633095172774975,0.0
1663839891531573550,0.05360577752963442,-0.00016617512536587763,0.0
1663839891579208939,0.05684687609647185,-0.00016843783938840336,0.0
1663839891579278723,0.06030120520046728,-0.0001702465220430558,0.0
1663839891579330841,0.0637981807688795,-0.0001708568594245591,0.0
1663839891625349272,0.06767897072894673,-0.0001715341850552518,0.0
1663839891625363855,0.07151711464549673,-0.00017220406754714566,0.0
1663839891634291716,0.07522732048800473,-0.00017220406754714566,0.0
1663839891653899464,0.07915075631231713,-0.00017083453002902208,0.0
1663839891699215389,0.08315948421976677,-0.0001694352199561567,0.0
1663839891699253391,0.0877226103201064,-0.00016704597249877633,0.0
1663839891743622805,0.09211515260167355,-0.00016551268592957278,0.0
1663839891743712620,0.09637975675853486,-0.00016402405819248195,0.0
1663839891791372125,0.10081494508167062,-0.00016247588534590749,0.0
1663839891791437060,0.10533542548794361,-0.0001608979399445912,0.0
1663839891835139537,0.11049559651774579,-0.00015909670038271128,0.0
1663839891835161465,0.11539989152222635,-0.000158240739420847,0.0
1663839891835179373,0.12017624846890332,-0.000158240739420847,0.0
1663839891879103859,0.12499525145974705,-0.000158240739420847,0.0
1663839891879128988,0.12998483862725782,-0.000158240739420847,0.0
1663839891893406396,0.13544353228060294,-0.000158240739420847,0.0
1663839891913741690,0.1408595798897813,-0.000158240739420847,0.0
1663839891959093515,0.14623298145479288,-0.000158240739420847,0.0
1663839891959108018,0.15169167502499734,-0.00015728801765459808,0.0
1663839892003097594,0.15732095276927066,-0.0001563055233331539,0.0
1663839892003131458,0.16329139886168179,-0.00015526348390131913,0.0
1663839892047193171,0.16926184468128763,-0.00015317940506939196,0.0
1663839892047250945,0.17510435237618763,-0.00015113998506957753,0.0
1663839892095230531,0.1812027365991504,-0.00015007561622134633,0.0
1663839892095287562,0.1873437668656304,-0.0001490038042343163,0.0
1663839892095314025,0.19378331943673097,-0.00014787989027569454,0.0
1663839892143146731,0.20022287171359154,-0.00014563206239268738,0.0
1663839892143182489,0.20657713219765766,-0.00014452303471166326,0.0
1663839892153357603,0.21331520707337878,-0.00014334701878144975,0.0
1663839892179047649,0.219882697775031,-0.00014220077540643151,0.0
1663839892219090454,0.22691929495537266,-0.00014097265750462627,0.0
1663839892219116705,0.2339132461987211,-0.00014097265750462627,0.0
1663839892263079730,0.24086455129202833,-0.00014218588912883406,0.0
1663839892263116492,0.24802908496609002,-0.00014718767802073302,0.0
1663839892307139285,0.25527890706380146,-0.00015604501103285028,0.0
1663839892307181730,0.262784601577362,-0.00016783493810162362,0.0
1663839892355042665,0.27033293483950066,-0.00018364415343274452,0.0
1663839892355063064,0.27775332109518125,-0.00020307072360500645,0.0
1663839892355111972,0.2855148628317006,-0.00022745440632413965,0.0
1663839892403128500,0.2932337449792972,-0.00025574571369950546,0.0
1663839892403149396,0.3013364280861658,-0.00028827214305875604,0.0
1663839892413480383,0.309396453707318,-0.00032344086246768633,0.0
1663839892433605271,0.3173285298492599,-0.0003608201673601694,0.0
1663839892476099564,0.3254738199496526,-0.00040204753734625765,0.0
1663839892476206194,0.3337896920416765,-0.0004441383077509028,0.0
1663839892523176026,0.3422335006274239,-0.0004868766284694655,0.0
1663839892523226000,0.35080523800407665,-0.0005317585505763301,0.0
1663839892571196625,0.3595049117594854,-0.0005773103521176256,0.0
1663839892571232325,0.3683751673532355,-0.0006237553262381621,0.0
1663839892618985107,0.3770748330258515,-0.0006708255065867672,0.0
1663839892619005322,0.3861156785823083,-0.0007165857287702789,0.0
1663839892619014829,0.3951565319877305,-0.0007607680250435889,0.0
1663839892663229941,0.4041973853931527,-0.000804950321316899,0.0
1663839892663280634,0.4134514742254182,-0.0008485595103581293,0.0
1663839892683543737,0.42262027931781343,-0.0008901665136582392,0.0
1663839892693669210,0.4321729022762161,-0.000931847958883638,0.0
1663839892739249274,0.4418108237039772,-0.0009722194258737814,0.0
1663839892739301780,0.4512781624516009,-0.0010118763536251611,0.0
1663839892783612195,0.46108666655949937,-0.0010529623598540682,0.0
1663839892783675687,0.4706819423172261,-0.0010931551920345206,0.0
1663839892831175596,0.4807036888182354,-0.0011316361252624596,0.0
1663839892831208778,0.4909813164291237,-0.0011693057665744108,0.0
1663839892875277827,0.5011310131050101,-0.0012047350354874157,0.0
1663839892875331554,0.5116645280970407,-0.0012396656220274057,0.0
1663839892875351721,0.5220274858934589,-0.0012649871551524891,0.0
1663839892919176149,0.5327742692178243,-0.0012856195233328556,0.0
1663839892919209271,0.5434784158695298,-0.0013005653412604908,0.0
1663839892936641468,0.5541399228516173,-0.0013098692636253615,0.0
1663839892954820203,0.564758787202202,-0.001313575946690718,0.0
1663839892995072115,0.5755482362120592,-0.0013116928325746166,0.0
1663839892995095940,0.5859965130545048,-0.0013025749886570437,0.0
1663839893039694271,0.5966153677010174,-0.0012877482609120988,0.0
1663839893039796132,0.6071489175075047,-0.0012656868135291221,0.0
1663839893087151283,0.6172559998027768,-0.0012409905034441642,0.0
1663839893087200092,0.6275336612258746,-0.0012140835872860314,0.0
1663839893131075728,0.6380245419127906,-0.0011829564263424145,0.0
1663839893131102057,0.6487286572620634,-0.0011530648196247807,0.0
1663839893175394823,0.6594327776653728,-0.0011250414339165178,0.0
1663839893175478691,0.6700089603746187,-0.0010973529890732938,0.0
1663839893219295091,0.6806277936721831,-0.0010714062329080848,0.0
1663839893219359359,0.6913745647203206,-0.001045146865222813,0.0
1663839893219400221,0.7022919194358888,-0.0010184706821774576,0.0
1663839893263071507,0.7132092693293038,-0.0009898890616941297,0.0
1663839893263088693,0.7237854360911543,-0.0009566629445823438,0.0
1663839893273869255,0.7342336532575079,-0.0009201916383483685,0.0
1663839893294444936,0.744681849895312,-0.0008782496636482822,0.0
1663839893335215086,0.7554285423757008,-0.000829482385361642,0.0
1663839893335261135,0.7659619405711245,-0.0007688136961311667,0.0
1663839893379208210,0.775812971365619,-0.0007051976306510076,0.0
1663839893379279706,0.7853227837065188,-0.0006354858166329729,0.0
1663839893427318333,0.794917820810022,-0.0005567755061787414,0.0
1663839893427355651,0.8047259753405305,-0.00046433309039735566,0.0
1663839893471158265,0.8149604647462342,-0.0003571538500950726,0.0
1663839893471197272,0.8248963536240792,-0.00024442993039517334,0.0
1663839893515193780,0.834576303673905,-0.00012785086472337785,0.0
1663839893515240001,0.8441708194863011,-5.769229391501974e-07,0.0
1663839893563142795,0.8542342552013242,0.00014345778273056278,0.0
1663839893563160984,0.8643402291490491,0.0002951581421254111,0.0
1663839893563173069,0.8743608131611279,0.00045257405486339244,0.0
1663839893607621849,0.8841680833092619,0.0006134874977084241,0.0
1663839893607669645,0.8940178785348286,0.0007819770590126333,0.0
1663839893615122632,0.904038079588693,0.0009621285309697748,0.0
1663839893635134841,0.9142286734881451,0.0011542394537958653,0.0
1663839893675220532,0.9244189892166916,0.001360578938035965,0.0
1663839893675273663,0.934395826621366,0.0015765321955758223,0.0
1663839893719348845,0.9433065557231324,0.0017787449267561237,0.0
1663839893719392038,0.9523022988325125,0.0019938832393364713,0.0
1663839893763494753,0.9615961183012961,0.002230757825619871,0.0
1663839893763542645,0.9711027511749278,0.0024863393236338746,0.0
1663839893807174256,0.980736999443042,0.0027554482446701476,0.0
1663839893807215505,0.9897314468786372,0.0030192548249767144,0.0
1663839893855217992,0.9985124812233501,0.0032860056867623313,0.0
1663839893855255984,1.0075063069494625,0.0035702193243958803,0.0
1663839893855274094,1.0168834401092897,0.0038763756955674175,0.0
1663839893899314505,1.0263880570320192,0.004198319243888582,0.0
1663839893899351904,1.0357216794004798,0.004529149641890995,0.0
1663839893914574236,1.0447991862007522,0.00486200670573686,0.0
1663839893935238755,1.0539615709426577,0.005207584202617834,0.0
1663839893975166924,1.062867844159414,0.005554398997875413,0.0
1663839894019166454,1.0719869989272583,0.005914285625189468,0.0
1663839894019199049,1.0808501678287987,0.006271816682363672,0.0
1663839894019226894,1.089414874930914,0.006621799962266583,0.0
1663839894063101758,1.0980219448685768,0.0069795334075810934,0.0
1663839894063127113,1.1066713070430678,0.007346585941758008,0.0
1663839894075331008,1.1153629517117212,0.007723031649718628,0.0
1663839894095473091,1.124267355466894,0.008114920509702632,0.0
1663839894139267535,1.1330434663540496,0.00851190650648288,0.0
1663839894139300349,1.141776626681831,0.008914586659227043,0.0
1663839894183213623,1.1505946303829842,0.009328890715507738,0.0
1663839894183250593,1.1593695984586063,0.009750382657427427,0.0
1663839894227263631,1.168016483658178,0.01017177313405415,0.0
1663839894227318356,1.1766630725645297,0.010599200172171187,0.0
1663839894271998485,1.1853093609634195,0.011032663563455792,0.0
1663839894272077531,1.1937423144315202,0.011462809819569202,0.0
1663839894315164589,1.2023453221340166,0.011907652039355225,0.0
1663839894315218624,1.2103092031929013,0.012325021360125652,0.0
1663839894315238530,1.2181875457253482,0.012744802147700785,0.0
1663839894359277157,1.2262784371248716,0.013182989162637361,0.0
1663839894359311584,1.2342837798330533,0.01362354982894665,0.0
1663839894376625228,1.242416552912337,0.014076818575354163,0.0
1663839894397578406,1.2502083811954268,0.014516542072425783,0.0
1663839894439332396,1.2578294417008302,0.014954635121589965,0.0
1663839894439410586,1.2654501945024068,0.01539804856749386,0.0
1663839894483102188,1.2733685604713736,0.015865712459092657,0.0
1663839894483130286,1.2812438631585041,0.01633910928444403,0.0
1663839894527249280,1.2891188334331671,0.016818003992444125,0.0
1663839894527291212,1.2971637298144743,0.017312869697950158,0.0
1663839894571315150,1.3052081912807711,0.01781475571062602,0.0
1663839894571432463,1.3134650164790007,0.018337124768307008,0.0
1663839894615139738,1.3217638482380063,0.018870877257366636,0.0
1663839894615180400,1.3292110969156106,0.019356385035919233,0.0
1663839894615200958,1.3360196984373582,0.019805031271531142,0.0
1663839894659138153,1.3429982732571344,0.02026854769963527,0.0
1663839894659192392,1.3503594754985497,0.020762640213522063,0.0
1663839894674699649,1.3578054275999099,0.021267643157440987,0.0
1663839894694780227,1.3649959192414398,0.021757841699604527,0.0
1663839894735170821,1.3721436074667224,0.02224888224662123,0.0
1663839894735205139,1.3792482348773765,0.022744440152025827,0.0
1663839894779145642,1.3865226769803956,0.02325694635097912,0.0
1663839894779171085,1.393967005826556,0.023785338912752547,0.0
1663839894827090605,1.401325982116178,0.02431154592532158,0.0
1663839894827117129,1.4084294668551507,0.024823222429578833,0.0
1663839894871135326,1.4154473466631243,0.025336120457943742,0.0
1663839894871187394,1.422847449455174,0.02588474441132408,0.0
1663839894915005999,1.4302467790104856,0.02644370031925848,0.0
1663839894915025826,1.4375604761811536,0.027003890638168097,0.0
1663839894915032663,1.444788251730852,0.027568921171853975,0.0
1663839894959126599,1.45197251964716,0.028143167777728094,0.0
1663839894959161481,1.4591984844363912,0.028730902212320022,0.0
1663839894974289730,1.4665938379155539,0.029340210421160508,0.0
1663839894994441436,1.4741159346298978,0.02996921438589621,0.0
1663839895035205034,1.4816371457569555,0.030608720562427066,0.0
1663839895079289878,1.4889020906629535,0.031241765605811322,0.0
1663839895079323757,1.4961661445899224,0.03188495380550961,0.0
1663839895079332939,1.5034716531248102,0.03254337961326205,0.0
1663839895123113052,1.5111157384909186,0.033245772386014935,0.0
1663839895123167508,1.5188435068396973,0.033969458118449855,0.0
1663839895134362997,1.5265700003491778,0.03470663024195287,0.0
1663839895154610905,1.5344225338644497,0.03546965996595364,0.0
1663839895199172784,1.542103835475222,0.0362309401843407,0.0
1663839895199216593,1.549485866264365,0.036984684838229184,0.0
1663839895247205069,1.5569938237955883,0.03776453012861971,0.0
1663839895247234943,1.564288492756373,0.03853380527458477,0.0
1663839895291205831,1.5715394049735885,0.039311264297540276,0.0
1663839895291234326,1.5790006398834486,0.040127084592187286,0.0
1663839895339135987,1.5863756691040873,0.04094650729741779,0.0
1663839895339181274,1.593918764696344,0.041797933781717034,0.0
1663839895339208782,1.601501816667961,0.04267532283025834,0.0
1663839895383227989,1.6090408162691496,0.0435622857299149,0.0
1663839895383258878,1.6165359111773072,0.04445734845693939,0.0
1663839895395796732,1.6241562800239167,0.045382213492062645,0.0
1663839895416019388,1.6317325337744268,0.046316487463992966,0.0
1663839895463181849,1.6392226762463766,0.047252089258290414,0.0
1663839895463223915,1.6468802365409003,0.048223537837625986,0.0
1663839895507151119,1.6547474005811074,0.04923692774209144,0.0
1663839895507175455,1.6624848604276181,0.05025558365586677,0.0
1663839895551041194,1.6701356309369342,0.05127913268758843,0.0
1663839895551060942,1.6777418028851274,0.052314287258697134,0.0
1663839895595176270,1.6854721497678211,0.053385586386049344,0.0
1663839895595228911,1.6932843117032281,0.05448768568427801,0.0
1663839895639160651,1.7011357737423745,0.055616301199784196,0.0
1663839895639186570,1.708773468572714,0.05673324331339667,0.0
1663839895639205500,1.7164084114009057,0.05786884448317519,0.0
1663839895683265465,1.7242071518826574,0.05906221947305335,0.0
1663839895683316572,1.732086589284646,0.060291879953888274,0.0
1663839895695686628,1.7402154924601285,0.06158228059827074,0.0
1663839895715095422,1.7482149117086452,0.0628721733013286,0.0
1663839895755205075,1.756294632319253,0.06419962264383793,0.0
1663839895755244002,1.7639920528287654,0.06548634804063953,0.0
1663839895799136004,1.7717285803855993,0.06679766170825378,0.0
1663839895799181934,1.7795863095997848,0.06815916465225302,0.0
1663839895843147329,1.7874829327531558,0.06954586878428068,0.0
1663839895843191574,1.795333914606283,0.0709457554267816,0.0
1663839895887473734,1.8031389938401734,0.07235995742320546,0.0
1663839895887531080,1.8110659176366748,0.0738191109370334,0.0
1663839895935238210,1.8189465588475,0.07529393285251322,0.0
1663839895935273205,1.8269063147915523,0.07680945811131429,0.0
1663839895979270383,1.835195935476384,0.07841629316769344,0.0
1663839895979314621,1.843309734376231,0.08003317263116094,0.0
1663839895979335999,1.8514593454953105,0.08168826745975244,0.0
1663839896023041305,1.8597275224010381,0.08340202959388644,0.0
1663839896023058139,1.8678221582889145,0.08511226397234008,0.0
1663839896035984635,1.8759938561564535,0.0868700922099661,0.0
1663839896055102455,1.8842417438244414,0.0886789810990507,0.0
1663839896099779407,1.8923574467443218,0.09049305562896968,0.0
1663839896099844559,1.9006317983349297,0.09237901791114415,0.0
1663839896143266762,1.9088529539404364,0.09430575881402788,0.0
1663839896143298967,1.9171492720755345,0.09628528116150659,0.0
1663839896187161537,1.92531325250055,0.09826789887779648,0.0
1663839896187193736,1.9333450060565929,0.10025258187554038,0.0
1663839896231470622,1.94169996942618,0.10235120361910743,0.0
1663839896231504549,1.9500058619952856,0.10446989299504574,0.0
1663839896275127825,1.9585099685250307,0.10667395567928101,0.0
1663839896275183305,1.9670420640828123,0.10893938776113293,0.0
1663839896319128266,1.9755246216446067,0.11122498120620063,0.0
1663839896319171257,1.9843689738071284,0.11364286308717722,0.0
1663839896319197460,1.9929985116085718,0.11603766777587024,0.0
1663839896363131102,2.001742366941119,0.11849874832258774,0.0
1663839896363143904,2.0107633021975677,0.12107694248123838,0.0
1663839896375956789,2.0198557290195382,0.12371509526705005,0.0
1663839896395919432,2.029305671983137,0.12649815701674166,0.0
1663839896439285206,2.0385746126837607,0.12929132044446906,0.0
1663839896439323515,2.047708942934685,0.13208745234323974,0.0
1663839896483709294,2.057278943309444,0.13506267948411899,0.0
1663839896483731521,2.0666731996431436,0.13802828273718784,0.0
1663839896527150685,2.0750382059741392,0.1407123820773198,0.0
1663839896527199517,2.0833499259771266,0.14342264981466332,0.0
1663839896575709367,2.0918097318349678,0.14622865550983888,0.0
1663839896575764496,2.100376958335599,0.1491168404866916,0.0
1663839896619116263,2.1090840253287038,0.15212342586107336,0.0
1663839896619166719,2.117936178840888,0.15523208091068233,0.0
1663839896619192810,2.12657058332103,0.15831684625643533,0.0
1663839896663172195,2.1352683349248327,0.1614774124897835,0.0
1663839896663193044,2.1442277195809227,0.16479158950866715,0.0
1663839896676522453,2.1530897900403754,0.16812262280268817,0.0
1663839896697257516,2.1621341010813806,0.1715745007610216,0.0
1663839896739175297,2.170993341467141,0.17503213727798794,0.0
1663839896739210197,2.1798368004347535,0.17852994001460692,0.0
1663839896783096750,2.1886636782648594,0.18206937757847594,0.0
1663839896783146219,2.1971571188102472,0.18552338766343737,0.0
1663839896827285274,2.20587075785763,0.1891148905096428,0.0
1663839896827339274,2.214606726870976,0.1927638521471549,0.0
1663839896871162046,2.2230885099236675,0.19635716920565938,0.0
1663839896871204319,2.2318256213346075,0.2001127350337287,0.0
1663839896915533168,2.2405336347242293,0.2039352856615568,0.0
1663839896915562093,2.2493007940043133,0.20783501007338526,0.0
1663839896959088557,2.2581258566458557,0.21181411713634873,0.0
1663839896959116248,2.266737414396056,0.21574770948293737,0.0
1663839896959133670,2.2753697434624445,0.21973823393289812,0.0
1663839897003085732,2.2840618415570724,0.22380251284113536,0.0
1663839897003112766,2.2928139501229854,0.22793961560709933,0.0
1663839897019605401,2.301510173636951,0.23209495625477095,0.0
1663839897035281789,2.3102568420529384,0.23634211024058832,0.0
1663839897079326868,2.318909074917259,0.24058828802356058,0.0
1663839897079376780,2.3276580611196884,0.2449275166267965,0.0
1663839897123174389,2.3365412963955654,0.24937978857585455,0.0
1663839897123210624,2.3453304906610217,0.2538291614397465,0.0
1663839897167209142,2.354253636565999,0.2583914361871941,0.0
1663839897167268188,2.363309966862216,0.2630677586948957,0.0
1663839897211253408,2.372298144708616,0.2677826560264481,0.0
1663839897211294121,2.38152856073241,0.2726781633688132,0.0
1663839897255276684,2.390699082582034,0.27759535404148566,0.0
