%time,field.linear.x,field.linear.y,field.linear.z,field.angular.x,field.angular.y,field.angular.z
1663839875566737624,0.0,0.0,0.0,0.0,0.0,-0.02640941420868277
1663839875651987585,0.0,0.0,0.0,0.0,0.0,-0.007339805728484021
1663839875846776517,0.0,0.0,0.0,0.0,0.0,-0.048422267803325494
1663839875967087491,0.04393773153424263,0.0,0.0,0.0,0.0,-0.061589352786540985
1663839876001081170,0.04393773153424263,0.0,0.0,0.0,0.0,-0.06155793368816376
1663839876133852200,0.08339951932430267,0.0,0.0,0.0,0.0,-0.060566410422325134
1663839876258499286,0.11300421506166458,0.0,0.0,0.0,0.0,-0.05999521538615227
1663839876354865773,0.1167396605014801,0.0,0.0,0.0,0.0,-0.05976204201579094
1663839876428855704,0.12531904876232147,0.0,0.0,0.0,0.0,-0.05942054092884064
1663839876561821061,0.133877694606781,0.0,0.0,0.0,0.0,-0.05885370075702667
1663839876682135034,0.13831040263175964,0.0,0.0,0.0,0.0,-0.058355461806058884
1663839876772476986,0.14126037061214447,0.0,0.0,0.0,0.0,-0.05801931768655777
1663839876991949012,0.13972242176532745,0.0,0.0,0.0,0.0,-0.058029670268297195
1663839877174535541,0.13799504935741425,0.0,0.0,0.0,0.0,-0.05806807801127434
1663839877202017263,0.1359514743089676,0.0,0.0,0.0,0.0,-0.05783965811133385
1663839877297084713,0.13422188162803647,0.0,0.0,0.0,0.0,-0.057748205959796906
1663839877334791779,0.13422188162803647,0.0,0.0,0.0,0.0,-0.05777962505817413
1663839877408086867,0.13321295380592346,0.0,0.0,0.0,0.0,-0.05767619237303734
1663839877537099217,0.13109101355075836,0.0,0.0,0.0,0.0,-0.05756934732198715
1663839877710783205,0.12714074552059174,0.0,0.0,0.0,0.0,-0.05727293714880943
1663839877803912497,0.1238575279712677,0.0,0.0,0.0,0.0,-0.05714449658989906
1663839877920624766,0.11908653378486632,0.0,0.0,0.0,0.0,-0.057196419686079025
1663839878088840658,0.11026156693696976,0.0,0.0,0.0,0.0,-0.05742495879530907
1663839878196595587,0.10434615612030029,0.0,0.0,0.0,0.0,-0.057609353214502335
1663839878224744457,0.10434615612030029,0.0,0.0,0.0,0.0,-0.057668693363666534
1663839878362581317,0.09712994843721388,0.0,0.0,0.0,0.0,0.05654388293623924
1663839878438063812,0.09378128498792648,0.0,0.0,0.0,0.0,-0.058128464967012405
1663839878572174355,0.09059608727693556,0.0,0.0,0.0,0.0,-0.05826104059815407
1663839878738627697,0.08118029683828352,0.0,0.0,0.0,0.0,-0.058647945523262024
1663839878799573300,0.07721241563558577,0.0,0.0,0.0,0.0,-0.05877190828323364
1663839878828588026,0.07721241563558577,0.0,0.0,0.0,0.0,-0.058908045291900635
1663839878933577444,0.07239386439323425,0.0,0.0,0.0,0.0,-0.059055592864751816
1663839879038530056,0.06791129708290099,0.0,0.0,0.0,0.0,-0.05933348461985588
1663839879171190938,0.06458406895399094,0.0,0.0,0.0,0.0,-0.059535570442676544
1663839879259261828,0.06061931699514389,0.0,0.0,0.0,0.0,-0.059737078845500946
1663839879385749888,0.05732527747750282,0.0,0.0,0.0,0.0,-0.05994623899459839
1663839879468975019,0.053566738963127136,0.0,0.0,0.0,0.0,-0.06005023047327995
1663839879569473961,0.0497717335820198,0.0,0.0,0.0,0.0,-0.06035096198320389
1663839879636097412,0.04400631040334701,0.0,0.0,0.0,0.0,0.05987325683236122
1663839879812873229,0.044218018651008606,0.0,0.0,0.0,0.0,-0.06055155023932457
1663839879857365109,0.042001400142908096,0.0,0.0,0.0,0.0,-0.060653045773506165
1663839879982686045,0.038534905761480324,0.0,0.0,0.0,0.0,-0.06090142950415611
1663839880073208409,0.03679532930254936,0.0,0.0,0.0,0.0,-0.06096881628036499
1663839880197025970,0.03802442178130149,0.0,0.0,0.0,0.0,-0.06087595969438553
1663839880292815135,0.03490595147013664,0.0,0.0,0.0,0.0,-0.06108088046312332
1663839880495066301,0.02814015932381153,0.0,0.0,0.0,0.0,0.060706835240125656
1663839880632401562,0.030433930456638336,0.0,0.0,0.0,0.0,-0.0612785778939724
1663839880669910216,0.02913562208414077,0.0,0.0,0.0,0.0,-0.06142030283808708
1663839880761157858,0.028374744579195976,0.0,0.0,0.0,0.0,-0.06136490777134895
1663839880970254626,0.027727073058485985,0.0,0.0,0.0,0.0,-0.061465468257665634
1663839881060327052,0.026821082457900044,0.0,0.0,0.0,0.0,-0.061560459434986115
1663839881182754367,0.02709022723138332,0.0,0.0,0.0,0.0,-0.06152278184890747
1663839881352258454,0.026793750002980232,0.0,0.0,0.0,0.0,-0.06149439141154289
1663839881480801130,0.023220615461468697,0.0,0.0,0.0,0.0,0.061095889657735825
1663839881529269731,0.02805901132524013,0.0,0.0,0.0,0.0,-0.06147540733218193
1663839881569215109,0.02805901132524013,0.0,0.0,0.0,0.0,-0.061433520168066025
1663839881661424499,0.029314616695046425,0.0,0.0,0.0,0.0,-0.06133104860782623
1663839881823188358,0.030286187306046486,0.0,0.0,0.0,0.0,-0.06128590553998947
1663839882000405271,0.03205656632781029,0.0,0.0,0.0,0.0,-0.061255913227796555
1663839882074286712,0.03351520001888275,0.0,0.0,0.0,0.0,-0.06118910014629364
1663839882294127906,0.03488653153181076,0.0,0.0,0.0,0.0,-0.061058852821588516
1663839882372809244,0.0350397452712059,0.0,0.0,0.0,0.0,-0.0610603466629982
1663839882417171381,0.0350397452712059,0.0,0.0,0.0,0.0,-0.06106383353471756
1663839882550608042,0.035039402544498444,0.0,0.0,0.0,0.0,-0.06101275235414505
1663839882641651267,0.033068057149648666,0.0,0.0,0.0,0.0,0.06042173132300377
1663839882762098438,0.036271534860134125,0.0,0.0,0.0,0.0,-0.06112847849726677
1663839882893897719,0.03588969260454178,0.0,0.0,0.0,0.0,-0.061064835637807846
1663839883012075154,0.036539804190397256,0.0,0.0,0.0,0.0,-0.060951001942157745
1663839883193396913,0.036955062299966805,0.0,0.0,0.0,0.0,-0.060978543013334274
1663839883251243272,0.0322970189154148,0.0,0.0,0.0,0.0,0.060451433062553406
1663839883365400741,0.033166710287332535,0.0,0.0,0.0,0.0,0.060328271239995956
1663839883470705077,0.036070212721824646,0.0,0.0,0.0,0.0,-0.06109641119837761
1663839883576293808,0.0362502820789814,0.0,0.0,0.0,0.0,-0.0611843541264534
1663839883713849006,0.03752000257372856,0.0,0.0,0.0,0.0,-0.061155691742897034
1663839883772617126,0.040031615644693375,0.0,0.0,0.0,0.0,-0.061063434928655624
1663839883922562795,0.04585929587483406,0.0,0.0,0.0,0.0,-0.060943666845560074
1663839884010150407,0.051518697291612625,0.0,0.0,0.0,0.0,0.058771900832653046
1663839884111637733,0.07375463098287582,0.0,0.0,0.0,0.0,-0.05939694866538048
1663839884176245132,0.0909433290362358,0.0,0.0,0.0,0.0,-0.05835853889584541
1663839884313170410,0.11292757093906403,0.0,0.0,0.0,0.0,-0.056678708642721176
1663839884403654297,0.1404930204153061,0.0,0.0,0.0,0.0,-0.05464984104037285
1663839884522137664,0.17871953547000885,0.0,0.0,0.0,0.0,-0.05131915584206581
1663839884661246276,0.2608216404914856,0.0,0.0,0.0,0.0,-0.04306696727871895
1663839884772630431,0.2982178330421448,0.0,0.0,0.0,0.0,-0.03863728046417236
1663839884825424998,0.2982178330421448,0.0,0.0,0.0,0.0,-0.038658224046230316
1663839884918443732,0.33182123303413386,0.0,0.0,0.0,0.0,-0.03459947556257248
1663839885081271704,0.40157830715179443,0.0,0.0,0.0,0.0,0.0624484084546566
1663839885158896345,0.4141389727592468,0.0,0.0,0.0,0.0,-0.024282997474074364
1663839885217189683,0.4141389727592468,0.0,0.0,0.0,0.0,-0.024289976805448532
1663839885379177167,0.4513574242591858,0.0,0.0,0.0,0.0,-0.01953025534749031
1663839885483888219,0.4653445482254028,0.0,0.0,0.0,0.0,-0.017717044800519943
1663839885509038007,0.4653445482254028,0.0,0.0,0.0,0.0,-0.017821764573454857
1663839885598969281,0.4759610891342163,0.0,0.0,0.0,0.0,-0.016503799706697464
1663839885760243815,0.4832996129989624,0.0,0.0,0.0,0.0,-0.015327895991504192
1663839885887652660,0.47796231508255005,0.0,0.0,0.0,0.0,-0.01514403522014618
1663839885892300064,0.47796231508255005,0.0,0.0,0.0,0.0,-0.015185924246907234
1663839886068292950,0.4435557723045349,0.0,0.0,0.0,0.0,-0.01817765273153782
1663839886219643604,0.41958108544349665,0.0,0.0,0.0,0.0,-0.020641112700104713
1663839886232103048,0.3993476927280426,0.0,0.0,0.0,0.0,0.06546984612941742
1663839886314307332,0.3509035110473632,0.0,0.0,0.0,0.0,-0.02859603799879551
1663839886369244085,0.3509035110473632,0.0,0.0,0.0,0.0,-0.028557639569044113
1663839886458238798,0.3192773759365082,0.0,0.0,0.0,0.0,0.06153222545981407
1663839886578690446,0.26646238565444946,0.0,0.0,0.0,0.0,0.06019752472639084
1663839886733271047,0.15250836312770844,0.0,0.0,0.0,0.0,0.058707889169454575
1663839886756241274,0.15250836312770844,0.0,0.0,0.0,0.0,0.05861364305019379
1663839886941695585,0.08220093697309493,0.0,0.0,0.0,0.0,-0.05611082538962364
1663839887114102617,0.0,0.0,0.0,0.0,0.0,0.02180328293088063
1663839887147610651,0.0,0.0,0.0,0.0,0.0,0.011073321144171854
1663839887219326264,0.0,0.0,0.0,0.0,0.0,-0.0036809397571014547
1663839887364474071,0.0,0.0,0.0,0.0,0.0,-0.02127539689357172
1663839887533395489,0.0,0.0,0.0,0.0,0.0,-0.053935745478063804
1663839887627250318,0.0,0.0,0.0,0.0,0.0,-0.07197855651613744
1663839887668431592,0.0,0.0,0.0,0.0,0.0,-0.07090857121406056
1663839887801569213,0.0,0.0,0.0,0.0,0.0,-0.09421527496608847
1663839887880259977,0.0,0.0,0.0,0.0,0.0,-0.11524283432700941
1663839887977115008,0.0,0.0,0.0,0.0,0.0,-0.13894627587542008
1663839888098090212,0.0,0.0,0.0,0.0,0.0,-0.1641583603973823
1663839888184657141,0.0,0.0,0.0,0.0,0.0,-0.17984013912217492
1663839888301419945,0.0,0.0,0.0,0.0,0.0,-0.19630643169392803
1663839888388064326,0.0,0.0,0.0,0.0,0.0,-0.20695673445710652
1663839888521296934,0.0,0.0,0.0,0.0,0.0,-0.21913968079928398
1663839888685056073,0.0,0.0,0.0,0.0,0.0,-0.22709723784601668
1663839888845251415,0.0,0.0,0.0,0.0,0.0,-0.2247347860203312
1663839888852611485,0.0,0.0,0.0,0.0,0.0,-0.2123404985887202
1663839888947174628,0.0,0.0,0.0,0.0,0.0,-0.2203691748966769
1663839888991948287,0.0,0.0,0.0,0.0,0.0,-0.2173224847849634
1663839889201067684,0.0,0.0,0.0,0.0,0.0,-0.16307972559239076
1663839889346664538,0.0,0.0,0.0,0.0,0.0,-0.11202506880188735
1663839889379901744,0.0,0.0,0.0,0.0,0.0,-0.10853893617095042
1663839889453707889,0.0,0.0,0.0,0.0,0.0,-0.08226743209175869
1663839889679688596,0.0,0.0,0.0,0.0,0.0,-0.062111624722469186
1663839889756514768,0.0,0.0,0.0,0.0,0.0,-0.05671124886370497
1663839889796573251,0.0,0.0,0.0,0.0,0.0,-0.055991155392830005
1663839889977734530,0.0,0.0,0.0,0.0,0.0,-0.057425154156900075
1663839890124956965,0.0,0.0,0.0,0.0,0.0,-0.05673262863011391
1663839890148137203,0.0,0.0,0.0,0.0,0.0,-0.050300782881908424
1663839890352874102,0.0,0.0,0.0,0.0,0.0,-0.045094752800042597
1663839890410568976,0.04481283575296402,0.0,0.0,0.0,0.0,-0.06091123819351196
1663839890478610370,0.09529705345630646,0.0,0.0,0.0,0.0,-0.058636341243982315
1663839890501542824,0.09529705345630646,0.0,0.0,0.0,0.0,-0.05857350304722786
1663839890717890938,0.19815638661384583,0.0,0.0,0.0,0.0,-0.053238146007061005
1663839890806145944,0.255082905292511,0.0,0.0,0.0,0.0,-0.05004996433854103
1663839890935587498,0.29425439238548273,0.0,0.0,0.0,0.0,-0.047525953501462936
1663839891022295136,0.3349251747131347,0.0,0.0,0.0,0.0,0.04909458011388779
1663839891142622416,0.3726240694522857,0.0,0.0,0.0,0.0,-0.043072763830423355
1663839891334796145,0.4512183964252472,0.0,0.0,0.0,0.0,-0.038995563983917236
1663839891456503392,0.4879234731197357,0.0,0.0,0.0,0.0,-0.03743290901184082
1663839891485674101,0.4868573248386383,0.0,0.0,0.0,0.0,-0.03723045065999031
1663839891581734725,0.5245413780212402,0.0,0.0,0.0,0.0,-0.035809777677059174
1663839891702505585,0.5563274621963501,0.0,0.0,0.0,0.0,0.04606030881404877
1663839891793124710,0.5853813290596007,0.0,0.0,0.0,0.0,-0.031299982219934464
1663839891894151767,0.6105824112892151,0.0,0.0,0.0,0.0,-0.027857430279254913
1663839892051393007,0.6270953416824341,0.0,0.0,0.0,0.0,-0.024003183469176292
1663839892148208011,0.6340185403823851,0.0,0.0,0.0,0.0,-0.02038794569671154
1663839892356438397,0.649541676044464,0.0,0.0,0.0,0.0,-0.011077542789280415
1663839892414838374,0.6679105758666992,0.0,0.0,0.0,0.0,0.06981746852397919
1663839892438352018,0.6674129962921141,0.0,0.0,0.0,0.0,0.06989077478647232
1663839892616861133,0.663074791431427,0.0,0.0,0.0,0.0,0.003066808683797717
1663839892661957768,0.6633945107460021,0.0,0.0,0.0,0.0,0.010017886757850647
1663839892745130629,0.6555727124214172,0.0,0.0,0.0,0.0,0.016062725335359573
1663839892920549833,0.6317268013954163,0.0,0.0,0.0,0.0,0.02786543034017086
1663839892982290200,0.6172704100608825,0.0,0.0,0.0,0.0,0.03184099867939949
1663839892996491809,0.6176968812942505,0.0,0.0,0.0,0.0,0.031879398971796036
1663839893132466602,0.6298748850822448,0.0,0.0,0.0,0.0,0.11145326495170593
1663839893274788224,0.5891619324684143,0.0,0.0,0.0,0.0,0.04890185222029686
1663839893368128861,0.577346920967102,0.0,0.0,0.0,0.0,0.05540766194462776
1663839893381947642,0.5789105892181396,0.0,0.0,0.0,0.0,0.055910322815179825
1663839893518342577,0.600467324256897,0.0,0.0,0.0,0.0,0.13751395046710968
1663839893609388955,0.5491219162940979,0.0,0.0,0.0,0.0,0.06890788674354553
1663839893724991833,0.5310300588607788,0.0,0.0,0.0,0.0,0.07507995516061783
1663839893856781501,0.5166531205177307,0.0,0.0,0.0,0.0,0.08253329247236252
1663839893943853313,0.5050271153450012,0.0,0.0,0.0,0.0,0.09155292063951492
1663839894140806781,0.49488380551338196,0.0,0.0,0.0,0.0,0.10024210810661316
1663839894230485703,0.4602961540222167,0.0,0.0,0.0,0.0,0.1140202209353447
1663839894340385453,0.44467875361442566,0.0,0.0,0.0,0.0,0.12016263604164124
1663839894362375125,0.4453894793987273,0.0,0.0,0.0,0.0,0.12016961723566055
1663839894445629785,0.49353668093681335,0.0,0.0,0.0,0.0,0.19561068713665009
1663839894530090961,0.41480147838592524,0.0,0.0,0.0,0.0,0.1315516084432602
1663839894661703220,0.41084322333335876,0.0,0.0,0.0,0.0,0.1394580751657486
1663839894737451699,0.4135403931140899,0.0,0.0,0.0,0.0,0.15231624245643616
1663839894921302924,0.4160117506980896,0.0,0.0,0.0,0.0,0.16643352806568146
1663839895044143311,0.498259037733078,0.0,0.0,0.0,0.0,0.25330203771591187
1663839895127344578,0.4184482395648956,0.0,0.0,0.0,0.0,0.20363564789295197
1663839895231840435,0.4223073124885559,0.0,0.0,0.0,0.0,0.2182033658027649
1663839895271235335,0.4226626753807068,0.0,0.0,0.0,0.0,0.21807071566581726
1663839895402012819,0.4252476990222931,0.0,0.0,0.0,0.0,0.23089879751205444
1663839895456959797,0.4334203898906708,0.0,0.0,0.0,0.0,0.24593783915042877
1663839895565362114,0.5272570848464966,0.0,0.0,0.0,0.0,0.31536737084388733
1663839895655639541,0.4487304389476776,0.0,0.0,0.0,0.0,0.2746503949165344
1663839895879476783,0.4658403694629669,0.0,0.0,0.0,0.0,0.2962518334388733
1663839895958193475,0.4725794494152069,0.0,0.0,0.0,0.0,0.30557164549827576
1663839895990114088,0.472152978181839,0.0,0.0,0.0,0.0,0.3067375123500824
1663839896120686541,0.5642581582069397,0.0,0.0,0.0,0.0,0.36290156841278076
1663839896201673041,0.5767030715942383,0.0,0.0,0.0,0.0,0.3716420531272888
1663839896421634131,0.5005265474319457,0.0,0.0,0.0,0.0,0.3311511278152466
1663839896542517898,0.5124948024749756,0.0,0.0,0.0,0.0,0.3394116461277008
1663839896633838380,0.5207971930503845,0.0,0.0,0.0,0.0,0.34567004442214966
1663839896798180901,0.5269052386283873,0.0,0.0,0.0,0.0,0.3477860689163208
1663839896930179882,0.5349795818328857,0.0,0.0,0.0,0.0,0.3526315689086914
1663839897021965884,0.628395915031433,0.0,0.0,0.0,0.0,0.4054149091243744
1663839897118978874,0.6345600485801697,0.0,0.0,0.0,0.0,0.4076034724712372
1663839897322577962,0.5636394023895264,0.0,0.0,0.0,0.0,0.36216866970062256
1663839897374054745,0.5680798292160033,0.0,0.0,0.0,0.0,0.36050349473953247
1663839897404452910,0.5680798292160033,0.0,0.0,0.0,0.0,0.3604406416416168
1663839897524525590,0.5718061923980713,0.0,0.0,0.0,0.0,0.35628587007522583
1663839897663942586,0.5728394985198975,0.0,0.0,0.0,0.0,0.3530855178833008
1663839897782471610,0.5761692523956299,0.0,0.0,0.0,0.0,0.34949013590812683
1663839897918032811,0.579551100730896,0.0,0.0,0.0,0.0,0.34709346294403076
1663839898037367578,0.6597505211830138,0.0,0.0,0.0,0.0,0.8726646259971643
1663839898175225209,0.5816134214401245,0.0,0.0,0.0,0.0,0.3421421945095062
1663839898336413934,0.6568071246147156,0.0,0.0,0.0,0.0,0.8726646259971643
1663839898437240143,0.5785238742828369,0.0,0.0,0.0,0.0,0.8726646259971643
1663839898474549619,0.5780263543128967,0.0,0.0,0.0,0.0,0.8726646259971643
1663839898564013438,0.5742525458335876,0.0,0.0,0.0,0.0,0.8726646259971643
1663839898775864655,0.56016606092453,0.0,0.0,0.0,0.0,0.6981317007977313
1663839898854131177,0.5504468679428101,0.0,0.0,0.0,0.0,0.6981317007977313
1663839898984565112,0.5463119149208069,0.0,0.0,0.0,0.0,0.6981317007977313
1663839899028806757,0.5469515919685363,0.0,0.0,0.0,0.0,0.6981317007977313
1663839899120309860,0.5415743589401245,0.0,0.0,0.0,0.0,0.5235987755982984
1663839899202274224,0.5389493107795715,0.0,0.0,0.0,0.0,0.5235987755982984
1663839899328445441,0.6117069125175475,0.0,0.0,0.0,0.0,0.3490658503988654
1663839899422094425,0.5442305207252502,0.0,0.0,0.0,0.0,0.3490658503988654
1663839899546081843,0.5555648803710938,0.0,0.0,0.0,0.0,0.2022671103477478
1663839899678279210,0.5598735809326172,0.0,0.0,0.0,0.0,0.1888415813446045
1663839899763886705,0.6177580952644348,0.0,0.0,0.0,0.0,0.23961597681045532
1663839899933636064,0.5555012822151184,0.0,0.0,0.0,0.0,0.1658572554588318
1663839900066186668,0.5536255240440369,0.0,0.0,0.0,0.0,0.16045106947422028
1663839900146844696,0.550685465335846,0.0,0.0,0.0,0.0,0.15619726479053497
1663839900233676043,0.541326642036438,0.0,0.0,0.0,0.0,0.15279649198055267
1663839900362390179,0.5236903429031372,0.0,0.0,0.0,0.0,0.14931868016719818
1663839900404866532,0.5043625235557556,0.0,0.0,0.0,0.0,0.14523443579673767
1663839900481459650,0.4838378131389618,0.0,0.0,0.0,0.0,0.14017711579799652
1663839900660640723,0.47045627236366266,0.0,0.0,0.0,0.0,0.13968032598495483
1663839900710276337,0.456584632396698,0.0,0.0,0.0,0.0,0.14064563810825348
1663839900824929112,0.44754913449287415,0.0,0.0,0.0,0.0,0.14460186660289764
1663839900918384751,0.4438178837299347,0.0,0.0,0.0,0.0,0.15182802081108093
1663839901009348745,0.4357474446296692,0.0,0.0,0.0,0.0,0.15863242745399475
1663839901124705543,0.427707701921463,0.0,0.0,0.0,0.0,0.16634003818035126
1663839901240571468,0.4206078946590423,0.0,0.0,0.0,0.0,0.17421966791152954
1663839901417799485,0.4022255539894104,0.0,0.0,0.0,0.0,0.18881107866764069
1663839901480227527,0.39451640844345087,0.0,0.0,0.0,0.0,0.19628356397151947
1663839901632329256,0.3930512070655823,0.0,0.0,0.0,0.0,0.20758366584777832
1663839901723246104,0.39189612865448,0.0,0.0,0.0,0.0,0.21953989565372467
1663839901840817960,0.38693869113922114,0.0,0.0,0.0,0.0,0.2291075885295868
1663839901930471621,0.3762350380420685,0.0,0.0,0.0,0.0,0.23781926929950714
1663839902066861370,0.36620634794235224,0.0,0.0,0.0,0.0,0.24520839750766754
1663839902234071658,0.3514629602432251,0.0,0.0,0.0,0.0,0.26144471764564514
1663839902300613405,0.34965112805366516,0.0,0.0,0.0,0.0,0.2709086239337921
1663839902324587037,0.35021972656249994,0.0,0.0,0.0,0.0,0.27148109674453735
1663839902444226888,0.3496715724468231,0.0,0.0,0.0,0.0,0.28360965847969055
1663839902562189662,0.35275310277938837,0.0,0.0,0.0,0.0,0.2986387312412262
1663839902650695185,0.3590914011001587,0.0,0.0,0.0,0.0,0.3172886073589325
1663839902740973741,0.36122152209281916,0.0,0.0,0.0,0.0,0.33321675658226013
1663839902819718009,0.46206939220428456,0.0,0.0,0.0,0.0,0.39057961106300354
1663839903042400661,0.46591466665267944,0.0,0.0,0.0,0.0,0.41939491033554077
1663839903207288983,0.3715499937534332,0.0,0.0,0.0,0.0,0.3956502377986908
1663839903249526053,0.47401249408721924,0.0,0.0,0.0,0.0,0.44710442423820496
1663839903311075666,0.48176345229148865,0.0,0.0,0.0,0.0,0.4629235565662384
1663839903342345275,0.4815502464771271,0.0,0.0,0.0,0.0,0.46318185329437256
1663839903504115060,0.3941603899002075,0.0,0.0,0.0,0.0,0.4459414780139923
1663839903621085069,0.5081793665885925,0.0,0.0,0.0,0.0,0.5086795091629028
1663839903812171851,0.4243448078632355,0.0,0.0,0.0,0.0,0.4875622093677521
1663839903846370434,0.4353119134902954,0.0,0.0,0.0,0.0,0.4998386800289154
1663839904044382264,0.45266103744506836,0.0,0.0,0.0,0.0,0.5088902711868286
1663839904096378379,0.4753965437412262,0.0,0.0,0.0,0.0,0.5157679915428162
1663839904252419042,0.4982728660106658,0.0,0.0,0.0,0.0,0.5243643522262573
1663839904264015748,0.5193634629249573,0.0,0.0,0.0,0.0,0.5342336297035217
1663839904436843163,0.5373453497886658,0.0,0.0,0.0,0.0,0.5370128154754639
1663839904440714868,0.5539449453353882,0.0,0.0,0.0,0.0,0.5392897129058838
1663839904639879860,0.567199170589447,0.0,0.0,0.0,0.0,0.5361089110374451
1663839904663176024,0.5693315267562865,0.0,0.0,0.0,0.0,0.5360215902328491
1663839904740629209,0.6016617417335509,0.0,0.0,0.0,0.0,0.5310874581336975
1663839904900898790,0.6126792430877686,0.0,0.0,0.0,0.0,0.5220418572425842
1663839904922148432,0.611897349357605,0.0,0.0,0.0,0.0,0.5225619077682495
1663839905045157182,0.6198080182075499,0.0,0.0,0.0,0.0,0.5094591379165649
1663839905181945215,0.6281712651252747,0.0,0.0,0.0,0.0,0.4955153167247772
1663839905270668133,0.6312625408172607,0.0,0.0,0.0,0.0,0.4771001636981964
1663839905350273125,0.6289119124412536,0.0,0.0,0.0,0.0,0.45782265067100525
1663839905482106416,0.6224971413612366,0.0,0.0,0.0,0.0,0.43810760974884033
1663839905600506420,0.6859687566757202,0.0,0.0,0.0,0.0,0.45917555689811707
1663839905784579577,0.5903428792953491,0.0,0.0,0.0,0.0,0.38936176896095276
1663839905872056309,0.5632941722869872,0.0,0.0,0.0,0.0,0.36162084341049194
1663839906037649518,0.5929044485092162,0.0,0.0,0.0,0.0,0.6981317007977313
1663839906129791771,0.47863966226577753,0.0,0.0,0.0,0.0,0.28632494807243347
1663839906169148331,0.47863966226577753,0.0,0.0,0.0,0.0,0.28542783856391907
1663839906245545322,0.4514927566051482,0.0,0.0,0.0,0.0,0.26554542779922485
1663839906420858364,0.41803041100502014,0.0,0.0,0.0,0.0,0.23992155492305756
1663839906510283256,0.38508936762809753,0.0,0.0,0.0,0.0,0.219936341047287
1663839906633692061,0.4405931830406188,0.0,0.0,0.0,0.0,0.25727659463882446
1663839906725475475,0.3123614192008972,0.0,0.0,0.0,0.0,0.17541366815567017
1663839906846561305,0.3775694966316223,0.0,0.0,0.0,0.0,0.22029288113117218
1663839906936629432,0.24560703337192535,0.0,0.0,0.0,0.0,0.1371292620897293
1663839907073326534,0.2148305773735046,0.0,0.0,0.0,0.0,0.11990806460380554
1663839907143912392,0.1816287487745285,0.0,0.0,0.0,0.0,0.10161878913640976
1663839907277418992,0.15548761188983917,0.0,0.0,0.0,0.0,0.08720855414867401
1663839907366349219,0.12832008302211761,0.0,0.0,0.0,0.0,0.07369180023670197
1663839907442401862,0.10495395958423615,0.0,0.0,0.0,0.0,0.06253068149089813
1663839907572585080,0.08277617394924164,0.0,0.0,0.0,0.0,0.05008562654256821
1663839907749082916,0.17241372168064117,0.0,0.0,0.0,0.0,0.10630471259355545
1663839907941356198,0.028431946411728852,0.0,0.0,0.0,0.0,0.022366710007190704
1663839907965003092,0.01353159174323082,0.0,0.0,0.0,0.0,0.01598254032433033
1663839908041455214,0.007546256296336651,0.0,0.0,0.0,0.0,0.01245060283690691
1663839908173370952,0.0,0.0,0.0,0.0,0.0,1.0300456614087905
1663839908345205237,0.0,0.0,0.0,0.0,0.0,1.0646943102698387
1663839908406840546,0.0,0.0,0.0,0.0,0.0,1.0446709130538343
1663839908424953032,0.0,0.0,0.0,0.0,0.0,1.0291630227834296
1663839908552883336,0.0,0.0,0.0,0.0,0.0,1.0784304063267427
1663839908686151509,0.0,0.0,0.0,0.0,0.0,1.0823696402278498
1663839908743841429,0.0,0.0,0.0,0.0,0.0,1.0200176171389415
1663839908899626161,0.0,0.0,0.0,0.0,0.0,1.0339408733225166
1663839908989055737,0.0,0.0,0.0,0.0,0.0,0.9776766120785213
1663839909108206280,0.0,0.0,0.0,0.0,0.0,0.9554448912414983
1663839909200662326,0.0,0.0,0.0,0.0,0.0,0.8951237914327762
1663839909288040460,0.0,0.0,0.0,0.0,0.0,0.8345282775098304
1663839909408429113,0.0,0.0,0.0,0.0,0.0,0.776879058026257
1663839909497583644,0.0,0.0,0.0,0.0,0.0,0.6752905124807774
1663839909628801618,0.0,0.0,0.0,0.0,0.0,0.5951021450329458
1663839909704525971,0.0,0.0,0.0,0.0,0.0,0.47846117230387664
1663839909791615921,0.0,0.0,0.0,0.0,0.0,0.37333232386323434
1663839909884136323,0.0,0.0,0.0,0.0,0.0,0.26815561835083146
1663839910004059478,0.0,0.0,0.0,0.0,0.0,0.16222349656990598
1663839910092160631,0.0,0.0,0.0,0.0,0.0,0.060976089923525774
1663839910227059180,0.015143792144954205,0.0,0.0,0.0,0.0,-0.060046661645174026
1663839910303015635,0.024246944114565846,0.0,0.0,0.0,0.0,0.05932816490530968
1663839910437272069,0.038889288902282715,0.0,0.0,0.0,0.0,0.05366063490509987
1663839910603539617,0.05779821053147316,0.0,0.0,0.0,0.0,0.049050986766815186
1663839910732889588,0.1372155398130417,0.0,0.0,0.0,0.0,-0.0710100308060646
1663839910785183911,0.09396897256374359,0.0,0.0,0.0,0.0,0.031205330044031143
1663839910825166994,0.09368466585874557,0.0,0.0,0.0,0.0,0.03104476071894169
1663839910908230873,0.16745765507221222,0.0,0.0,0.0,0.0,-0.07821885496377945
1663839911032978965,0.177103579044342,0.0,0.0,0.0,0.0,-0.0816430002450943
1663839911292707715,0.1854753792285919,0.0,0.0,0.0,0.0,-0.0867992714047432
1663839911334464600,0.18596839904785156,0.0,0.0,0.0,0.0,-0.08840062469244003
1663839911342853455,0.18568409979343412,0.0,0.0,0.0,0.0,-0.08890677988529205
1663839911449585191,0.10831953585147856,0.0,0.0,0.0,0.0,0.007897485978901386
1663839911628520954,0.18195489048957825,0.0,0.0,0.0,0.0,-0.08969642966985703
1663839911794029168,0.17166313529014587,0.0,0.0,0.0,0.0,-0.0867660716176033
1663839911935137478,0.1517353057861328,0.0,0.0,0.0,0.0,-0.08320727199316025
1663839912088499075,0.13904047012329102,0.0,0.0,0.0,0.0,-0.0800488218665123
1663839912140176625,0.13946694135665894,0.0,0.0,0.0,0.0,-0.08043629676103592
1663839912231101120,0.12078063935041428,0.0,0.0,0.0,0.0,-0.07520873099565506
1663839912302294250,0.112978458404541,0.0,0.0,0.0,0.0,-0.07243940234184265
1663839912303866484,0.1136181503534317,0.0,0.0,0.0,0.0,-0.07234515249729156
1663839912442620215,0.10123387724161148,0.0,0.0,0.0,0.0,-0.06769747287034988
1663839912542448699,0.08813481777906416,0.0,0.0,0.0,0.0,-0.0621650367975235
1663839912746627130,0.06564869731664656,0.0,0.0,0.0,0.0,-0.051949672400951385
1663839912823864406,0.0,0.0,0.0,0.0,0.0,-0.7926130523819559
1663839912956133900,0.0,0.0,0.0,0.0,0.0,-0.8244869120517203
1663839913111711905,0.0,0.0,0.0,0.0,0.0,-0.8403517195966849
1663839913251529647,0.0,0.0,0.0,0.0,0.0,-0.842389877775671
1663839913379104140,0.0,0.0,0.0,0.0,0.0,-0.8427870769338721
1663839913522851727,0.0,0.0,0.0,0.0,0.0,-0.8193353146831738
1663839913626476484,0.0,0.0,0.0,0.0,0.0,-0.7860245157892952
1663839913673371666,0.0,0.0,0.0,0.0,0.0,-0.7791538497354298
1663839913760276934,0.0,0.0,0.0,0.0,0.0,-0.7503348980658558
1663839913847623586,0.0,0.0,0.0,0.0,0.0,-0.7071331797022192
1663839913968206812,0.0,0.0,0.0,0.0,0.0,-0.6622140844662421
1663839914167773933,0.0,0.0,0.0,0.0,0.0,-0.5686243279165265
1663839914270570192,0.0,0.0,0.0,0.0,0.0,-0.5052603849031063
1663839914315898862,0.0,0.0,0.0,0.0,0.0,-0.5005108761564947
1663839914448031466,0.0,0.0,0.0,0.0,0.0,-0.45553763608965414
1663839914524137827,0.0,0.0,0.0,0.0,0.0,-0.39533667188242094
1663839914657898773,0.0,0.0,0.0,0.0,0.0,-0.3458382717224293
1663839914763538517,0.0,0.0,0.0,0.0,0.0,-0.29770452842430783
1663839914912784149,0.0,0.0,0.0,0.0,0.0,-0.25801495911036215
1663839914990254992,0.0,0.0,0.0,0.0,0.0,-0.21757416319578207
1663839915124594699,0.0,0.0,0.0,0.0,0.0,-0.19048055624181262
1663839915218890238,0.0,0.0,0.0,0.0,0.0,-0.1630115937184656
1663839915337101960,0.0,0.0,0.0,0.0,0.0,-0.14473026231410557
1663839915511680284,0.0,0.0,0.0,0.0,0.0,-0.11869846541156981
1663839915610430285,0.0,0.0,0.0,0.0,0.0,-0.10690271973136699
1663839915635465475,0.0,0.0,0.0,0.0,0.0,-0.10466948954312956
1663839915765014536,0.0,0.0,0.0,0.0,0.0,-0.10370422683611742
1663839915866812677,0.0,0.0,0.0,0.0,0.0,-0.10108460798511686
1663839915979067808,0.0,0.0,0.0,0.0,0.0,-0.1016265260730878
1663839916108932061,0.0,0.0,0.0,0.0,0.0,-0.10406984234073619
1663839916163222359,0.0,0.0,0.0,0.0,0.0,-0.10476163772168409
1663839916320292388,0.0,0.0,0.0,0.0,0.0,-0.11267531256071238
1663839916408033937,0.0,0.0,0.0,0.0,0.0,-0.1153003867905622
1663839916577940954,0.0,0.0,0.0,0.0,0.0,-0.12841263644644837
1663839916674846956,0.0,0.0,0.0,0.0,0.0,-0.1279786594027457
1663839916716017387,0.0,0.0,0.0,0.0,0.0,-0.12587141471814292
1663839916790269401,0.0,0.0,0.0,0.0,0.0,-0.12556356867737758
1663839916931286457,0.0,0.0,0.0,0.0,0.0,-0.12692322657575061
1663839916976967479,0.0,0.0,0.0,0.0,0.0,-0.1188228735179244
1663839917101118954,0.0,0.0,0.0,0.0,0.0,-0.10231433851313732
1663839917195527955,0.0,0.0,0.0,0.0,0.0,-0.06738427913250235
1663839917402048014,0.0,0.0,0.0,0.0,0.0,-0.017573762541720196
1663839917487775147,0.0,0.0,0.0,0.0,0.0,0.11181881238063934
1663839917657590130,0.0,0.0,0.0,0.0,0.0,0.19152291959478376
1663839917705207409,0.0,0.0,0.0,0.0,0.0,0.26166856051741605
1663839917853410625,0.0,0.0,0.0,0.0,0.0,0.34096154608632323
1663839917868055578,0.0,0.0,0.0,0.0,0.0,0.3950757429436954
1663839917954774466,0.0,0.0,0.0,0.0,0.0,0.472865750187892
1663839918001419573,0.0,0.0,0.0,0.0,0.0,0.4671614225128196
1663839918132344000,0.0,0.0,0.0,0.0,0.0,0.5444627635379311
1663839918296905915,0.0,0.0,0.0,0.0,0.0,0.6995283218289944
1663839918359939803,0.0,0.0,0.0,0.0,0.0,0.7596473662972888
1663839918389247206,0.0,0.0,0.0,0.0,0.0,0.7509098485385045
1663839918507911519,0.0,0.0,0.0,0.0,0.0,0.8573057581281686
1663839918687517427,0.0,0.0,0.0,0.0,0.0,1.033388430893973
1663839918767992591,0.0,0.0,0.0,0.0,0.0,1.0684337477974613
1663839918808633810,0.0,0.0,0.0,0.0,0.0,1.0527073831219147
1663839918944548423,0.0,0.0,0.0,0.0,0.0,1.1582256156912831
1663839919065882384,0.0,0.0,0.0,0.0,0.0,1.2854437803490888
1663839919255243852,0.0,0.0,0.0,0.0,0.0,1.3851843844803058
1663839919294735072,0.0,0.0,0.0,0.0,0.0,1.354360029056835
1663839919354950366,0.0,0.0,0.0,0.0,0.0,1.4095066635131992
1663839919367692129,0.0,0.0,0.0,0.0,0.0,1.3798260427909268
1663839919502425748,0.0,0.0,0.0,0.0,0.0,1.470522990632041
1663839919665726969,0.0,0.0,0.0,0.0,0.0,1.5113431568920712
1663839919838960381,0.0,0.0,0.0,0.0,0.0,1.5136540845970161
1663839919847892470,0.0,0.0,0.0,0.0,0.0,1.4060490839846813
1663839919969677065,0.0,0.0,0.0,0.0,0.0,1.4755642527700767
1663839920148053035,0.0,0.0,0.0,0.0,0.0,1.4490733930631188
1663839920240391205,0.0,0.0,0.0,0.0,0.0,1.3469732468639843
1663839920360176027,0.0,0.0,0.0,0.0,0.0,1.350403038273413
1663839920456125645,0.0,0.0,0.0,0.0,0.0,1.3120694129058703
1663839920677123520,0.0,0.0,0.0,0.0,0.0,1.3233718744103125
1663839920748792752,0.0,0.0,0.0,0.0,0.0,1.1840005912749554
1663839920788257071,0.0,0.0,0.0,0.0,0.0,1.164799864035771
1663839920928953863,0.0,0.0,0.0,0.0,0.0,1.147352301786587
1663839920986349339,0.0,0.0,0.0,0.0,0.0,1.0244746773283864
1663839921097754317,0.0,0.0,0.0,0.0,0.0,0.9617711798886494
1663839921313854295,0.0,0.0,0.0,0.0,0.0,0.7960809813168015
1663839921381255737,0.0,0.0,0.0,0.0,0.0,0.646664989065466
1663839921401902836,0.18135900795459747,0.0,0.0,0.0,0.0,0.044823646545410156
1663839921528186428,0.2500265836715698,0.0,0.0,0.0,0.0,0.046050477772951126
1663839921664685967,0.3168533146381378,0.0,0.0,0.0,0.0,0.042623959481716156
1663839921877257240,0.44621598720550537,0.0,0.0,0.0,0.0,0.029212189838290215
1663839921943654881,0.5163856744766235,0.0,0.0,0.0,0.0,0.02128094807267189
1663839921974056200,0.5155327320098876,0.0,0.0,0.0,0.0,0.021465951576828957
1663839922046351824,0.5941276550292968,0.0,0.0,0.0,0.0,0.0034514046274125576
1663839922235681682,0.6476134657859802,0.0,0.0,0.0,0.0,-0.012238280847668648
1663839922286789982,0.6959355473518372,0.0,0.0,0.0,0.0,0.0387193001806736
1663839922528034851,0.7738619446754454,0.0,0.0,0.0,0.0,-0.00494230305776
1663839922612777836,0.8313471078872681,0.0,0.0,0.0,0.0,-0.09863273054361343
1663839922657068952,0.8277932405471802,0.0,0.0,0.0,0.0,-0.09940765798091888
1663839922730860431,0.8516035676002502,0.0,0.0,0.0,0.0,-0.12409580498933792
1663839922878744782,0.8725138306617737,0.0,0.0,0.0,0.0,-0.14987705647945404
1663839922930109207,0.8994925022125244,0.0,0.0,0.0,0.0,-0.17893347144126892
1663839923045552603,0.9793225526809691,0.0,0.0,0.0,0.0,-0.20168966054916382
1663839923135177356,1.0487099885940552,0.0,0.0,0.0,0.0,-0.2232026606798172
1663839923213256126,1.076792597770691,0.0,0.0,0.0,0.0,-0.19069914519786835
1663839923409207509,0.6655658994402204,0.0,0.0,0.0,0.0,-0.23446623980998993
1663839923502287079,0.5142857142857142,0.0,0.0,0.0,0.0,-0.3049294352531433
1663839923517599628,0.5142857142857142,0.0,0.0,0.0,0.0,-0.30468159914016724
1663839923650296962,0.6857142857142857,0.0,0.0,0.0,0.0,-0.2727344334125519
1663839923754522444,0.6857142857142857,0.0,0.0,0.0,0.0,-0.3426274359226227
1663839923857001852,0.5142857142857142,0.0,0.0,0.0,0.0,-0.31350141763687134
1663839923990594845,0.5142857142857142,0.0,0.0,0.0,0.0,-0.329940527677536
1663839924081014131,0.5142857142857142,0.0,0.0,0.0,0.0,-0.38600799441337585
1663839924194938883,0.5142857142857142,0.0,0.0,0.0,0.0,-0.389823317527771
1663839924285895835,0.5019195250102452,0.0,0.0,0.0,0.0,-0.38936442136764526
1663839924372585543,0.4863371167864119,0.0,0.0,0.0,0.0,-0.38372695446014404
1663839924496480106,0.4679439578737532,0.0,0.0,0.0,0.0,-0.37321847677230835
1663839924589249905,0.4277191758155823,0.0,0.0,0.0,0.0,-0.30807551741600037
1663839924802037810,0.2838824306215559,0.0,0.0,0.0,0.0,-0.3427230715751648
1663839925008015933,0.28768822125026156,0.0,0.0,0.0,0.0,-0.36394765973091125
1663839925058232391,0.0,0.0,0.0,0.0,0.0,-0.37431782484054565
1663839925112158008,0.0,0.0,0.0,0.0,0.0,-0.3852878510951996
1663839925146708821,0.0,0.0,0.0,0.0,0.0,-0.3863769471645355
1663839925234043960,0.0,0.0,0.0,0.0,0.0,-0.3989863693714142
1663839925356574682,0.0,0.0,0.0,0.0,0.0,-0.4084659814834595
1663839925446203734,0.0,0.0,0.0,0.0,0.0,-0.4202251732349396
1663839925578963505,0.0,0.0,0.0,0.0,0.0,-0.4332680106163025
1663839925659428663,0.0,0.0,0.0,0.0,0.0,-0.4432719051837921
1663839925790294797,0.0,0.0,0.0,0.0,0.0,-0.45271044969558716
1663839925951024834,0.6204960346221923,0.0,0.0,0.0,0.0,-0.40882280468940735
1663839925997006786,0.6198564171791076,0.0,0.0,0.0,0.0,-0.41142335534095764
1663839926084642408,0.6191761493682861,0.0,0.0,0.0,0.0,-0.4388806223869324
1663839926174675422,0.6261621117591858,0.0,0.0,0.0,0.0,-0.45158445835113525
1663839926298603829,0.6269405484199524,0.0,0.0,0.0,0.0,-0.4573526680469513
1663839926386498227,0.6356275081634521,0.0,0.0,0.0,0.0,-0.4637356996536255
1663839926520294677,0.6444113254547119,0.0,0.0,0.0,0.0,-0.4673563838005066
1663839926593284395,0.5728468298912048,0.0,0.0,0.0,0.0,-0.42867904901504517
1663839926771154408,0.6705724000930786,0.0,0.0,0.0,0.0,-0.4722692668437958
1663839926976994688,0.6961792707443237,0.0,0.0,0.0,0.0,-0.4647075831890106
1663839927114850960,0.7201979756355286,0.0,0.0,0.0,0.0,-0.5235987755982994
1663839927164647824,0.7192029356956482,0.0,0.0,0.0,0.0,-0.5235987755982994
1663839927234250556,0.733383059501648,0.0,0.0,0.0,0.0,-0.4512558877468109
1663839927369615808,0.7464568018913269,0.0,0.0,0.0,0.0,-0.437244713306427
1663839927461593265,0.6871848702430725,0.0,0.0,0.0,0.0,-0.37484148144721985
1663839927585941899,0.7021221518516539,0.0,0.0,0.0,0.0,-0.3583962321281433
1663839927750060810,0.7999242544174193,0.0,0.0,0.0,0.0,-0.38533398509025574
1663839927847331366,0.8230459094047546,0.0,0.0,0.0,0.0,-0.37487906217575073
1663839927882803521,0.8226905465126036,0.0,0.0,0.0,0.0,-0.37431710958480835
1663839928013672086,0.7841596007347107,0.0,0.0,0.0,0.0,-0.3490658503988664
1663839928178702967,0.8542568087577819,0.0,0.0,0.0,0.0,-0.3490658503988664
1663839928310573895,0.8656479716300963,0.0,0.0,0.0,0.0,-0.5235987755982994
1663839928420045299,0.8654605746269226,0.0,0.0,0.0,0.0,-0.3490658503988664
1663839928428626030,0.8651052117347717,0.0,0.0,0.0,0.0,-0.3490658503988664
1663839928567254048,0.8151398301124573,0.0,0.0,0.0,0.0,-0.5235987755982994
1663839928656161008,0.8532921075820923,0.0,0.0,0.0,0.0,-0.5235987755982994
1663839928777626934,0.8411317467689514,0.0,0.0,0.0,0.0,-0.5235987755982994
1663839928913428059,0.8159152865409851,0.0,0.0,0.0,0.0,-0.5235987755982994
1663839929034576496,0.7401216626167297,0.0,0.0,0.0,0.0,-0.5235987755982994
1663839929164263195,0.7528811693191528,0.0,0.0,0.0,0.0,-0.6981317007977323
1663839929310504932,0.7254765629768372,0.0,0.0,0.0,0.0,-0.6981317007977323
1663839929416414404,0.6628596186637877,0.0,0.0,0.0,0.0,-0.6981317007977323
1663839929522138848,0.5747230052947997,0.0,0.0,0.0,0.0,-0.8726646259971653
1663839929549652533,0.5762156248092651,0.0,0.0,0.0,0.0,-0.8726646259971653
1663839929670429860,0.6064493656158446,0.0,0.0,0.0,0.0,-0.8726646259971653
1663839929809797616,0.575935423374176,0.0,0.0,0.0,0.0,-0.8726646259971653
1663839929893260067,0.5471349358558655,0.0,0.0,0.0,0.0,-0.8726646259971653
1663839930017850066,0.4535164535045624,0.0,0.0,0.0,0.0,-0.8726646259971653
1663839930110334010,0.5087154507637024,0.0,0.0,0.0,0.0,-0.6981317007977323
1663839930197166862,0.4925004243850708,0.0,0.0,0.0,0.0,-0.5235987755982994
1663839930327752730,0.47608456015586853,0.0,0.0,0.0,0.0,-0.5235987755982994
1663839930416980869,0.38373905420303345,0.0,0.0,0.0,0.0,-0.5235987755982994
1663839930490576603,0.44881951808929443,0.0,0.0,0.0,0.0,-0.3490658503988664
1663839930577439189,0.43434399366378784,0.0,0.0,0.0,0.0,-0.200645312666893
1663839930716654983,0.422797292470932,0.0,0.0,0.0,0.0,-0.19411078095436096
1663839930792231196,0.3461528718471527,0.0,0.0,0.0,0.0,-0.11050916463136673
1663839930922430577,0.4227122664451599,0.0,0.0,0.0,0.0,-0.17830632627010345
1663839931012904652,0.42455586791038513,0.0,0.0,0.0,0.0,-0.17255942523479462
1663839931113587718,0.42499542236328125,0.0,0.0,0.0,0.0,-0.1709219515323639
1663839931225500441,0.4241132438182831,0.0,0.0,0.0,0.0,-0.16851256787776947
1663839931353543858,0.42452144622802734,0.0,0.0,0.0,0.0,-0.16713012754917145
1663839931442872254,0.3636452555656433,0.0,0.0,0.0,0.0,-0.0911186933517456
1663839931560870390,0.43568953871726984,0.0,0.0,0.0,0.0,-0.1685788780450821
1663839931646493735,0.44053375720977783,0.0,0.0,0.0,0.0,-0.16966062784194946
1663839931812487004,0.45337578654289246,0.0,0.0,0.0,0.0,-0.17622114717960358
1663839931913100193,0.4633697867393493,0.0,0.0,0.0,0.0,-0.18023614585399628
1663839931943720388,0.4630144238471984,0.0,0.0,0.0,0.0,-0.18051889538764954
1663839932079051286,0.4733968377113341,0.0,0.0,0.0,0.0,-0.1847645789384842
1663839932284383777,0.42689236998558044,0.0,0.0,0.0,0.0,-0.12119226902723312
1663839932348216600,0.5003523230552673,0.0,0.0,0.0,0.0,-0.19672702252864838
1663839932378277673,0.5021292567253113,0.0,0.0,0.0,0.0,-0.196859672665596
1663839932450827960,0.5183738470077515,0.0,0.0,0.0,0.0,-0.2041872888803482
1663839932581228275,0.5355714559555054,0.0,0.0,0.0,0.0,-0.21210633218288422
1663839932721558454,0.5516051650047302,0.0,0.0,0.0,0.0,-0.21974626183509827
1663839932848774568,0.5652468800544739,0.0,0.0,0.0,0.0,-0.22637507319450378
1663839932933439485,0.5795060992240906,0.0,0.0,0.0,0.0,-0.23337653279304504
1663839933018074415,0.5876044631004333,0.0,0.0,0.0,0.0,-0.23760798573493958
1663839933143112835,0.536125123500824,0.0,0.0,0.0,0.0,-0.17834524810314178
1663839933266562042,0.6099624633789061,0.0,0.0,0.0,0.0,-0.2465975135564804
1663839933354244614,0.6231275796890259,0.0,0.0,0.0,0.0,-0.24993585050106049
1663839933444291372,0.5705269575119019,0.0,0.0,0.0,0.0,-0.18993082642555237
1663839933557452053,0.6454373002052307,0.0,0.0,0.0,0.0,-0.25621387362480164
1663839933694087043,0.6560510993003845,0.0,0.0,0.0,0.0,-0.2564792335033417
1663839933785482080,0.6653625965118407,0.0,0.0,0.0,0.0,-0.2571471035480499
1663839933909121640,0.6757837533950806,0.0,0.0,0.0,0.0,-0.2580455243587494
1663839934038035044,0.6869625449180603,0.0,0.0,0.0,0.0,-0.25941383838653564
1663839934166705799,0.6412972807884216,0.0,0.0,0.0,0.0,-0.1980290412902832
1663839934257774173,0.7024336457252502,0.0,0.0,0.0,0.0,-0.25870031118392944
1663839934341355134,0.7057549953460692,0.0,0.0,0.0,0.0,-0.2579987943172455
1663839934478457621,0.7043270468711853,0.0,0.0,0.0,0.0,-0.2570062279701233
1663839934689353711,0.6472193598747252,0.0,0.0,0.0,0.0,-0.19621267914772034
1663839934780054354,0.7022837400436401,0.0,0.0,0.0,0.0,-0.2586757242679596
1663839934998425405,0.6985111236572266,0.0,0.0,0.0,0.0,-0.2631933391094208
1663839935041352219,0.6928128004074097,0.0,0.0,0.0,0.0,-0.26578909158706665
1663839935162063579,0.6738447546958923,0.0,0.0,0.0,0.0,-0.2704286277294159
1663839935323286369,0.5988828539848327,0.0,0.0,0.0,0.0,-0.21244892477989197
1663839935336434903,0.5990250110626221,0.0,0.0,0.0,0.0,-0.21327273547649384
1663839935414613796,0.6618546843528748,0.0,0.0,0.0,0.0,-0.281385213136673
1663839935547438609,0.6537657380104064,0.0,0.0,0.0,0.0,-0.2863121032714844
1663839935764040830,0.6390780806541443,0.0,0.0,0.0,0.0,-1.3962634015954642
1663839935938137656,0.6310260295867919,0.0,0.0,0.0,0.0,-1.5707963267948972
1663839935991268910,0.6224613785743713,0.0,0.0,0.0,0.0,-1.5707963267948972
1663839936042181958,0.6145477890968323,0.0,0.0,0.0,0.0,-1.7453292519943302
1663839936057145205,0.6146898865699768,0.0,0.0,0.0,0.0,-1.7453292519943302
1663839936315856896,0.6005429625511169,0.0,0.0,0.0,0.0,-1.5707963267948972
1663839936396391866,0.5912852883338928,0.0,0.0,0.0,0.0,-1.5707963267948972
1663839936450349349,0.5940572023391724,0.0,0.0,0.0,0.0,-1.5707963267948972
1663839936537144980,0.5791810154914856,0.0,0.0,0.0,0.0,-1.2217304763960313
1663839936700121195,0.5652396082878113,0.0,0.0,0.0,0.0,-1.5707963267948972
1663839936837304973,0.545905351638794,0.0,0.0,0.0,0.0,-0.2728114724159241
1663839936923330513,0.5189825892448425,0.0,0.0,0.0,0.0,-0.24904564023017883
1663839937137151603,0.4635050594806671,0.0,0.0,0.0,0.0,-0.20035824179649353
1663839937190593857,0.42570942640304565,0.0,0.0,0.0,0.0,-0.1715121567249298
1663839937220392411,0.4262780547142029,0.0,0.0,0.0,0.0,-0.1700809746980667
1663839937340375881,0.3914640545845032,0.0,0.0,0.0,0.0,-0.14545579254627228
1663839937485481924,0.3484838902950287,0.0,0.0,0.0,0.0,-0.12428329885005951
1663839937600724263,0.301146537065506,0.0,0.0,0.0,0.0,-0.105326347053051
1663839937689517361,0.2459929436445236,0.0,0.0,0.0,0.0,-0.08678925782442093
1663839937819338102,0.19576886296272278,0.0,0.0,0.0,0.0,-0.07434884458780289
1663839937909400685,0.1490328460931778,0.0,0.0,0.0,0.0,-0.06648996472358704
1663839938021818466,0.10660700500011443,0.0,0.0,0.0,0.0,-0.06261871010065079
1663839938213019288,0.03957796841859817,0.0,0.0,0.0,0.0,0.059175219386816025
1663839938302014235,0.014075906947255131,0.0,0.0,0.0,0.0,0.06179606169462204
1663839938314266306,0.015994977205991745,0.0,0.0,0.0,0.0,0.06162851303815842
1663839938375769276,0.0,0.0,0.0,0.0,0.0,0.038399749266671133
1663839938556298307,0.0,0.0,0.0,0.0,0.0,0.058764029452865824
1663839938677060820,0.0,0.0,0.0,0.0,0.0,0.08571664984937417
1663839938757094034,0.0,0.0,0.0,0.0,0.0,0.08773714079559976
1663839938901864900,0.0,0.0,0.0,0.0,0.0,0.08895821993493387
1663839938974365665,0.0,0.0,0.0,0.0,0.0,0.08064825013402192
1663839939104426313,0.0,0.0,0.0,0.0,0.0,0.07320028017281374
1663839939196538260,0.0,0.0,0.0,0.0,0.0,0.05791274698406531
1663839939317061496,0.0,0.0,0.0,0.0,0.0,0.04370505747062344
1663839939408202513,0.0,0.0,0.0,0.0,0.0,0.030282769094905477
1663839939501319137,0.0,0.0,0.0,0.0,0.0,0.013822213541159948
1663839939624348751,0.0,0.0,0.0,0.0,0.0,-0.005782550934866801
1663839939757684961,0.0,0.0,0.0,0.0,0.0,-0.02222972899010481
1663839939813531039,0.0,0.0,0.0,0.0,0.0,-0.04298223824567362
1663839939925325605,0.0,0.0,0.0,0.0,0.0,-0.06811220223793579
1663839940105021092,0.0,0.0,0.0,0.0,0.0,-0.12199634784844461
1663839940195326875,0.0,0.0,0.0,0.0,0.0,-0.14622976777001537
1663839940224647245,0.0,0.0,0.0,0.0,0.0,-0.14354817699983458
1663839940317724590,0.0,0.0,0.0,0.0,0.0,-0.17624461831192084
1663839940436485542,0.0,0.0,0.0,0.0,0.0,-0.20508485855988898
1663839940528311510,0.0,0.0,0.0,0.0,0.0,-0.23609806400332334
1663839940664200176,0.0,0.0,0.0,0.0,0.0,-0.26852532071484614
1663839940737100373,0.0,0.0,0.0,0.0,0.0,-0.2894897559847075
1663839940872170309,0.0,0.0,0.0,0.0,0.0,-0.3133573055530463
1663839940970076556,0.0,0.0,0.0,0.0,0.0,-0.327449266207624
1663839941168273986,0.0,0.0,0.0,0.0,0.0,-0.36641768367106464
1663839941329679371,0.0,0.0,0.0,0.0,0.0,-0.3867926868052307
1663839941333155482,0.0,0.0,0.0,0.0,0.0,-0.4848368794665511
1663839941542220785,0.0,0.0,0.0,0.0,0.0,-0.5115554009696995
1663839941559840347,0.0,0.0,0.0,0.0,0.0,-0.4956833480312409
1663839941736040684,0.0,0.0,0.0,0.0,0.0,-0.5365644499134061
1663839941773303973,0.0,0.0,0.0,0.0,0.0,-0.514937710110359
1663839941922308506,0.0,0.0,0.0,0.0,0.0,-0.9573718838605532
1663839941936578271,0.0,0.0,0.0,0.0,0.0,-0.9203479087546563
1663839942035450581,0.0,0.0,0.0,0.0,0.0,-1.3128762705602282
1663839942072417401,0.0,0.0,0.0,0.0,0.0,-1.2890879913617446
1663839942237508753,0.0,0.0,0.0,0.0,0.0,-1.4958754699488088
1663839942328332808,0.0,0.0,0.0,0.0,0.0,-1.5500195782387043
1663839942464190367,0.0,0.0,0.0,0.0,0.0,-1.5707963267948966
1663839942628396537,0.0,0.0,0.0,0.0,0.0,-1.5707963267948966
1663839942760264539,0.0,0.0,0.0,0.0,0.0,-1.5707963267948966
1663839942888806833,0.0,0.0,0.0,0.0,0.0,-1.5707963267948966
1663839943024572194,0.0,0.0,0.0,0.0,0.0,-1.5707963267948966
1663839943235790800,0.0,0.0,0.0,0.0,0.0,-1.5707963267948966
1663839943295851348,0.0,0.0,0.0,0.0,0.0,-1.5707963267948966
