%time,field.linear.x,field.linear.y,field.linear.z,field.angular.x,field.angular.y,field.angular.z
1663839875600258553,0.0,0.0,0.0,0.0,0.0,-0.02640941420868277
1663839875650049099,0.0,0.0,0.0,0.0,0.0,-0.02640941420868277
1663839875699996827,0.0,0.0,0.0,0.0,0.0,-0.007339805728484021
1663839875750062526,0.0,0.0,0.0,0.0,0.0,-0.007339805728484021
1663839875800075481,0.0,0.0,0.0,0.0,0.0,-0.007339805728484021
1663839875850131243,0.0,0.0,0.0,0.0,0.0,-0.048422267803325494
1663839875899910578,0.0,0.0,0.0,0.0,0.0,-0.048422267803325494
1663839875949937483,0.0,0.0,0.0,0.0,0.0,-0.048422267803325494
1663839876000580263,0.015,0.0,0.0,0.0,0.0,-0.05291740826350849
1663839876050567242,0.03,0.0,0.0,0.0,0.0,-0.05739626249631044
1663839876099908101,0.04393773153424263,0.0,0.0,0.0,0.0,-0.06155793368816376
1663839876150505797,0.05893773153424263,0.0,0.0,0.0,0.0,-0.0611810412608185
1663839876200147366,0.07393773153424263,0.0,0.0,0.0,0.0,-0.06080414883347324
1663839876250321698,0.08339951932430267,0.0,0.0,0.0,0.0,-0.060566410422325134
1663839876300292875,0.09839951932430267,0.0,0.0,0.0,0.0,-0.06027699939041981
1663839876354370777,0.11300421506166458,0.0,0.0,0.0,0.0,-0.05999521538615227
1663839876400362675,0.1167396605014801,0.0,0.0,0.0,0.0,-0.05976204201579094
1663839876451628059,0.12531904876232147,0.0,0.0,0.0,0.0,-0.05942054092884064
1663839876500196679,0.12531904876232147,0.0,0.0,0.0,0.0,-0.05942054092884064
1663839876549989333,0.12531904876232147,0.0,0.0,0.0,0.0,-0.05942054092884064
1663839876600657003,0.133877694606781,0.0,0.0,0.0,0.0,-0.05885370075702667
1663839876650066388,0.133877694606781,0.0,0.0,0.0,0.0,-0.05885370075702667
1663839876700146012,0.13831040263175964,0.0,0.0,0.0,0.0,-0.058355461806058884
1663839876750026173,0.13831040263175964,0.0,0.0,0.0,0.0,-0.058355461806058884
1663839876800182982,0.14126037061214447,0.0,0.0,0.0,0.0,-0.05801931768655777
1663839876850145159,0.14126037061214447,0.0,0.0,0.0,0.0,-0.05801931768655777
1663839876900134309,0.14126037061214447,0.0,0.0,0.0,0.0,-0.05801931768655777
1663839876950469728,0.14126037061214447,0.0,0.0,0.0,0.0,-0.05801931768655777
1663839877001067228,0.13972242176532745,0.0,0.0,0.0,0.0,-0.058029670268297195
1663839877049944110,0.13972242176532745,0.0,0.0,0.0,0.0,-0.058029670268297195
1663839877100041898,0.13972242176532745,0.0,0.0,0.0,0.0,-0.058029670268297195
1663839877150065937,0.13972242176532745,0.0,0.0,0.0,0.0,-0.058029670268297195
1663839877200055371,0.13799504935741425,0.0,0.0,0.0,0.0,-0.05806807801127434
1663839877251807818,0.1359514743089676,0.0,0.0,0.0,0.0,-0.05783965811133385
1663839877299874784,0.13422188162803647,0.0,0.0,0.0,0.0,-0.057748205959796906
1663839877350121902,0.13422188162803647,0.0,0.0,0.0,0.0,-0.05777962505817413
1663839877399819972,0.13422188162803647,0.0,0.0,0.0,0.0,-0.05777962505817413
1663839877453577914,0.13321295380592346,0.0,0.0,0.0,0.0,-0.05767619237303734
1663839877499978374,0.13321295380592346,0.0,0.0,0.0,0.0,-0.05767619237303734
1663839877550004389,0.13109101355075836,0.0,0.0,0.0,0.0,-0.05756934732198715
1663839877599972430,0.13109101355075836,0.0,0.0,0.0,0.0,-0.05756934732198715
1663839877650130651,0.13109101355075836,0.0,0.0,0.0,0.0,-0.05756934732198715
1663839877700201105,0.13109101355075836,0.0,0.0,0.0,0.0,-0.05756934732198715
1663839877750481526,0.12714074552059174,0.0,0.0,0.0,0.0,-0.05727293714880943
1663839877800056038,0.12714074552059174,0.0,0.0,0.0,0.0,-0.05727293714880943
1663839877850597449,0.1238575279712677,0.0,0.0,0.0,0.0,-0.05714449658989906
1663839877900085957,0.1238575279712677,0.0,0.0,0.0,0.0,-0.05714449658989906
1663839877950088957,0.11908653378486632,0.0,0.0,0.0,0.0,-0.057196419686079025
1663839877999939959,0.11908653378486632,0.0,0.0,0.0,0.0,-0.057196419686079025
1663839878050019644,0.11908653378486632,0.0,0.0,0.0,0.0,-0.057196419686079025
1663839878100252371,0.11026156693696976,0.0,0.0,0.0,0.0,-0.05742495879530907
1663839878150001901,0.11026156693696976,0.0,0.0,0.0,0.0,-0.05742495879530907
1663839878199817580,0.10434615612030029,0.0,0.0,0.0,0.0,-0.057609353214502335
1663839878250599463,0.10434615612030029,0.0,0.0,0.0,0.0,-0.057668693363666534
1663839878300151275,0.10434615612030029,0.0,0.0,0.0,0.0,-0.057668693363666534
1663839878350068329,0.10434615612030029,0.0,0.0,0.0,0.0,-0.057668693363666534
1663839878399952128,0.09712994843721388,0.0,0.0,0.0,0.0,0.05654388293623924
1663839878450593482,0.09378128498792648,0.0,0.0,0.0,0.0,-0.058128464967012405
1663839878500104673,0.09378128498792648,0.0,0.0,0.0,0.0,-0.058128464967012405
1663839878549901224,0.09378128498792648,0.0,0.0,0.0,0.0,-0.058128464967012405
1663839878601028670,0.09059608727693556,0.0,0.0,0.0,0.0,-0.05826104059815407
1663839878650344503,0.09059608727693556,0.0,0.0,0.0,0.0,-0.05826104059815407
1663839878699739315,0.09059608727693556,0.0,0.0,0.0,0.0,-0.05826104059815407
1663839878749942755,0.08118029683828352,0.0,0.0,0.0,0.0,-0.058647945523262024
1663839878799968335,0.07721241563558577,0.0,0.0,0.0,0.0,-0.05877190828323364
1663839878849797188,0.07721241563558577,0.0,0.0,0.0,0.0,-0.058908045291900635
1663839878899963236,0.07721241563558577,0.0,0.0,0.0,0.0,-0.058908045291900635
1663839878950006371,0.07239386439323425,0.0,0.0,0.0,0.0,-0.059055592864751816
1663839878999759181,0.07239386439323425,0.0,0.0,0.0,0.0,-0.059055592864751816
1663839879050757943,0.06791129708290099,0.0,0.0,0.0,0.0,-0.05933348461985588
1663839879100192901,0.06791129708290099,0.0,0.0,0.0,0.0,-0.05933348461985588
1663839879150122156,0.06791129708290099,0.0,0.0,0.0,0.0,-0.05933348461985588
1663839879200050292,0.06458406895399094,0.0,0.0,0.0,0.0,-0.059535570442676544
1663839879250048838,0.06458406895399094,0.0,0.0,0.0,0.0,-0.059535570442676544
1663839879300219165,0.06061931699514389,0.0,0.0,0.0,0.0,-0.059737078845500946
1663839879351330112,0.06061931699514389,0.0,0.0,0.0,0.0,-0.059737078845500946
1663839879400144725,0.05732527747750282,0.0,0.0,0.0,0.0,-0.05994623899459839
1663839879450604844,0.05732527747750282,0.0,0.0,0.0,0.0,-0.05994623899459839
1663839879500023644,0.053566738963127136,0.0,0.0,0.0,0.0,-0.06005023047327995
1663839879550322671,0.053566738963127136,0.0,0.0,0.0,0.0,-0.06005023047327995
1663839879600349540,0.0497717335820198,0.0,0.0,0.0,0.0,-0.06035096198320389
1663839879650108241,0.04400631040334701,0.0,0.0,0.0,0.0,0.05987325683236122
1663839879699935579,0.04400631040334701,0.0,0.0,0.0,0.0,0.05987325683236122
1663839879749926732,0.04400631040334701,0.0,0.0,0.0,0.0,0.05987325683236122
1663839879800044087,0.04400631040334701,0.0,0.0,0.0,0.0,0.05987325683236122
1663839879849999581,0.044218018651008606,0.0,0.0,0.0,0.0,-0.06055155023932457
1663839879900233829,0.042001400142908096,0.0,0.0,0.0,0.0,-0.060653045773506165
1663839879949819616,0.042001400142908096,0.0,0.0,0.0,0.0,-0.060653045773506165
1663839880001107162,0.038534905761480324,0.0,0.0,0.0,0.0,-0.06090142950415611
1663839880050082325,0.038534905761480324,0.0,0.0,0.0,0.0,-0.06090142950415611
1663839880103504815,0.03679532930254936,0.0,0.0,0.0,0.0,-0.06096881628036499
1663839880150019256,0.03679532930254936,0.0,0.0,0.0,0.0,-0.06096881628036499
1663839880200301863,0.03802442178130149,0.0,0.0,0.0,0.0,-0.06087595969438553
1663839880250222670,0.03802442178130149,0.0,0.0,0.0,0.0,-0.06087595969438553
1663839880300193221,0.03802442178130149,0.0,0.0,0.0,0.0,-0.06087595969438553
1663839880350125002,0.03490595147013664,0.0,0.0,0.0,0.0,-0.06108088046312332
1663839880399925167,0.03490595147013664,0.0,0.0,0.0,0.0,-0.06108088046312332
1663839880449951642,0.03490595147013664,0.0,0.0,0.0,0.0,-0.06108088046312332
1663839880504025041,0.02814015932381153,0.0,0.0,0.0,0.0,0.060706835240125656
1663839880550065235,0.02814015932381153,0.0,0.0,0.0,0.0,0.060706835240125656
1663839880599960744,0.02814015932381153,0.0,0.0,0.0,0.0,0.060706835240125656
1663839880649925355,0.030433930456638336,0.0,0.0,0.0,0.0,-0.0612785778939724
1663839880703347728,0.02913562208414077,0.0,0.0,0.0,0.0,-0.06142030283808708
1663839880751343302,0.02913562208414077,0.0,0.0,0.0,0.0,-0.06142030283808708
1663839880800629652,0.028374744579195976,0.0,0.0,0.0,0.0,-0.06136490777134895
1663839880849999442,0.028374744579195976,0.0,0.0,0.0,0.0,-0.06136490777134895
1663839880900231177,0.028374744579195976,0.0,0.0,0.0,0.0,-0.06136490777134895
1663839880950027087,0.028374744579195976,0.0,0.0,0.0,0.0,-0.06136490777134895
1663839881000219382,0.027727073058485985,0.0,0.0,0.0,0.0,-0.061465468257665634
1663839881050482958,0.027727073058485985,0.0,0.0,0.0,0.0,-0.061465468257665634
1663839881100114342,0.026821082457900044,0.0,0.0,0.0,0.0,-0.061560459434986115
1663839881149881279,0.026821082457900044,0.0,0.0,0.0,0.0,-0.061560459434986115
1663839881202698459,0.02709022723138332,0.0,0.0,0.0,0.0,-0.06152278184890747
1663839881250092462,0.02709022723138332,0.0,0.0,0.0,0.0,-0.06152278184890747
1663839881300118500,0.02709022723138332,0.0,0.0,0.0,0.0,-0.06152278184890747
1663839881353629605,0.026793750002980232,0.0,0.0,0.0,0.0,-0.06149439141154289
1663839881400224763,0.026793750002980232,0.0,0.0,0.0,0.0,-0.06149439141154289
1663839881450057366,0.026793750002980232,0.0,0.0,0.0,0.0,-0.06149439141154289
1663839881500407247,0.023220615461468697,0.0,0.0,0.0,0.0,0.061095889657735825
1663839881550322326,0.02805901132524013,0.0,0.0,0.0,0.0,-0.06147540733218193
1663839881600184123,0.02805901132524013,0.0,0.0,0.0,0.0,-0.061433520168066025
1663839881649752530,0.02805901132524013,0.0,0.0,0.0,0.0,-0.061433520168066025
1663839881700865832,0.029314616695046425,0.0,0.0,0.0,0.0,-0.06133104860782623
1663839881750910468,0.029314616695046425,0.0,0.0,0.0,0.0,-0.06133104860782623
1663839881800283391,0.029314616695046425,0.0,0.0,0.0,0.0,-0.06133104860782623
1663839881850174945,0.030286187306046486,0.0,0.0,0.0,0.0,-0.06128590553998947
1663839881900051043,0.030286187306046486,0.0,0.0,0.0,0.0,-0.06128590553998947
1663839881949955405,0.030286187306046486,0.0,0.0,0.0,0.0,-0.06128590553998947
1663839882000367263,0.030286187306046486,0.0,0.0,0.0,0.0,-0.06128590553998947
1663839882049845249,0.03205656632781029,0.0,0.0,0.0,0.0,-0.061255913227796555
1663839882100145268,0.03351520001888275,0.0,0.0,0.0,0.0,-0.06118910014629364
1663839882150036264,0.03351520001888275,0.0,0.0,0.0,0.0,-0.06118910014629364
1663839882200096293,0.03351520001888275,0.0,0.0,0.0,0.0,-0.06118910014629364
1663839882249754650,0.03351520001888275,0.0,0.0,0.0,0.0,-0.06118910014629364
1663839882300495801,0.03488653153181076,0.0,0.0,0.0,0.0,-0.061058852821588516
1663839882350053260,0.03488653153181076,0.0,0.0,0.0,0.0,-0.061058852821588516
1663839882399918284,0.0350397452712059,0.0,0.0,0.0,0.0,-0.0610603466629982
1663839882450332971,0.0350397452712059,0.0,0.0,0.0,0.0,-0.06106383353471756
1663839882499894832,0.0350397452712059,0.0,0.0,0.0,0.0,-0.06106383353471756
1663839882550011439,0.0350397452712059,0.0,0.0,0.0,0.0,-0.06106383353471756
1663839882600528381,0.035039402544498444,0.0,0.0,0.0,0.0,-0.06101275235414505
1663839882650002234,0.033068057149648666,0.0,0.0,0.0,0.0,0.06042173132300377
1663839882700400962,0.033068057149648666,0.0,0.0,0.0,0.0,0.06042173132300377
1663839882750025277,0.033068057149648666,0.0,0.0,0.0,0.0,0.06042173132300377
1663839882800164297,0.036271534860134125,0.0,0.0,0.0,0.0,-0.06112847849726677
1663839882851026834,0.036271534860134125,0.0,0.0,0.0,0.0,-0.06112847849726677
1663839882900154790,0.03588969260454178,0.0,0.0,0.0,0.0,-0.061064835637807846
1663839882949843609,0.03588969260454178,0.0,0.0,0.0,0.0,-0.061064835637807846
1663839882999889753,0.03588969260454178,0.0,0.0,0.0,0.0,-0.061064835637807846
1663839883050115762,0.036539804190397256,0.0,0.0,0.0,0.0,-0.060951001942157745
1663839883099951126,0.036539804190397256,0.0,0.0,0.0,0.0,-0.060951001942157745
1663839883150192663,0.036539804190397256,0.0,0.0,0.0,0.0,-0.060951001942157745
1663839883199927609,0.036955062299966805,0.0,0.0,0.0,0.0,-0.060978543013334274
1663839883250156993,0.036955062299966805,0.0,0.0,0.0,0.0,-0.060978543013334274
1663839883300247143,0.0322970189154148,0.0,0.0,0.0,0.0,0.060451433062553406
1663839883349868123,0.0322970189154148,0.0,0.0,0.0,0.0,0.060451433062553406
1663839883400918546,0.033166710287332535,0.0,0.0,0.0,0.0,0.060328271239995956
1663839883449988058,0.033166710287332535,0.0,0.0,0.0,0.0,0.060328271239995956
1663839883501799737,0.036070212721824646,0.0,0.0,0.0,0.0,-0.06109641119837761
1663839883550242395,0.036070212721824646,0.0,0.0,0.0,0.0,-0.06109641119837761
1663839883601415932,0.0362502820789814,0.0,0.0,0.0,0.0,-0.0611843541264534
1663839883650094114,0.0362502820789814,0.0,0.0,0.0,0.0,-0.0611843541264534
1663839883700447530,0.0362502820789814,0.0,0.0,0.0,0.0,-0.0611843541264534
1663839883749978473,0.03752000257372856,0.0,0.0,0.0,0.0,-0.061155691742897034
1663839883801129416,0.040031615644693375,0.0,0.0,0.0,0.0,-0.061063434928655624
1663839883850313071,0.040031615644693375,0.0,0.0,0.0,0.0,-0.061063434928655624
1663839883900251489,0.040031615644693375,0.0,0.0,0.0,0.0,-0.061063434928655624
1663839883950780502,0.04585929587483406,0.0,0.0,0.0,0.0,-0.060943666845560074
1663839884000119846,0.04585929587483406,0.0,0.0,0.0,0.0,-0.060943666845560074
1663839884051105453,0.051518697291612625,0.0,0.0,0.0,0.0,0.058771900832653046
1663839884100121194,0.051518697291612625,0.0,0.0,0.0,0.0,0.058771900832653046
1663839884150490058,0.06651869729161262,0.0,0.0,0.0,0.0,-0.02094288727030641
1663839884200311015,0.08151869729161262,0.0,0.0,0.0,0.0,-0.04392111598020845
1663839884250606001,0.0909433290362358,0.0,0.0,0.0,0.0,-0.05835853889584541
1663839884303611824,0.0909433290362358,0.0,0.0,0.0,0.0,-0.05835853889584541
1663839884350154468,0.1059433290362358,0.0,0.0,0.0,0.0,-0.05721237911884523
1663839884400229402,0.11292757093906403,0.0,0.0,0.0,0.0,-0.056678708642721176
1663839884449929181,0.12792757093906404,0.0,0.0,0.0,0.0,-0.05557468115129738
1663839884500733346,0.1404930204153061,0.0,0.0,0.0,0.0,-0.05464984104037285
1663839884550159697,0.1554930204153061,0.0,0.0,0.0,0.0,-0.05334288753171239
1663839884601703839,0.17049302041530612,0.0,0.0,0.0,0.0,-0.052035934023051934
1663839884649812626,0.17871953547000885,0.0,0.0,0.0,0.0,-0.05131915584206581
1663839884701447968,0.19371953547000886,0.0,0.0,0.0,0.0,-0.04981148647819478
1663839884750253421,0.20871953547000888,0.0,0.0,0.0,0.0,-0.04830381711432374
1663839884800326256,0.2237195354700089,0.0,0.0,0.0,0.0,-0.04668369635576516
1663839884850368701,0.2387195354700089,0.0,0.0,0.0,0.0,-0.045067792522171406
1663839884900248267,0.2537195354700089,0.0,0.0,0.0,0.0,-0.043451888688577654
1663839884949809592,0.26871953547000893,0.0,0.0,0.0,0.0,-0.041751718256545056
1663839885000102213,0.28371953547000894,0.0,0.0,0.0,0.0,-0.04005154782451246
1663839885049951152,0.29871953547000896,0.0,0.0,0.0,0.0,-0.03835137739247986
1663839885100492290,0.31371953547000897,0.0,0.0,0.0,0.0,-0.02365164140511345
1663839885150212104,0.328719535470009,0.0,0.0,0.0,0.0,-0.008951905417747041
1663839885200777314,0.343719535470009,0.0,0.0,0.0,0.0,-0.011644107428704139
1663839885250187074,0.358719535470009,0.0,0.0,0.0,0.0,-0.014337796102642972
1663839885300444609,0.373719535470009,0.0,0.0,0.0,0.0,-0.017031484776581805
1663839885350112455,0.38871953547000904,0.0,0.0,0.0,0.0,-0.01972517345052064
1663839885400558983,0.40371953547000905,0.0,0.0,0.0,0.0,-0.019678496086356984
1663839885450044969,0.41871953547000906,0.0,0.0,0.0,0.0,-0.019631818722193328
1663839885500169573,0.4337195354700091,0.0,0.0,0.0,0.0,-0.019015805832807507
1663839885550170287,0.4487195354700091,0.0,0.0,0.0,0.0,-0.01844946238090692
1663839885600173221,0.4637195354700091,0.0,0.0,0.0,0.0,-0.017378123334944647
1663839885650009957,0.4759610891342163,0.0,0.0,0.0,0.0,-0.016503799706697464
1663839885700193780,0.4759610891342163,0.0,0.0,0.0,0.0,-0.016503799706697464
1663839885749899854,0.4759610891342163,0.0,0.0,0.0,0.0,-0.016503799706697464
1663839885801802630,0.4832996129989624,0.0,0.0,0.0,0.0,-0.015327895991504192
1663839885849998783,0.4832996129989624,0.0,0.0,0.0,0.0,-0.015327895991504192
1663839885900018710,0.47796231508255005,0.0,0.0,0.0,0.0,-0.015185924246907234
1663839885950043367,0.47796231508255005,0.0,0.0,0.0,0.0,-0.015185924246907234
1663839886000206960,0.47796231508255005,0.0,0.0,0.0,0.0,-0.015185924246907234
1663839886050110029,0.47796231508255005,0.0,0.0,0.0,0.0,-0.015185924246907234
1663839886101275793,0.4435557723045349,0.0,0.0,0.0,0.0,-0.01817765273153782
1663839886149980128,0.4435557723045349,0.0,0.0,0.0,0.0,-0.01817765273153782
1663839886200097539,0.4435557723045349,0.0,0.0,0.0,0.0,-0.01817765273153782
1663839886250502471,0.3993476927280426,0.0,0.0,0.0,0.0,0.06546984612941742
1663839886300060024,0.3993476927280426,0.0,0.0,0.0,0.0,0.06546984612941742
1663839886351660277,0.3509035110473632,0.0,0.0,0.0,0.0,-0.02859603799879551
1663839886400059256,0.3509035110473632,0.0,0.0,0.0,0.0,-0.028557639569044113
1663839886450423304,0.3509035110473632,0.0,0.0,0.0,0.0,-0.028557639569044113
1663839886500689511,0.3192773759365082,0.0,0.0,0.0,0.0,0.06153222545981407
1663839886550145116,0.3192773759365082,0.0,0.0,0.0,0.0,0.06153222545981407
1663839886600032116,0.26646238565444946,0.0,0.0,0.0,0.0,0.06019752472639084
1663839886649972769,0.26646238565444946,0.0,0.0,0.0,0.0,0.06019752472639084
1663839886700264601,0.26646238565444946,0.0,0.0,0.0,0.0,0.06019752472639084
1663839886751032053,0.15250836312770844,0.0,0.0,0.0,0.0,0.058707889169454575
1663839886803238596,0.15250836312770844,0.0,0.0,0.0,0.0,0.05861364305019379
1663839886850120075,0.15250836312770844,0.0,0.0,0.0,0.0,0.05861364305019379
1663839886900078958,0.15250836312770844,0.0,0.0,0.0,0.0,0.05861364305019379
1663839886950043745,0.08220093697309493,0.0,0.0,0.0,0.0,-0.05611082538962364
1663839887000256409,0.08220093697309493,0.0,0.0,0.0,0.0,-0.05611082538962364
1663839887050108291,0.08220093697309493,0.0,0.0,0.0,0.0,-0.05611082538962364
1663839887100622104,0.08220093697309493,0.0,0.0,0.0,0.0,-0.05611082538962364
1663839887149961654,0.0,0.0,0.0,0.0,0.0,0.011073321144171854
1663839887200253778,0.0,0.0,0.0,0.0,0.0,0.011073321144171854
1663839887250212416,0.0,0.0,0.0,0.0,0.0,-0.0036809397571014547
1663839887300095072,0.0,0.0,0.0,0.0,0.0,-0.0036809397571014547
1663839887350376317,0.0,0.0,0.0,0.0,0.0,-0.0036809397571014547
1663839887404587891,0.0,0.0,0.0,0.0,0.0,-0.02127539689357172
1663839887450051739,0.0,0.0,0.0,0.0,0.0,-0.02127539689357172
1663839887499934540,0.0,0.0,0.0,0.0,0.0,-0.02127539689357172
1663839887550115599,0.0,0.0,0.0,0.0,0.0,-0.053935745478063804
1663839887600042603,0.0,0.0,0.0,0.0,0.0,-0.053935745478063804
1663839887652075337,0.0,0.0,0.0,0.0,0.0,-0.07197855651613744
1663839887700581181,0.0,0.0,0.0,0.0,0.0,-0.07090857121406056
1663839887749942364,0.0,0.0,0.0,0.0,0.0,-0.07090857121406056
1663839887800134807,0.0,0.0,0.0,0.0,0.0,-0.07090857121406056
1663839887849904344,0.0,0.0,0.0,0.0,0.0,-0.09421527496608847
1663839887900232240,0.0,0.0,0.0,0.0,0.0,-0.11524283432700941
1663839887950253102,0.0,0.0,0.0,0.0,0.0,-0.11524283432700941
1663839888000583308,0.0,0.0,0.0,0.0,0.0,-0.13894627587542008
1663839888049922833,0.0,0.0,0.0,0.0,0.0,-0.13894627587542008
1663839888100213049,0.0,0.0,0.0,0.0,0.0,-0.1641583603973823
1663839888150003246,0.0,0.0,0.0,0.0,0.0,-0.1641583603973823
1663839888200714284,0.0,0.0,0.0,0.0,0.0,-0.17984013912217492
1663839888250021050,0.0,0.0,0.0,0.0,0.0,-0.17984013912217492
1663839888301391237,0.0,0.0,0.0,0.0,0.0,-0.17984013912217492
1663839888349914783,0.0,0.0,0.0,0.0,0.0,-0.19630643169392803
1663839888400319369,0.0,0.0,0.0,0.0,0.0,-0.20695673445710652
1663839888450059847,0.0,0.0,0.0,0.0,0.0,-0.20695673445710652
1663839888500482907,0.0,0.0,0.0,0.0,0.0,-0.20695673445710652
1663839888550287077,0.0,0.0,0.0,0.0,0.0,-0.21913968079928398
1663839888600529051,0.0,0.0,0.0,0.0,0.0,-0.21913968079928398
1663839888650145857,0.0,0.0,0.0,0.0,0.0,-0.21913968079928398
1663839888702047953,0.0,0.0,0.0,0.0,0.0,-0.22709723784601668
1663839888750024748,0.0,0.0,0.0,0.0,0.0,-0.22709723784601668
1663839888800117286,0.0,0.0,0.0,0.0,0.0,-0.22709723784601668
1663839888849951835,0.0,0.0,0.0,0.0,0.0,-0.2247347860203312
1663839888900041929,0.0,0.0,0.0,0.0,0.0,-0.2123404985887202
1663839888949993475,0.0,0.0,0.0,0.0,0.0,-0.2203691748966769
1663839889000246255,0.0,0.0,0.0,0.0,0.0,-0.2173224847849634
1663839889049886115,0.0,0.0,0.0,0.0,0.0,-0.2173224847849634
1663839889100024413,0.0,0.0,0.0,0.0,0.0,-0.2173224847849634
1663839889149901111,0.0,0.0,0.0,0.0,0.0,-0.2173224847849634
1663839889201019003,0.0,0.0,0.0,0.0,0.0,-0.2173224847849634
1663839889249805370,0.0,0.0,0.0,0.0,0.0,-0.16307972559239076
1663839889299942729,0.0,0.0,0.0,0.0,0.0,-0.16307972559239076
1663839889349859173,0.0,0.0,0.0,0.0,0.0,-0.11202506880188735
1663839889400249655,0.0,0.0,0.0,0.0,0.0,-0.10853893617095042
1663839889450107569,0.0,0.0,0.0,0.0,0.0,-0.10853893617095042
1663839889500175019,0.0,0.0,0.0,0.0,0.0,-0.08226743209175869
1663839889550046890,0.0,0.0,0.0,0.0,0.0,-0.08226743209175869
1663839889600172052,0.0,0.0,0.0,0.0,0.0,-0.08226743209175869
1663839889650197398,0.0,0.0,0.0,0.0,0.0,-0.08226743209175869
1663839889701320420,0.0,0.0,0.0,0.0,0.0,-0.062111624722469186
1663839889749941847,0.0,0.0,0.0,0.0,0.0,-0.062111624722469186
1663839889800083390,0.0,0.0,0.0,0.0,0.0,-0.05671124886370497
1663839889850048256,0.0,0.0,0.0,0.0,0.0,-0.055991155392830005
1663839889900193640,0.0,0.0,0.0,0.0,0.0,-0.055991155392830005
1663839889950081356,0.0,0.0,0.0,0.0,0.0,-0.055991155392830005
1663839890000169586,0.0,0.0,0.0,0.0,0.0,-0.057425154156900075
1663839890050263504,0.0,0.0,0.0,0.0,0.0,-0.057425154156900075
1663839890100420867,0.0,0.0,0.0,0.0,0.0,-0.057425154156900075
1663839890149817095,0.0,0.0,0.0,0.0,0.0,-0.050300782881908424
1663839890200422282,0.0,0.0,0.0,0.0,0.0,-0.050300782881908424
1663839890249898863,0.0,0.0,0.0,0.0,0.0,-0.050300782881908424
1663839890300144001,0.0,0.0,0.0,0.0,0.0,-0.050300782881908424
1663839890350072083,0.0,0.0,0.0,0.0,0.0,-0.050300782881908424
1663839890400177379,0.0,0.0,0.0,0.0,0.0,-0.045094752800042597
1663839890449960577,0.015,0.0,0.0,0.0,0.0,-0.050388934186150224
1663839890500329052,0.03,0.0,0.0,0.0,0.0,-0.05192960224982704
1663839890550264044,0.045,0.0,0.0,0.0,0.0,-0.05345583516059228
1663839890600073314,0.06,0.0,0.0,0.0,0.0,-0.054982068071357526
1663839890650183685,0.075,0.0,0.0,0.0,0.0,-0.05650830098212277
1663839890700278203,0.0,0.0,0.0,0.0,0.0,0.0
1663839890750003734,0.015,0.0,0.0,0.0,0.0,-0.00403000985106839
1663839890800059377,0.03,0.0,0.0,0.0,0.0,-0.00806001970213678
1663839890849947915,0.045,0.0,0.0,0.0,0.0,-0.010858318261183414
1663839890900214505,0.06,0.0,0.0,0.0,0.0,-0.013656616820230049
1663839890950651014,0.075,0.0,0.0,0.0,0.0,-0.01582537039212669
1663839891000119078,0.09,0.0,0.0,0.0,0.0,-0.017994123964023334
1663839891051026418,0.105,0.0,0.0,0.0,0.0,-0.013885397442352714
1663839891100147234,0.12,0.0,0.0,0.0,0.0,-0.009776670920682094
1663839891150151231,0.135,0.0,0.0,0.0,0.0,-0.011753685204115015
1663839891200270081,0.15000000000000002,0.0,0.0,0.0,0.0,-0.013730699487547935
1663839891250001384,0.16500000000000004,0.0,0.0,0.0,0.0,-0.015707713770980854
1663839891304231405,0.18000000000000005,0.0,0.0,0.0,0.0,-0.017684728054413776
1663839891350019206,0.19500000000000006,0.0,0.0,0.0,0.0,-0.01886334478231946
1663839891400221579,0.21000000000000008,0.0,0.0,0.0,0.0,-0.020041961510225144
1663839891450013943,0.2250000000000001,0.0,0.0,0.0,0.0,-0.02122057823813083
1663839891500121415,0.2400000000000001,0.0,0.0,0.0,0.0,-0.02213767340236149
1663839891550020179,0.2550000000000001,0.0,0.0,0.0,0.0,-0.02305476856659215
1663839891600633576,0.27000000000000013,0.0,0.0,0.0,0.0,-0.02376458587947214
1663839891650232125,0.28500000000000014,0.0,0.0,0.0,0.0,-0.024474403192352126
1663839891701919646,0.30000000000000016,0.0,0.0,0.0,0.0,-0.025184220505232113
1663839891750145846,0.31500000000000017,0.0,0.0,0.0,0.0,-0.021015069331837354
1663839891800259288,0.3300000000000002,0.0,0.0,0.0,0.0,-0.0215856475365456
1663839891850027302,0.3450000000000002,0.0,0.0,0.0,0.0,-0.022156225741253845
1663839891900010477,0.3600000000000002,0.0,0.0,0.0,0.0,-0.022478227743023788
1663839891950293601,0.3750000000000002,0.0,0.0,0.0,0.0,-0.022800229744793732
1663839892000257966,0.39000000000000024,0.0,0.0,0.0,0.0,-0.023122231746563675
1663839892050837956,0.40500000000000025,0.0,0.0,0.0,0.0,-0.02344423374833362
1663839892100073530,0.42000000000000026,0.0,0.0,0.0,0.0,-0.02348198440869924
1663839892150419945,0.4350000000000003,0.0,0.0,0.0,0.0,-0.0232651313239296
1663839892200147613,0.4500000000000003,0.0,0.0,0.0,0.0,-0.02304827823915996
1663839892250185734,0.4650000000000003,0.0,0.0,0.0,0.0,-0.022831425154390322
1663839892300066909,0.4800000000000003,0.0,0.0,0.0,0.0,-0.022614572069620684
1663839892350616944,0.49500000000000033,0.0,0.0,0.0,0.0,-0.022397718984851045
1663839892400187864,0.5100000000000003,0.0,0.0,0.0,0.0,-0.021298969137691984
1663839892450195894,0.5250000000000004,0.0,0.0,0.0,0.0,-0.012609431481448337
1663839892500373414,0.5400000000000004,0.0,0.0,0.0,0.0,-0.00391989382520469
1663839892550118791,0.5550000000000004,0.0,0.0,0.0,0.0,0.00476964383103896
1663839892600058964,0.5700000000000004,0.0,0.0,0.0,0.0,0.013459181487282609
1663839892650104709,0.5850000000000004,0.0,0.0,0.0,0.0,0.01178433924853182
1663839892700196691,0.6000000000000004,0.0,0.0,0.0,0.0,0.011446346357089876
1663839892750601124,0.6150000000000004,0.0,0.0,0.0,0.0,0.012692383875448604
1663839892800063253,0.6300000000000004,0.0,0.0,0.0,0.0,0.013938421393807332
1663839892850029258,0.6450000000000005,0.0,0.0,0.0,0.0,0.015184458912166061
1663839892901176008,0.6555727124214172,0.0,0.0,0.0,0.0,0.016062725335359573
1663839892950114097,0.6317268013954163,0.0,0.0,0.0,0.0,0.02786543034017086
1663839893001398438,0.6176968812942505,0.0,0.0,0.0,0.0,0.031879398971796036
1663839893050008358,0.6176968812942505,0.0,0.0,0.0,0.0,0.031879398971796036
1663839893100337932,0.6176968812942505,0.0,0.0,0.0,0.0,0.031879398971796036
1663839893150130648,0.6298748850822448,0.0,0.0,0.0,0.0,0.11145326495170593
1663839893200625724,0.6298748850822448,0.0,0.0,0.0,0.0,0.11145326495170593
1663839893250135118,0.6298748850822448,0.0,0.0,0.0,0.0,0.11145326495170593
1663839893300073990,0.5891619324684143,0.0,0.0,0.0,0.0,0.04890185222029686
1663839893350073700,0.5891619324684143,0.0,0.0,0.0,0.0,0.04890185222029686
1663839893400189902,0.5789105892181396,0.0,0.0,0.0,0.0,0.055910322815179825
1663839893450245493,0.5789105892181396,0.0,0.0,0.0,0.0,0.055910322815179825
1663839893508233501,0.5789105892181396,0.0,0.0,0.0,0.0,0.055910322815179825
1663839893550853405,0.5939105892181397,0.0,0.0,0.0,0.0,0.1126932453021981
1663839893600083923,0.600467324256897,0.0,0.0,0.0,0.0,0.13751395046710968
1663839893650302290,0.5491219162940979,0.0,0.0,0.0,0.0,0.06890788674354553
1663839893700238972,0.5491219162940979,0.0,0.0,0.0,0.0,0.06890788674354553
1663839893750650839,0.5310300588607788,0.0,0.0,0.0,0.0,0.07507995516061783
1663839893800049784,0.5310300588607788,0.0,0.0,0.0,0.0,0.07507995516061783
1663839893850023779,0.5310300588607788,0.0,0.0,0.0,0.0,0.07507995516061783
1663839893899908960,0.5166531205177307,0.0,0.0,0.0,0.0,0.08253329247236252
1663839893952178249,0.5050271153450012,0.0,0.0,0.0,0.0,0.09155292063951492
1663839894000121812,0.5050271153450012,0.0,0.0,0.0,0.0,0.09155292063951492
1663839894050115758,0.5050271153450012,0.0,0.0,0.0,0.0,0.09155292063951492
1663839894100014300,0.5050271153450012,0.0,0.0,0.0,0.0,0.09155292063951492
1663839894150243969,0.49488380551338196,0.0,0.0,0.0,0.0,0.10024210810661316
1663839894200125254,0.49488380551338196,0.0,0.0,0.0,0.0,0.10024210810661316
1663839894250095924,0.4602961540222167,0.0,0.0,0.0,0.0,0.1140202209353447
1663839894300009738,0.4602961540222167,0.0,0.0,0.0,0.0,0.1140202209353447
1663839894349857225,0.44467875361442566,0.0,0.0,0.0,0.0,0.12016263604164124
1663839894400090572,0.4453894793987273,0.0,0.0,0.0,0.0,0.12016961723566055
1663839894450426363,0.4603894793987273,0.0,0.0,0.0,0.0,0.14367287417198937
1663839894500094754,0.47538947939872733,0.0,0.0,0.0,0.0,0.16717613110831822
1663839894549984099,0.41480147838592524,0.0,0.0,0.0,0.0,0.1315516084432602
1663839894600190220,0.41480147838592524,0.0,0.0,0.0,0.0,0.1315516084432602
1663839894650223394,0.41480147838592524,0.0,0.0,0.0,0.0,0.1315516084432602
1663839894699961983,0.41084322333335876,0.0,0.0,0.0,0.0,0.1394580751657486
1663839894750069596,0.4135403931140899,0.0,0.0,0.0,0.0,0.15231624245643616
1663839894800134378,0.4135403931140899,0.0,0.0,0.0,0.0,0.15231624245643616
1663839894850367384,0.4135403931140899,0.0,0.0,0.0,0.0,0.15231624245643616
1663839894899959993,0.4135403931140899,0.0,0.0,0.0,0.0,0.15231624245643616
1663839894950505173,0.4160117506980896,0.0,0.0,0.0,0.0,0.16643352806568146
1663839895000078557,0.4160117506980896,0.0,0.0,0.0,0.0,0.16643352806568146
1663839895053722042,0.4310117506980896,0.0,0.0,0.0,0.0,0.18227633202587945
1663839895099931945,0.4460117506980896,0.0,0.0,0.0,0.0,0.19811913598607744
1663839895149965549,0.4184482395648956,0.0,0.0,0.0,0.0,0.20363564789295197
1663839895200046190,0.4184482395648956,0.0,0.0,0.0,0.0,0.20363564789295197
1663839895250161818,0.4223073124885559,0.0,0.0,0.0,0.0,0.2182033658027649
1663839895301206647,0.4226626753807068,0.0,0.0,0.0,0.0,0.21807071566581726
1663839895350057163,0.4226626753807068,0.0,0.0,0.0,0.0,0.21807071566581726
1663839895401954069,0.4226626753807068,0.0,0.0,0.0,0.0,0.21807071566581726
1663839895449997703,0.4252476990222931,0.0,0.0,0.0,0.0,0.23089879751205444
1663839895500101173,0.4334203898906708,0.0,0.0,0.0,0.0,0.24593783915042877
1663839895550065310,0.4334203898906708,0.0,0.0,0.0,0.0,0.24593783915042877
1663839895600105724,0.4484203898906708,0.0,0.0,0.0,0.0,0.2570363009610471
1663839895650044908,0.4634203898906708,0.0,0.0,0.0,0.0,0.2681347627716655
1663839895700185520,0.4487304389476776,0.0,0.0,0.0,0.0,0.2746503949165344
1663839895750104551,0.4487304389476776,0.0,0.0,0.0,0.0,0.2746503949165344
1663839895800415418,0.4487304389476776,0.0,0.0,0.0,0.0,0.2746503949165344
1663839895850074437,0.4487304389476776,0.0,0.0,0.0,0.0,0.2746503949165344
1663839895900158228,0.4637304389476776,0.0,0.0,0.0,0.0,0.2935880275121513
1663839895949986707,0.4658403694629669,0.0,0.0,0.0,0.0,0.2962518334388733
1663839896000637410,0.472152978181839,0.0,0.0,0.0,0.0,0.3067375123500824
1663839896050300639,0.472152978181839,0.0,0.0,0.0,0.0,0.3067375123500824
1663839896100376945,0.472152978181839,0.0,0.0,0.0,0.0,0.3067375123500824
1663839896150507130,0.487152978181839,0.0,0.0,0.0,0.0,0.315884238307416
1663839896200113643,0.502152978181839,0.0,0.0,0.0,0.0,0.32503096426474964
1663839896250980125,0.517152978181839,0.0,0.0,0.0,0.0,0.3344094412180971
1663839896299920506,0.532152978181839,0.0,0.0,0.0,0.0,0.3437879181714446
1663839896349916628,0.5471529781818391,0.0,0.0,0.0,0.0,0.3531663951247921
1663839896399803481,0.5621529781818391,0.0,0.0,0.0,0.0,0.36254487207813957
1663839896449981137,0.5005265474319457,0.0,0.0,0.0,0.0,0.3311511278152466
1663839896500006549,0.5005265474319457,0.0,0.0,0.0,0.0,0.3311511278152466
1663839896550801828,0.5124948024749756,0.0,0.0,0.0,0.0,0.3394116461277008
1663839896600034637,0.5124948024749756,0.0,0.0,0.0,0.0,0.3394116461277008
1663839896650033115,0.5207971930503845,0.0,0.0,0.0,0.0,0.34567004442214966
1663839896700007382,0.5207971930503845,0.0,0.0,0.0,0.0,0.34567004442214966
1663839896750046503,0.5207971930503845,0.0,0.0,0.0,0.0,0.34567004442214966
1663839896799939359,0.5269052386283873,0.0,0.0,0.0,0.0,0.3477860689163208
1663839896850247396,0.5269052386283873,0.0,0.0,0.0,0.0,0.3477860689163208
1663839896899961119,0.5269052386283873,0.0,0.0,0.0,0.0,0.3477860689163208
1663839896950200940,0.5349795818328857,0.0,0.0,0.0,0.0,0.3526315689086914
1663839897000051424,0.5349795818328857,0.0,0.0,0.0,0.0,0.3526315689086914
1663839897049885164,0.5499795818328858,0.0,0.0,0.0,0.0,0.36110706860051145
1663839897099924907,0.5649795818328858,0.0,0.0,0.0,0.0,0.3695825682923315
1663839897150194886,0.5799795818328858,0.0,0.0,0.0,0.0,0.37777902901391536
1663839897200017935,0.5949795818328858,0.0,0.0,0.0,0.0,0.3859754897354992
1663839897250120851,0.6099795818328858,0.0,0.0,0.0,0.0,0.3941719504570831
1663839897300012017,0.6249795818328858,0.0,0.0,0.0,0.0,0.402368411178667
1663839897350066791,0.5636394023895264,0.0,0.0,0.0,0.0,0.36216866970062256
1663839897399995931,0.5680798292160033,0.0,0.0,0.0,0.0,0.36050349473953247
1663839897450148598,0.5680798292160033,0.0,0.0,0.0,0.0,0.3604406416416168
1663839897499988467,0.5680798292160033,0.0,0.0,0.0,0.0,0.3604406416416168
1663839897550158972,0.5718061923980713,0.0,0.0,0.0,0.0,0.35628587007522583
1663839897600000772,0.5718061923980713,0.0,0.0,0.0,0.0,0.35628587007522583
1663839897650174822,0.5718061923980713,0.0,0.0,0.0,0.0,0.35628587007522583
1663839897699949811,0.5728394985198975,0.0,0.0,0.0,0.0,0.3530855178833008
1663839897749963603,0.5728394985198975,0.0,0.0,0.0,0.0,0.3530855178833008
1663839897799912900,0.5761692523956299,0.0,0.0,0.0,0.0,0.34949013590812683
1663839897850110910,0.5761692523956299,0.0,0.0,0.0,0.0,0.34949013590812683
1663839897900063528,0.5761692523956299,0.0,0.0,0.0,0.0,0.34949013590812683
1663839897950453789,0.579551100730896,0.0,0.0,0.0,0.0,0.34709346294403076
1663839898000192206,0.579551100730896,0.0,0.0,0.0,0.0,0.34709346294403076
1663839898050083173,0.594551100730896,0.0,0.0,0.0,0.0,0.4453930192419943
1663839898100153007,0.609551100730896,0.0,0.0,0.0,0.0,0.5436925755399579
1663839898149742080,0.624551100730896,0.0,0.0,0.0,0.0,0.6419921318379215
1663839898199894611,0.5816134214401245,0.0,0.0,0.0,0.0,0.3421421945095062
1663839898250021945,0.5816134214401245,0.0,0.0,0.0,0.0,0.3421421945095062
1663839898300108181,0.5816134214401245,0.0,0.0,0.0,0.0,0.3421421945095062
1663839898350101121,0.5966134214401245,0.0,0.0,0.0,0.0,0.4479733497305451
1663839898399793915,0.6116134214401245,0.0,0.0,0.0,0.0,0.553804504951584
1663839898450317375,0.5934528852980161,0.0,0.0,0.0,0.0,0.728804504951584
1663839898500080232,0.5780263543128967,0.0,0.0,0.0,0.0,0.8726646259971643
1663839898550029639,0.5780263543128967,0.0,0.0,0.0,0.0,0.8726646259971643
1663839898600662307,0.5742525458335876,0.0,0.0,0.0,0.0,0.8726646259971643
1663839898650082533,0.5742525458335876,0.0,0.0,0.0,0.0,0.8726646259971643
1663839898699981776,0.5742525458335876,0.0,0.0,0.0,0.0,0.8726646259971643
1663839898750036861,0.5742525458335876,0.0,0.0,0.0,0.0,0.8726646259971643
1663839898800112273,0.56016606092453,0.0,0.0,0.0,0.0,0.6981317007977313
1663839898849860627,0.56016606092453,0.0,0.0,0.0,0.0,0.6981317007977313
1663839898899951648,0.5504468679428101,0.0,0.0,0.0,0.0,0.6981317007977313
1663839898950295184,0.5504468679428101,0.0,0.0,0.0,0.0,0.6981317007977313
1663839899006524097,0.5463119149208069,0.0,0.0,0.0,0.0,0.6981317007977313
1663839899050441658,0.5469515919685363,0.0,0.0,0.0,0.0,0.6981317007977313
1663839899099936096,0.5469515919685363,0.0,0.0,0.0,0.0,0.6981317007977313
1663839899150124645,0.5415743589401245,0.0,0.0,0.0,0.0,0.5235987755982984
1663839899200874895,0.5415743589401245,0.0,0.0,0.0,0.0,0.5235987755982984
1663839899250109513,0.5389493107795715,0.0,0.0,0.0,0.0,0.5235987755982984
1663839899300219641,0.5389493107795715,0.0,0.0,0.0,0.0,0.5235987755982984
1663839899355614972,0.5539493107795715,0.0,0.0,0.0,0.0,0.4876163653008871
1663839899399796522,0.5689493107795716,0.0,0.0,0.0,0.0,0.4516339550034758
1663839899450410002,0.5442305207252502,0.0,0.0,0.0,0.0,0.3490658503988654
1663839899500091673,0.5442305207252502,0.0,0.0,0.0,0.0,0.3490658503988654
1663839899550082517,0.5555648803710938,0.0,0.0,0.0,0.0,0.2022671103477478
1663839899599959140,0.5555648803710938,0.0,0.0,0.0,0.0,0.2022671103477478
1663839899650090111,0.5555648803710938,0.0,0.0,0.0,0.0,0.2022671103477478
1663839899699928417,0.5598735809326172,0.0,0.0,0.0,0.0,0.1888415813446045
1663839899750014746,0.5598735809326172,0.0,0.0,0.0,0.0,0.1888415813446045
1663839899800097924,0.5748735809326172,0.0,0.0,0.0,0.0,0.20199908885381274
1663839899850086920,0.5898735809326172,0.0,0.0,0.0,0.0,0.21515659636302098
1663839899899935346,0.6048735809326172,0.0,0.0,0.0,0.0,0.22831410387222922
1663839899951564296,0.5555012822151184,0.0,0.0,0.0,0.0,0.1658572554588318
1663839900000012984,0.5555012822151184,0.0,0.0,0.0,0.0,0.1658572554588318
1663839900050027605,0.5555012822151184,0.0,0.0,0.0,0.0,0.1658572554588318
1663839900099915313,0.5536255240440369,0.0,0.0,0.0,0.0,0.16045106947422028
1663839900150222935,0.550685465335846,0.0,0.0,0.0,0.0,0.15619726479053497
1663839900199818902,0.550685465335846,0.0,0.0,0.0,0.0,0.15619726479053497
1663839900250008306,0.541326642036438,0.0,0.0,0.0,0.0,0.15279649198055267
1663839900300050755,0.541326642036438,0.0,0.0,0.0,0.0,0.15279649198055267
1663839900350112353,0.541326642036438,0.0,0.0,0.0,0.0,0.15279649198055267
1663839900400077925,0.5236903429031372,0.0,0.0,0.0,0.0,0.14931868016719818
1663839900450208100,0.5043625235557556,0.0,0.0,0.0,0.0,0.14523443579673767
1663839900500040649,0.4838378131389618,0.0,0.0,0.0,0.0,0.14017711579799652
1663839900549915789,0.4838378131389618,0.0,0.0,0.0,0.0,0.14017711579799652
1663839900599897118,0.4838378131389618,0.0,0.0,0.0,0.0,0.14017711579799652
1663839900650221565,0.4838378131389618,0.0,0.0,0.0,0.0,0.14017711579799652
1663839900700247494,0.47045627236366266,0.0,0.0,0.0,0.0,0.13968032598495483
1663839900750700440,0.456584632396698,0.0,0.0,0.0,0.0,0.14064563810825348
1663839900799907764,0.456584632396698,0.0,0.0,0.0,0.0,0.14064563810825348
1663839900849969235,0.44754913449287415,0.0,0.0,0.0,0.0,0.14460186660289764
1663839900899889970,0.44754913449287415,0.0,0.0,0.0,0.0,0.14460186660289764
1663839900950106983,0.4438178837299347,0.0,0.0,0.0,0.0,0.15182802081108093
1663839901000027503,0.4438178837299347,0.0,0.0,0.0,0.0,0.15182802081108093
1663839901049984110,0.4357474446296692,0.0,0.0,0.0,0.0,0.15863242745399475
1663839901099880680,0.4357474446296692,0.0,0.0,0.0,0.0,0.15863242745399475
1663839901155866944,0.427707701921463,0.0,0.0,0.0,0.0,0.16634003818035126
1663839901200034437,0.427707701921463,0.0,0.0,0.0,0.0,0.16634003818035126
1663839901250496712,0.4206078946590423,0.0,0.0,0.0,0.0,0.17421966791152954
1663839901300033578,0.4206078946590423,0.0,0.0,0.0,0.0,0.17421966791152954
1663839901355006047,0.4206078946590423,0.0,0.0,0.0,0.0,0.17421966791152954
1663839901405537080,0.4206078946590423,0.0,0.0,0.0,0.0,0.17421966791152954
1663839901450377028,0.4022255539894104,0.0,0.0,0.0,0.0,0.18881107866764069
1663839901500232125,0.39451640844345087,0.0,0.0,0.0,0.0,0.19628356397151947
1663839901549917964,0.39451640844345087,0.0,0.0,0.0,0.0,0.19628356397151947
1663839901599821467,0.39451640844345087,0.0,0.0,0.0,0.0,0.19628356397151947
1663839901650258305,0.3930512070655823,0.0,0.0,0.0,0.0,0.20758366584777832
1663839901700176511,0.3930512070655823,0.0,0.0,0.0,0.0,0.20758366584777832
1663839901749950765,0.39189612865448,0.0,0.0,0.0,0.0,0.21953989565372467
1663839901800046472,0.39189612865448,0.0,0.0,0.0,0.0,0.21953989565372467
1663839901850437548,0.38693869113922114,0.0,0.0,0.0,0.0,0.2291075885295868
1663839901900026014,0.38693869113922114,0.0,0.0,0.0,0.0,0.2291075885295868
1663839901950310561,0.3762350380420685,0.0,0.0,0.0,0.0,0.23781926929950714
1663839901999981695,0.3762350380420685,0.0,0.0,0.0,0.0,0.23781926929950714
1663839902049961380,0.3762350380420685,0.0,0.0,0.0,0.0,0.23781926929950714
1663839902099844311,0.36620634794235224,0.0,0.0,0.0,0.0,0.24520839750766754
1663839902150101396,0.36620634794235224,0.0,0.0,0.0,0.0,0.24520839750766754
1663839902199996328,0.36620634794235224,0.0,0.0,0.0,0.0,0.24520839750766754
1663839902250112714,0.3514629602432251,0.0,0.0,0.0,0.0,0.26144471764564514
1663839902299944659,0.3514629602432251,0.0,0.0,0.0,0.0,0.26144471764564514
1663839902350040220,0.35021972656249994,0.0,0.0,0.0,0.0,0.27148109674453735
1663839902400116543,0.35021972656249994,0.0,0.0,0.0,0.0,0.27148109674453735
1663839902450408948,0.3496715724468231,0.0,0.0,0.0,0.0,0.28360965847969055
1663839902500095617,0.3496715724468231,0.0,0.0,0.0,0.0,0.28360965847969055
1663839902550021268,0.3496715724468231,0.0,0.0,0.0,0.0,0.28360965847969055
1663839902600063199,0.35275310277938837,0.0,0.0,0.0,0.0,0.2986387312412262
1663839902650512476,0.35275310277938837,0.0,0.0,0.0,0.0,0.2986387312412262
1663839902699833637,0.3590914011001587,0.0,0.0,0.0,0.0,0.3172886073589325
1663839902750468373,0.36122152209281916,0.0,0.0,0.0,0.0,0.33321675658226013
1663839902800104813,0.36122152209281916,0.0,0.0,0.0,0.0,0.33321675658226013
1663839902850108614,0.37622152209281917,0.0,0.0,0.0,0.0,0.3417488437374982
1663839902900035648,0.3912215220928192,0.0,0.0,0.0,0.0,0.35028093089273626
1663839902950248728,0.4062215220928192,0.0,0.0,0.0,0.0,0.35881301804797433
1663839903000035268,0.4212215220928192,0.0,0.0,0.0,0.0,0.3673451052032124
1663839903051066388,0.4362215220928192,0.0,0.0,0.0,0.0,0.38481416191590856
1663839903100000191,0.45122152209281924,0.0,0.0,0.0,0.0,0.4022832186286047
1663839903150123172,0.46591466665267944,0.0,0.0,0.0,0.0,0.41939491033554077
1663839903199989376,0.46591466665267944,0.0,0.0,0.0,0.0,0.41939491033554077
1663839903249872224,0.47401249408721924,0.0,0.0,0.0,0.0,0.44710442423820496
1663839903299985533,0.47401249408721924,0.0,0.0,0.0,0.0,0.44710442423820496
1663839903350378848,0.4815502464771271,0.0,0.0,0.0,0.0,0.46318185329437256
1663839903400041774,0.4815502464771271,0.0,0.0,0.0,0.0,0.46318185329437256
1663839903455598521,0.4815502464771271,0.0,0.0,0.0,0.0,0.46318185329437256
1663839903499932492,0.4815502464771271,0.0,0.0,0.0,0.0,0.46318185329437256
1663839903550413694,0.3941603899002075,0.0,0.0,0.0,0.0,0.4459414780139923
1663839903600077461,0.3941603899002075,0.0,0.0,0.0,0.0,0.4459414780139923
1663839903650300365,0.40916038990020753,0.0,0.0,0.0,0.0,0.45419510819527004
1663839903699899388,0.42416038990020755,0.0,0.0,0.0,0.0,0.46244873837654776
1663839903750108921,0.43916038990020756,0.0,0.0,0.0,0.0,0.4707023685578255
1663839903800073770,0.4541603899002076,0.0,0.0,0.0,0.0,0.4789559987391033
1663839903850288223,0.4353119134902954,0.0,0.0,0.0,0.0,0.4998386800289154
1663839903899920767,0.4353119134902954,0.0,0.0,0.0,0.0,0.4998386800289154
1663839903949869394,0.4353119134902954,0.0,0.0,0.0,0.0,0.4998386800289154
1663839904000055607,0.4353119134902954,0.0,0.0,0.0,0.0,0.4998386800289154
1663839904050029946,0.4503119134902954,0.0,0.0,0.0,0.0,0.5076646583159254
1663839904099873132,0.46531191349029544,0.0,0.0,0.0,0.0,0.5125102548899013
1663839904150464676,0.4753965437412262,0.0,0.0,0.0,0.0,0.5157679915428162
1663839904199926803,0.4753965437412262,0.0,0.0,0.0,0.0,0.5157679915428162
1663839904250131633,0.4753965437412262,0.0,0.0,0.0,0.0,0.5157679915428162
1663839904300137982,0.4903965437412262,0.0,0.0,0.0,0.0,0.522067831912643
1663839904350042000,0.5053965437412262,0.0,0.0,0.0,0.0,0.5283676722824698
1663839904399821566,0.5193634629249573,0.0,0.0,0.0,0.0,0.5342336297035217
1663839904450063183,0.5343634629249573,0.0,0.0,0.0,0.0,0.5364267470238062
1663839904499916996,0.5493634629249573,0.0,0.0,0.0,0.0,0.5386198643440908
1663839904550118736,0.5539449453353882,0.0,0.0,0.0,0.0,0.5392897129058838
1663839904600573528,0.40394494533538816,0.0,0.0,0.0,0.0,0.3932581304949182
1663839904650069640,0.4189449453353882,0.0,0.0,0.0,0.0,0.40638343677598565
1663839904699949620,0.4339449453353882,0.0,0.0,0.0,0.0,0.419313927538393
1663839904750096998,0.4489449453353882,0.0,0.0,0.0,0.0,0.4293105587341695
1663839904800077497,0.4639449453353882,0.0,0.0,0.0,0.0,0.439307189929946
1663839904849991767,0.47894494533538823,0.0,0.0,0.0,0.0,0.4493038211257225
1663839904900259689,0.49394494533538824,0.0,0.0,0.0,0.0,0.45930045232149896
1663839904950954472,0.5089449453353883,0.0,0.0,0.0,0.0,0.4673454077386223
1663839905000137363,0.5239449453353883,0.0,0.0,0.0,0.0,0.47539036315574573
1663839905051427162,0.5389449453353883,0.0,0.0,0.0,0.0,0.4807212127321387
1663839905100018648,0.5539449453353883,0.0,0.0,0.0,0.0,0.4860520623085316
1663839905150160008,0.5689449453353883,0.0,0.0,0.0,0.0,0.49138291188492456
1663839905201333505,0.5839449453353883,0.0,0.0,0.0,0.0,0.4924295086145153
1663839905250188959,0.5989449453353883,0.0,0.0,0.0,0.0,0.493476105344106
1663839905300103442,0.6139449453353883,0.0,0.0,0.0,0.0,0.48587531942467005
1663839905350058687,0.6289449453353884,0.0,0.0,0.0,0.0,0.478274533505234
1663839905400212270,0.6289119124412536,0.0,0.0,0.0,0.0,0.45782265067100525
1663839905450048744,0.6289119124412536,0.0,0.0,0.0,0.0,0.45782265067100525
1663839905500491727,0.6224971413612366,0.0,0.0,0.0,0.0,0.43810760974884033
1663839905550184976,0.6224971413612366,0.0,0.0,0.0,0.0,0.43810760974884033
1663839905599920586,0.6224971413612366,0.0,0.0,0.0,0.0,0.43810760974884033
1663839905650036962,0.6374971413612366,0.0,0.0,0.0,0.0,0.4430865157633378
1663839905700061764,0.6524971413612366,0.0,0.0,0.0,0.0,0.44806542177783526
1663839905750300110,0.6674971413612366,0.0,0.0,0.0,0.0,0.4530443277923327
1663839905800242592,0.5903428792953491,0.0,0.0,0.0,0.0,0.38936176896095276
1663839905851137908,0.5903428792953491,0.0,0.0,0.0,0.0,0.38936176896095276
1663839905900697599,0.5632941722869872,0.0,0.0,0.0,0.0,0.36162084341049194
1663839905950275390,0.5632941722869872,0.0,0.0,0.0,0.0,0.36162084341049194
1663839906000079666,0.5632941722869872,0.0,0.0,0.0,0.0,0.36162084341049194
1663839906052695728,0.5782941722869872,0.0,0.0,0.0,0.0,0.5320908121107235
1663839906099891652,0.5929044485092162,0.0,0.0,0.0,0.0,0.6981317007977313
1663839906150526866,0.47863966226577753,0.0,0.0,0.0,0.0,0.28632494807243347
1663839906200038296,0.47863966226577753,0.0,0.0,0.0,0.0,0.28542783856391907
1663839906250031182,0.4514927566051482,0.0,0.0,0.0,0.0,0.26554542779922485
1663839906299979253,0.4514927566051482,0.0,0.0,0.0,0.0,0.26554542779922485
1663839906350172989,0.4514927566051482,0.0,0.0,0.0,0.0,0.26554542779922485
1663839906400607601,0.4514927566051482,0.0,0.0,0.0,0.0,0.26554542779922485
1663839906452252149,0.41803041100502014,0.0,0.0,0.0,0.0,0.23992155492305756
1663839906499933817,0.41803041100502014,0.0,0.0,0.0,0.0,0.23992155492305756
1663839906550176088,0.38508936762809753,0.0,0.0,0.0,0.0,0.219936341047287
1663839906600080600,0.38508936762809753,0.0,0.0,0.0,0.0,0.219936341047287
1663839906650102182,0.40008936762809755,0.0,0.0,0.0,0.0,0.2300276077414809
1663839906700014065,0.41508936762809756,0.0,0.0,0.0,0.0,0.2401188744356748
1663839906750791299,0.3123614192008972,0.0,0.0,0.0,0.0,0.17541366815567017
1663839906800170565,0.3123614192008972,0.0,0.0,0.0,0.0,0.17541366815567017
1663839906850098526,0.32736141920089723,0.0,0.0,0.0,0.0,0.18573736149485354
1663839906900073902,0.34236141920089724,0.0,0.0,0.0,0.0,0.1960610548340369
1663839906950104652,0.24560703337192535,0.0,0.0,0.0,0.0,0.1371292620897293
1663839907000210673,0.24560703337192535,0.0,0.0,0.0,0.0,0.1371292620897293
1663839907050226865,0.24560703337192535,0.0,0.0,0.0,0.0,0.1371292620897293
1663839907100399389,0.2148305773735046,0.0,0.0,0.0,0.0,0.11990806460380554
1663839907150172087,0.1816287487745285,0.0,0.0,0.0,0.0,0.10161878913640976
1663839907200241386,0.1816287487745285,0.0,0.0,0.0,0.0,0.10161878913640976
1663839907250172419,0.1816287487745285,0.0,0.0,0.0,0.0,0.10161878913640976
1663839907300246779,0.15548761188983917,0.0,0.0,0.0,0.0,0.08720855414867401
1663839907350874777,0.15548761188983917,0.0,0.0,0.0,0.0,0.08720855414867401
1663839907400191732,0.12832008302211761,0.0,0.0,0.0,0.0,0.07369180023670197
1663839907450581994,0.10495395958423615,0.0,0.0,0.0,0.0,0.06253068149089813
1663839907499990237,0.10495395958423615,0.0,0.0,0.0,0.0,0.06253068149089813
1663839907550443256,0.10495395958423615,0.0,0.0,0.0,0.0,0.06253068149089813
1663839907600659544,0.08277617394924164,0.0,0.0,0.0,0.0,0.05008562654256821
1663839907650219420,0.08277617394924164,0.0,0.0,0.0,0.0,0.05008562654256821
1663839907699979494,0.08277617394924164,0.0,0.0,0.0,0.0,0.05008562654256821
1663839907749899811,0.09777617394924164,0.0,0.0,0.0,0.0,0.059493361494128136
1663839907800046975,0.11277617394924164,0.0,0.0,0.0,0.0,0.06890109644568806
1663839907849885222,0.12777617394924162,0.0,0.0,0.0,0.0,0.078308831397248
1663839907899835401,0.14277617394924164,0.0,0.0,0.0,0.0,0.08771656634880791
1663839907950026049,0.028431946411728852,0.0,0.0,0.0,0.0,0.022366710007190704
1663839908000170658,0.01353159174323082,0.0,0.0,0.0,0.0,0.01598254032433033
1663839908050305158,0.007546256296336651,0.0,0.0,0.0,0.0,0.01245060283690691
1663839908100017592,0.007546256296336651,0.0,0.0,0.0,0.0,0.01245060283690691
1663839908150108114,0.007546256296336651,0.0,0.0,0.0,0.0,0.01245060283690691
1663839908201370368,0.0062484956195972535,0.0,0.0,0.0,0.0,0.18745060283690693
1663839908250400921,0.004950734942857856,0.0,0.0,0.0,0.0,0.36245060283690694
1663839908300025924,0.003652974266118459,0.0,0.0,0.0,0.0,0.5374506028369069
1663839908350757344,0.0024404979718384576,0.0,0.0,0.0,0.0,0.712450602836907
1663839908400117414,0.001228021677558456,0.0,0.0,0.0,0.0,0.887450602836907
1663839908450769545,0.0,0.0,0.0,0.0,0.0,1.0291630227834296
1663839908500238277,0.0,0.0,0.0,0.0,0.0,1.0291630227834296
1663839908550570110,0.0,0.0,0.0,0.0,0.0,1.0291630227834296
1663839908600071896,0.0,0.0,0.0,0.0,0.0,1.0784304063267427
1663839908650049110,0.0,0.0,0.0,0.0,0.0,1.0784304063267427
1663839908699861861,0.0,0.0,0.0,0.0,0.0,1.0823696402278498
1663839908750049222,0.0,0.0,0.0,0.0,0.0,1.0200176171389415
1663839908800121361,0.0,0.0,0.0,0.0,0.0,1.0200176171389415
1663839908850030347,0.0,0.0,0.0,0.0,0.0,1.0200176171389415
1663839908899801754,0.0,0.0,0.0,0.0,0.0,1.0339408733225166
1663839908950440800,0.0,0.0,0.0,0.0,0.0,1.0339408733225166
1663839909000183411,0.0,0.0,0.0,0.0,0.0,0.9776766120785213
1663839909050266683,0.0,0.0,0.0,0.0,0.0,0.9776766120785213
1663839909100176046,0.0,0.0,0.0,0.0,0.0,0.9776766120785213
1663839909150009588,0.0,0.0,0.0,0.0,0.0,0.9554448912414983
1663839909200658491,0.0,0.0,0.0,0.0,0.0,0.9554448912414983
1663839909250136078,0.0,0.0,0.0,0.0,0.0,0.8951237914327762
1663839909300130637,0.0,0.0,0.0,0.0,0.0,0.8345282775098304
1663839909355198820,0.0,0.0,0.0,0.0,0.0,0.8345282775098304
1663839909400151171,0.0,0.0,0.0,0.0,0.0,0.8345282775098304
1663839909450834083,0.0,0.0,0.0,0.0,0.0,0.776879058026257
1663839909500471358,0.0,0.0,0.0,0.0,0.0,0.6752905124807774
1663839909550202136,0.0,0.0,0.0,0.0,0.0,0.6752905124807774
1663839909600158806,0.0,0.0,0.0,0.0,0.0,0.6752905124807774
1663839909650242806,0.0,0.0,0.0,0.0,0.0,0.5951021450329458
1663839909700099128,0.0,0.0,0.0,0.0,0.0,0.5951021450329458
1663839909750119099,0.0,0.0,0.0,0.0,0.0,0.47846117230387664
1663839909799979188,0.0,0.0,0.0,0.0,0.0,0.37333232386323434
1663839909850596768,0.0,0.0,0.0,0.0,0.0,0.37333232386323434
1663839909900006219,0.0,0.0,0.0,0.0,0.0,0.26815561835083146
1663839909950243968,0.0,0.0,0.0,0.0,0.0,0.26815561835083146
1663839910000065529,0.0,0.0,0.0,0.0,0.0,0.26815561835083146
1663839910050608535,0.0,0.0,0.0,0.0,0.0,0.16222349656990598
1663839910100208979,0.0,0.0,0.0,0.0,0.0,0.060976089923525774
1663839910150195104,0.0,0.0,0.0,0.0,0.0,0.060976089923525774
1663839910199826595,0.0,0.0,0.0,0.0,0.0,0.060976089923525774
1663839910251293151,0.015,0.0,0.0,0.0,0.0,-0.058897535926215876
1663839910300074736,0.015143792144954205,0.0,0.0,0.0,0.0,-0.060046661645174026
1663839910350137465,0.024246944114565846,0.0,0.0,0.0,0.0,0.05932816490530968
1663839910399791324,0.024246944114565846,0.0,0.0,0.0,0.0,0.05932816490530968
1663839910449950768,0.038889288902282715,0.0,0.0,0.0,0.0,0.05366063490509987
1663839910500121636,0.038889288902282715,0.0,0.0,0.0,0.0,0.05366063490509987
1663839910550084946,0.038889288902282715,0.0,0.0,0.0,0.0,0.05366063490509987
1663839910600824762,0.038889288902282715,0.0,0.0,0.0,0.0,0.05366063490509987
1663839910650036889,0.053889288902282714,0.0,0.0,0.0,0.0,0.05000391013621993
1663839910700009798,0.05779821053147316,0.0,0.0,0.0,0.0,0.049050986766815186
1663839910750329511,0.07279821053147316,0.0,0.0,0.0,0.0,0.02637438356339872
1663839910800113011,0.08779821053147316,0.0,0.0,0.0,0.0,0.029797226685390726
1663839910849918691,0.09368466585874557,0.0,0.0,0.0,0.0,0.03104476071894169
1663839910899980649,0.09368466585874557,0.0,0.0,0.0,0.0,0.03104476071894169
1663839910950215665,0.10868466585874557,0.0,0.0,0.0,0.0,0.008828577631952994
1663839910999942930,0.12368466585874557,0.0,0.0,0.0,0.0,-0.013387605455035697
1663839911049900807,0.13868466585874556,0.0,0.0,0.0,0.0,-0.03255368092897362
1663839911100008124,0.15368466585874557,0.0,0.0,0.0,0.0,-0.051719756402911536
1663839911150021094,0.16868466585874559,0.0,0.0,0.0,0.0,-0.07088583187684946
1663839911200123415,0.177103579044342,0.0,0.0,0.0,0.0,-0.0816430002450943
1663839911250106410,0.177103579044342,0.0,0.0,0.0,0.0,-0.0816430002450943
1663839911299883515,0.1854753792285919,0.0,0.0,0.0,0.0,-0.0867992714047432
1663839911350609527,0.18568409979343412,0.0,0.0,0.0,0.0,-0.08890677988529205
1663839911400066273,0.18568409979343412,0.0,0.0,0.0,0.0,-0.08890677988529205
1663839911449900371,0.10831953585147856,0.0,0.0,0.0,0.0,0.007897485978901386
1663839911500760963,0.10831953585147856,0.0,0.0,0.0,0.0,0.007897485978901386
1663839911550144395,0.10831953585147856,0.0,0.0,0.0,0.0,0.007897485978901386
1663839911600915412,0.10831953585147856,0.0,0.0,0.0,0.0,0.007897485978901386
1663839911650083155,0.12331953585147856,0.0,0.0,0.0,0.0,-0.011983028509365026
1663839911700775481,0.13831953585147855,0.0,0.0,0.0,0.0,-0.03186354299763144
1663839911749964965,0.15331953585147856,0.0,0.0,0.0,0.0,-0.051744057485897846
1663839911800472698,0.16831953585147857,0.0,0.0,0.0,0.0,-0.08038239609179948
1663839911850353832,0.17166313529014587,0.0,0.0,0.0,0.0,-0.0867660716176033
1663839911900026084,0.17166313529014587,0.0,0.0,0.0,0.0,-0.0867660716176033
1663839911949920046,0.1517353057861328,0.0,0.0,0.0,0.0,-0.08320727199316025
1663839912000038880,0.1517353057861328,0.0,0.0,0.0,0.0,-0.08320727199316025
1663839912049986416,0.1517353057861328,0.0,0.0,0.0,0.0,-0.08320727199316025
1663839912099926956,0.13904047012329102,0.0,0.0,0.0,0.0,-0.0800488218665123
1663839912149896870,0.13946694135665894,0.0,0.0,0.0,0.0,-0.08043629676103592
1663839912200134497,0.13946694135665894,0.0,0.0,0.0,0.0,-0.08043629676103592
1663839912250232933,0.12078063935041428,0.0,0.0,0.0,0.0,-0.07520873099565506
1663839912299989538,0.12078063935041428,0.0,0.0,0.0,0.0,-0.07520873099565506
1663839912349923451,0.1136181503534317,0.0,0.0,0.0,0.0,-0.07234515249729156
1663839912400065356,0.1136181503534317,0.0,0.0,0.0,0.0,-0.07234515249729156
1663839912450209671,0.10123387724161148,0.0,0.0,0.0,0.0,-0.06769747287034988
1663839912500285264,0.10123387724161148,0.0,0.0,0.0,0.0,-0.06769747287034988
1663839912550248150,0.08813481777906416,0.0,0.0,0.0,0.0,-0.0621650367975235
1663839912599981016,0.08813481777906416,0.0,0.0,0.0,0.0,-0.0621650367975235
1663839912650685066,0.08813481777906416,0.0,0.0,0.0,0.0,-0.0621650367975235
1663839912700147370,0.08813481777906416,0.0,0.0,0.0,0.0,-0.0621650367975235
1663839912749987798,0.06564869731664656,0.0,0.0,0.0,0.0,-0.051949672400951385
1663839912800074512,0.06564869731664656,0.0,0.0,0.0,0.0,-0.051949672400951385
1663839912849994586,0.050137572639863175,0.0,0.0,0.0,0.0,-0.2269496724009514
1663839912900327625,0.03462644796307979,0.0,0.0,0.0,0.0,-0.4019496724009514
1663839912950037413,0.0191153232862964,0.0,0.0,0.0,0.0,-0.5769496724009514
1663839912999910919,0.005601471472236715,0.0,0.0,0.0,0.0,-0.7519496724009515
1663839913049900726,0.0,0.0,0.0,0.0,0.0,-0.8244869120517203
1663839913100176225,0.0,0.0,0.0,0.0,0.0,-0.8244869120517203
1663839913150179016,0.0,0.0,0.0,0.0,0.0,-0.8403517195966849
1663839913199855160,0.0,0.0,0.0,0.0,0.0,-0.8403517195966849
1663839913249929091,0.0,0.0,0.0,0.0,0.0,-0.8403517195966849
1663839913301723615,0.0,0.0,0.0,0.0,0.0,-0.842389877775671
1663839913350030355,0.0,0.0,0.0,0.0,0.0,-0.842389877775671
1663839913399968115,0.0,0.0,0.0,0.0,0.0,-0.8427870769338721
1663839913450013254,0.0,0.0,0.0,0.0,0.0,-0.8427870769338721
1663839913500114157,0.0,0.0,0.0,0.0,0.0,-0.8427870769338721
1663839913550070519,0.0,0.0,0.0,0.0,0.0,-0.8193353146831738
1663839913600115481,0.0,0.0,0.0,0.0,0.0,-0.8193353146831738
1663839913649827152,0.0,0.0,0.0,0.0,0.0,-0.7860245157892952
1663839913700308748,0.0,0.0,0.0,0.0,0.0,-0.7791538497354298
1663839913750082113,0.0,0.0,0.0,0.0,0.0,-0.7791538497354298
1663839913800588768,0.0,0.0,0.0,0.0,0.0,-0.7503348980658558
1663839913849831855,0.0,0.0,0.0,0.0,0.0,-0.7071331797022192
1663839913900270047,0.0,0.0,0.0,0.0,0.0,-0.7071331797022192
1663839913949873957,0.0,0.0,0.0,0.0,0.0,-0.7071331797022192
1663839914004104923,0.0,0.0,0.0,0.0,0.0,-0.6622140844662421
1663839914049945406,0.0,0.0,0.0,0.0,0.0,-0.6622140844662421
1663839914100124977,0.0,0.0,0.0,0.0,0.0,-0.6622140844662421
1663839914150013809,0.0,0.0,0.0,0.0,0.0,-0.6622140844662421
1663839914200637666,0.0,0.0,0.0,0.0,0.0,-0.5686243279165265
1663839914249956468,0.0,0.0,0.0,0.0,0.0,-0.5686243279165265
1663839914300530775,0.0,0.0,0.0,0.0,0.0,-0.5052603849031063
1663839914350341303,0.0,0.0,0.0,0.0,0.0,-0.5005108761564947
1663839914400047378,0.0,0.0,0.0,0.0,0.0,-0.5005108761564947
1663839914450038050,0.0,0.0,0.0,0.0,0.0,-0.45553763608965414
1663839914500049923,0.0,0.0,0.0,0.0,0.0,-0.45553763608965414
1663839914549927900,0.0,0.0,0.0,0.0,0.0,-0.39533667188242094
1663839914600418277,0.0,0.0,0.0,0.0,0.0,-0.39533667188242094
1663839914650056269,0.0,0.0,0.0,0.0,0.0,-0.39533667188242094
1663839914700064178,0.0,0.0,0.0,0.0,0.0,-0.3458382717224293
1663839914749761464,0.0,0.0,0.0,0.0,0.0,-0.3458382717224293
1663839914801296112,0.0,0.0,0.0,0.0,0.0,-0.29770452842430783
1663839914850024283,0.0,0.0,0.0,0.0,0.0,-0.29770452842430783
1663839914900167093,0.0,0.0,0.0,0.0,0.0,-0.29770452842430783
1663839914950367495,0.0,0.0,0.0,0.0,0.0,-0.25801495911036215
1663839915006979571,0.0,0.0,0.0,0.0,0.0,-0.21757416319578207
1663839915050528874,0.0,0.0,0.0,0.0,0.0,-0.21757416319578207
1663839915100134537,0.0,0.0,0.0,0.0,0.0,-0.21757416319578207
1663839915150157147,0.0,0.0,0.0,0.0,0.0,-0.19048055624181262
1663839915199786355,0.0,0.0,0.0,0.0,0.0,-0.19048055624181262
1663839915251228459,0.0,0.0,0.0,0.0,0.0,-0.1630115937184656
1663839915299975947,0.0,0.0,0.0,0.0,0.0,-0.1630115937184656
1663839915349901270,0.0,0.0,0.0,0.0,0.0,-0.14473026231410557
1663839915400082909,0.0,0.0,0.0,0.0,0.0,-0.14473026231410557
1663839915450106732,0.0,0.0,0.0,0.0,0.0,-0.14473026231410557
1663839915500015972,0.0,0.0,0.0,0.0,0.0,-0.14473026231410557
1663839915550222672,0.0,0.0,0.0,0.0,0.0,-0.11869846541156981
1663839915600027503,0.0,0.0,0.0,0.0,0.0,-0.11869846541156981
1663839915650539845,0.0,0.0,0.0,0.0,0.0,-0.10466948954312956
1663839915700154110,0.0,0.0,0.0,0.0,0.0,-0.10466948954312956
1663839915750175733,0.0,0.0,0.0,0.0,0.0,-0.10466948954312956
1663839915800383454,0.0,0.0,0.0,0.0,0.0,-0.10370422683611742
1663839915850084013,0.0,0.0,0.0,0.0,0.0,-0.10370422683611742
1663839915900393079,0.0,0.0,0.0,0.0,0.0,-0.10108460798511686
1663839915950017754,0.0,0.0,0.0,0.0,0.0,-0.10108460798511686
1663839916000300865,0.0,0.0,0.0,0.0,0.0,-0.1016265260730878
1663839916049900598,0.0,0.0,0.0,0.0,0.0,-0.1016265260730878
1663839916100175489,0.0,0.0,0.0,0.0,0.0,-0.1016265260730878
1663839916149979823,0.0,0.0,0.0,0.0,0.0,-0.10406984234073619
1663839916201116026,0.0,0.0,0.0,0.0,0.0,-0.10476163772168409
1663839916250034965,0.0,0.0,0.0,0.0,0.0,-0.10476163772168409
1663839916301500127,0.0,0.0,0.0,0.0,0.0,-0.10476163772168409
1663839916350394971,0.0,0.0,0.0,0.0,0.0,-0.11267531256071238
1663839916400436079,0.0,0.0,0.0,0.0,0.0,-0.11267531256071238
1663839916450273767,0.0,0.0,0.0,0.0,0.0,-0.1153003867905622
1663839916500158573,0.0,0.0,0.0,0.0,0.0,-0.1153003867905622
1663839916549913055,0.0,0.0,0.0,0.0,0.0,-0.1153003867905622
1663839916604142710,0.0,0.0,0.0,0.0,0.0,-0.12841263644644837
1663839916650033257,0.0,0.0,0.0,0.0,0.0,-0.12841263644644837
1663839916700252625,0.0,0.0,0.0,0.0,0.0,-0.1279786594027457
1663839916750165322,0.0,0.0,0.0,0.0,0.0,-0.12587141471814292
1663839916800182140,0.0,0.0,0.0,0.0,0.0,-0.12556356867737758
1663839916850005663,0.0,0.0,0.0,0.0,0.0,-0.12556356867737758
1663839916900294180,0.0,0.0,0.0,0.0,0.0,-0.12556356867737758
1663839916950890242,0.0,0.0,0.0,0.0,0.0,-0.12692322657575061
1663839917000592360,0.0,0.0,0.0,0.0,0.0,-0.1188228735179244
1663839917050036573,0.0,0.0,0.0,0.0,0.0,-0.1188228735179244
1663839917101089626,0.0,0.0,0.0,0.0,0.0,-0.1188228735179244
