%time,field.linear.x,field.linear.y,field.linear.z,field.angular.x,field.angular.y,field.angular.z
1666089218311571779,0.41287440061569214,0.0,0.0,0.0,0.0,-1.3962634015954642
1666089218360216779,0.3918062448501587,0.0,0.0,0.0,0.0,-1.3962634015954642
1666089218491021644,0.3572530746459961,0.0,0.0,0.0,0.0,-1.3962634015954642
1666089218544251299,0.34211319684982294,0.0,0.0,0.0,0.0,-1.5707963267948972
1666089218570365471,0.34218424558639526,0.0,0.0,0.0,0.0,-1.5707963267948972
1666089218657228763,0.17586919665336603,0.0,0.0,0.0,0.0,-1.3962634015954642
1666089218745448269,0.33558434247970576,0.0,0.0,0.0,0.0,-1.5707963267948972
1666089218788026540,0.33775410056114197,0.0,0.0,0.0,0.0,-1.5707963267948972
1666089218867960264,0.17090162634849543,0.0,0.0,0.0,0.0,-1.3962634015954642
1666089218956552289,0.32484912872314453,0.0,0.0,0.0,0.0,-1.5707963267948972
1666089219051650013,0.3292929530143738,0.0,0.0,0.0,0.0,-1.5707963267948972
1666089219167480634,0.33371010422706604,0.0,0.0,0.0,0.0,-1.5707963267948972
1666089219258246461,0.17624473571777344,0.0,0.0,0.0,0.0,-1.3962634015954642
1666089219345601018,0.34205880761146545,0.0,0.0,0.0,0.0,-1.3962634015954642
1666089219377623320,0.3420223295688629,0.0,0.0,0.0,0.0,-1.3962634015954642
1666089219496824336,0.3447361886501312,0.0,0.0,0.0,0.0,-1.3962634015954642
1666089219513304208,0.3438121676445007,0.0,0.0,0.0,0.0,-1.3962634015954642
1666089219636711704,0.3464255630970001,0.0,0.0,0.0,0.0,-1.2217304763960313
1666089219650451616,0.34662550687789917,0.0,0.0,0.0,0.0,-1.2217304763960313
1666089219738787278,0.0,0.0,0.0,0.0,0.0,-0.8726646259971653
1666089219765269301,0.0,0.0,0.0,0.0,0.0,-0.8726646259971653
1666089219857999200,0.0,0.0,0.0,0.0,0.0,-0.6446937096607637
1666089219945962411,0.0,0.0,0.0,0.0,0.0,-0.5235987755982994
1666089219989098167,0.0,0.0,0.0,0.0,0.0,-0.5292907254199738
1666089220044994838,0.0,0.0,0.0,0.0,0.0,-0.40643328174404303
1666089220153656451,0.0,0.0,0.0,0.0,0.0,-0.27374507531392706
1666089220196752809,0.0,0.0,0.0,0.0,0.0,-0.17453292519943345
1666089220287626997,0.0,0.0,0.0,0.0,0.0,-4.996003610813204e-16
1666089220381247955,0.0,0.0,0.0,0.0,0.0,0.17453292519943245
1666089220384312871,0.0,0.0,0.0,0.0,0.0,0.17453292519943245
1666089220445068006,0.0,0.0,0.0,0.0,0.0,0.17453292519943245
1666089220582168310,0.0,0.0,0.0,0.0,0.0,0.27581185909238864
1666089220629510139,0.0,0.0,0.0,0.0,0.0,0.3182270809994975
1666089220686876047,0.0,0.0,0.0,0.0,0.0,0.3583391696913161
1666089220749662576,0.0,0.0,0.0,0.0,0.0,0.39071991954431123
1666089220841371670,0.0,0.0,0.0,0.0,0.0,0.4212461136674401
1666089220928810484,0.0,0.0,0.0,0.0,0.0,0.44243620801460065
1666089221005510891,0.0,0.0,0.0,0.0,0.0,0.4555129488113287
1666089221049534920,0.0,0.0,0.0,0.0,0.0,0.39620147900532543
1666089221137788485,0.0,0.0,0.0,0.0,0.0,0.36365794682509794
1666089221233349352,0.0,0.0,0.0,0.0,0.0,0.33238034847535775
1666089221277037884,0.0,0.0,0.0,0.0,0.0,0.29876558060439035
1666089221286155674,0.0,0.0,0.0,0.0,0.0,0.3005511129044298
1666089221441010902,0.0,0.0,0.0,0.0,0.0,0.29812194479545606
1666089221515490690,0.0,0.0,0.0,0.0,0.0,0.2723050947639104
1666089221529742070,0.0,0.0,0.0,0.0,0.0,0.2674606649502153
1666089221589212576,0.0,0.0,0.0,0.0,0.0,0.2513505166823726
1666089221689506930,0.0,0.0,0.0,0.0,0.0,0.17453292519943245
1666089221733485168,0.0,0.0,0.0,0.0,0.0,0.17453292519943245
1666089221854444316,0.0,0.0,0.0,0.0,0.0,0.17453292519943245
1666089221948454400,0.0,0.0,0.0,0.0,0.0,0.17453292519943245
1666089221990049457,0.0,0.0,0.0,0.0,0.0,0.17453292519943245
1666089222033678715,0.0,0.0,0.0,0.0,0.0,-4.996003610813204e-16
1666089222109362867,0.0,0.0,0.0,0.0,0.0,-4.996003610813204e-16
1666089222196870685,0.0,0.0,0.0,0.0,0.0,-4.996003610813204e-16
1666089222329107702,0.0,0.0,0.0,0.0,0.0,-4.996003610813204e-16
1666089222352980631,0.0,0.0,0.0,0.0,0.0,-4.996003610813204e-16
1666089222454522111,0.0,0.0,0.0,0.0,0.0,-4.996003610813204e-16
1666089222542368109,0.0,0.0,0.0,0.0,0.0,-4.996003610813204e-16
1666089222686901103,0.0,0.0,0.0,0.0,0.0,-0.17453292519943345
1666089222709774100,0.0,0.0,0.0,0.0,0.0,-0.214424366347671
1666089222764743850,0.0,0.0,0.0,0.0,0.0,-0.251093504857314
1666089222892739491,0.0,0.0,0.0,0.0,0.0,-0.2899252458973004
1666089222966810376,0.0,0.0,0.0,0.0,0.0,-0.3170228206328101
1666089223057284399,0.0,0.0,0.0,0.0,0.0,-0.3490658503988664
1666089223105276963,0.0,0.0,0.0,0.0,0.0,-0.3651294280375737
1666089223190853392,0.0,0.0,0.0,0.0,0.0,-0.40996808385880623
1666089223205191124,0.0,0.0,0.0,0.0,0.0,-0.4015298253899326
1666089223317848925,0.0,0.0,0.0,0.0,0.0,-0.44243245902944667
1666089223371834923,0.0,0.0,0.0,0.0,0.0,-0.4522614852260033
1666089223534400592,0.0,0.0,0.0,0.0,0.0,-0.48156117338771603
1666089223584500481,0.0,0.0,0.0,0.0,0.0,-0.4784601080945529
1666089223629165610,0.0,0.0,0.0,0.0,0.0,-0.4898957170674077
1666089223688707582,0.41966030001640314,0.0,0.0,0.0,0.0,-0.15674379467964172
1666089223758887676,0.43823468685150146,0.0,0.0,0.0,0.0,-0.16212645173072815
1666089223856474481,0.49168103933334345,0.0,0.0,0.0,0.0,-0.17796018719673157
1666089223900832359,0.491254597902298,0.0,0.0,0.0,0.0,-0.17764952778816223
1666089223975972319,0.5416719913482666,0.0,0.0,0.0,0.0,-0.1948096603155136
1666089224069820465,0.5631256103515625,0.0,0.0,0.0,0.0,-0.20116755366325378
1666089224109910811,0.5626991391181945,0.0,0.0,0.0,0.0,-0.20130369067192078
1666089224195648168,0.6004191040992737,0.0,0.0,0.0,0.0,-0.2096395343542099
1666089224277737878,0.6154463291168213,0.0,0.0,0.0,0.0,-0.21133609116077423
1666089224321905244,0.6276968121528625,0.0,0.0,0.0,0.0,-0.2121211737394333
1666089224344994668,0.6372364163398743,0.0,0.0,0.0,0.0,-0.2125203013420105
1666089224463692651,0.6459211707115172,0.0,0.0,0.0,0.0,-0.3490658503988664
1666089224496242081,0.6452104449272156,0.0,0.0,0.0,0.0,-0.3490658503988664
1666089224511160287,0.6527864336967468,0.0,0.0,0.0,0.0,-0.3490658503988664
1666089224577823548,0.6609059572219849,0.0,0.0,0.0,0.0,-0.3490658503988664
1666089224711523958,0.666049063205719,0.0,0.0,0.0,0.0,-0.3490658503988664
1666089224758873833,0.6107469797134399,0.0,0.0,0.0,0.0,-0.3490658503988664
1666089224832241972,0.6762226819992064,0.0,0.0,0.0,0.0,-0.5235987755982994
1666089224921197452,0.6801952123641968,0.0,0.0,0.0,0.0,-0.5235987755982994
1666089225089590312,0.6979886293411255,0.0,0.0,0.0,0.0,-0.3490658503988664
1666089225170550514,0.706493079662323,0.0,0.0,0.0,0.0,-0.3490658503988664
1666089225230919770,0.705142617225647,0.0,0.0,0.0,0.0,-0.3490658503988664
1666089225271698865,0.6471536755561828,0.0,0.0,0.0,0.0,-0.3490658503988664
1666089225349070901,0.7193257212638854,0.0,0.0,0.0,0.0,-0.5235987755982994
1666089225529233878,0.7263271808624268,0.0,0.0,0.0,0.0,-0.5235987755982994
1666089225681633593,0.7441044449806212,0.0,0.0,0.0,0.0,-0.5235987755982994
1666089225696427825,0.7504671812057495,0.0,0.0,0.0,0.0,-0.5235987755982994
1666089225768357016,0.7582725882530212,0.0,0.0,0.0,0.0,-0.5235987755982994
1666089225872156279,0.7753295302391052,0.0,0.0,0.0,0.0,-0.5235987755982994
1666089225956138244,0.7862442135810852,0.0,0.0,0.0,0.0,-0.5235987755982994
1666089226046010474,0.7439935803413391,0.0,0.0,0.0,0.0,-0.3490658503988664
1666089226177231141,0.7999999999999999,0.0,0.0,0.0,0.0,-0.5235987755982994
1666089226253102247,0.7999999999999999,0.0,0.0,0.0,0.0,-0.5235987755982994
1666089226317468163,0.7999999999999999,0.0,0.0,0.0,0.0,-0.5235987755982994
1666089226477520582,0.758830964565277,0.0,0.0,0.0,0.0,-0.3490658503988664
1666089226492434294,0.7583334445953369,0.0,0.0,0.0,0.0,-0.3490658503988664
1666089226556063781,0.7999999999999999,0.0,0.0,0.0,0.0,-0.5235987755982994
1666089226689006132,0.7999999999999999,0.0,0.0,0.0,0.0,-0.3490658503988664
1666089226788470828,0.7999999999999999,0.0,0.0,0.0,0.0,-0.6981317007977323
1666089226845627121,0.7999999999999999,0.0,0.0,0.0,0.0,-0.6981317007977323
1666089226851400420,0.7999999999999999,0.0,0.0,0.0,0.0,-0.6981317007977323
1666089226939240577,0.7999999999999999,0.0,0.0,0.0,0.0,-0.8726646259971653
1666089227028696955,0.7999999999999999,0.0,0.0,0.0,0.0,-1.0471975511965983
1666089227120054060,0.7246368527412415,0.0,0.0,0.0,0.0,-1.0471975511965983
1666089227236904357,0.7940433621406555,0.0,0.0,0.0,0.0,-1.0471975511965983
1666089227328170820,0.7831673026084899,0.0,0.0,0.0,0.0,-1.0471975511965983
1666089227378060036,0.7728504538536072,0.0,0.0,0.0,0.0,-1.0471975511965983
1666089227492841388,0.7612369656562805,0.0,0.0,0.0,0.0,-1.0471975511965983
1666089227537749354,0.7521571516990662,0.0,0.0,0.0,0.0,-1.0471975511965983
1666089227671915350,0.7499641180038452,0.0,0.0,0.0,0.0,-1.0471975511965983
1666089227738899857,0.7450834512710571,0.0,0.0,0.0,0.0,-1.0471975511965983
1666089227752290989,0.7452256083488464,0.0,0.0,0.0,0.0,-1.0471975511965983
1666089227844635173,0.7393577694892883,0.0,0.0,0.0,0.0,-1.0471975511965983
1666089227931193592,0.7276372313499451,0.0,0.0,0.0,0.0,-1.0471975511965983
1666089228010841215,0.6320065855979919,0.0,0.0,0.0,0.0,-1.0471975511965983
1666089228096354618,0.6182578206062316,0.0,0.0,0.0,0.0,-1.0471975511965983
1666089228183042813,0.6911617517471313,0.0,0.0,0.0,0.0,-1.0471975511965983
1666089228273199154,0.6790971159934996,0.0,0.0,0.0,0.0,-1.0471975511965983
1666089228314158480,0.5816980600357056,0.0,0.0,0.0,0.0,-1.0471975511965983
1666089228371560226,0.6555175185203551,0.0,0.0,0.0,0.0,-1.2217304763960313
1666089228487360443,0.1,0.0,0.0,0.0,0.0,-0.6981317007977323
1666089228534775132,0.1,0.0,0.0,0.0,0.0,-0.6981317007977323
1666089228593266950,0.1,0.0,0.0,0.0,0.0,-0.6981317007977323
1666089228702280412,0.1,0.0,0.0,0.0,0.0,-0.6981317007977323
1666089228750734357,0.1,0.0,0.0,0.0,0.0,-0.6981317007977323
1666089228850450227,0.1,0.0,0.0,0.0,0.0,-1.0471975511965983
1666089228918771511,0.1,0.0,0.0,0.0,0.0,-0.8726646259971653
1666089229005404029,0.1,0.0,0.0,0.0,0.0,-0.8726646259971653
1666089229093964481,0.1,0.0,0.0,0.0,0.0,-0.8726646259971653
1666089229143054012,0.1,0.0,0.0,0.0,0.0,-0.8726646259971653
1666089229215078262,0.1,0.0,0.0,0.0,0.0,-0.6981317007977323
1666089229259505019,0.1,0.0,0.0,0.0,0.0,-0.3490658503988664
1666089229346545281,0.7340661883354187,0.0,0.0,0.0,0.0,-0.5235987755982994
1666089229437578897,0.7338480353355407,0.0,0.0,0.0,0.0,-0.09358970820903778
1666089229491460121,0.7267295718193054,0.0,0.0,0.0,0.0,-4.996003610813204e-16
1666089229554301920,0.725825309753418,0.0,0.0,0.0,0.0,-4.996003610813204e-16
1666089229642819408,0.7249287366867064,0.0,0.0,0.0,0.0,0.17453292519943245
1666089229732203999,0.7477189898490906,0.0,0.0,0.0,0.0,0.1325841248035431
1666089229824914131,0.7649656534194945,0.0,0.0,0.0,0.0,0.3490658503988654
1666089229944275764,0.7164509892463683,0.0,0.0,0.0,0.0,0.3490658503988654
1666089229983253718,0.7137960195541382,0.0,0.0,0.0,0.0,0.5235987755982984
1666089230075732882,0.6979583501815796,0.0,0.0,0.0,0.0,0.19056372344493866
1666089230166754812,0.6535556912422179,0.0,0.0,0.0,0.0,0.24669787287712097
1666089230171695034,0.6528449654579163,0.0,0.0,0.0,0.0,0.24729827046394348
1666089230281395578,0.601090371608734,0.0,0.0,0.0,0.0,0.2608376741409302
1666089230368168296,0.6422082185745238,0.0,0.0,0.0,0.0,0.3547731935977936
1666089230426999030,0.5116647481918335,0.0,0.0,0.0,0.0,0.2971763014793396
1666089230454667501,0.5108829736709595,0.0,0.0,0.0,0.0,0.2985655665397644
1666089230512970589,0.4834501445293426,0.0,0.0,0.0,0.0,0.3054260015487671
1666089230574958607,0.5723143219947815,0.0,0.0,0.0,0.0,0.3821091949939728
1666089230663514441,0.548521101474762,0.0,0.0,0.0,0.0,0.3825877904891968
1666089230707355980,0.4079326391220093,0.0,0.0,0.0,0.0,0.32480308413505554
1666089230811551913,0.3627096116542816,0.0,0.0,0.0,0.0,0.3490658503988654
1666089230936931891,0.33941009640693665,0.0,0.0,0.0,0.0,0.6981317007977313
1666089230965692420,0.31447166204452515,0.0,0.0,0.0,0.0,1.0471975511965972
1666089231084640927,0.2905634045600891,0.0,0.0,0.0,0.0,1.3962634015954631
1666089231100964805,0.29148736596107483,0.0,0.0,0.0,0.0,1.3962634015954631
1666089231176169419,0.27905413508415217,0.0,0.0,0.0,0.0,1.3962634015954631
1666089231268100406,0.24138501286506653,0.0,0.0,0.0,0.0,1.3962634015954631
1666089231312979353,0.24159826338291168,0.0,0.0,0.0,0.0,1.3962634015954631
1666089231355364915,0.22514384984970093,0.0,0.0,0.0,0.0,1.5707963267948961
1666089231432597400,0.36799827218055725,0.0,0.0,0.0,0.0,1.5707963267948961
1666089231528030717,0.3663725256919861,0.0,0.0,0.0,0.0,1.5707963267948961
1666089231567188814,0.23861572146415705,0.0,0.0,0.0,0.0,1.5707963267948961
1666089231655253000,0.23964330554008484,0.0,0.0,0.0,0.0,1.5707963267948961
1666089231733497669,0.2598707973957061,0.0,0.0,0.0,0.0,1.5707963267948961
1666089231793646259,0.27273914217948914,0.0,0.0,0.0,0.0,1.5707963267948961
1666089231956714070,0.4236229956150055,0.0,0.0,0.0,0.0,1.0471975511965972
1666089232015032863,0.3193991780281067,0.0,0.0,0.0,0.0,0.6981317007977313
1666089232119409503,0.34888920187950134,0.0,0.0,0.0,0.0,0.5235987755982984
1666089232209000752,0.386223018169403,0.0,0.0,0.0,0.0,0.40051305294036865
1666089232253453059,0.4246823489665985,0.0,0.0,0.0,0.0,0.37590456008911133
1666089232376413492,0.4636964797973632,0.0,0.0,0.0,0.0,0.3485947251319885
1666089232464223036,0.5398833155632019,0.0,0.0,0.0,0.0,0.3060157895088196
1666089232513368309,0.5847528576850891,0.0,0.0,0.0,0.0,0.29227933287620544
1666089232553358828,0.5849660634994507,0.0,0.0,0.0,0.0,0.29179418087005615
1666089232680089078,0.7116129994392395,0.0,0.0,0.0,0.0,0.3473086357116699
1666089232695953482,0.6650527715682983,0.0,0.0,0.0,0.0,0.25290921330451965
1666089232799654814,0.7596381306648254,0.0,0.0,0.0,0.0,0.30875223875045776
1666089232976139836,0.7067320346832275,0.0,0.0,0.0,0.0,0.5235987755982984
1666089233007338282,0.7123702764511108,0.0,0.0,0.0,0.0,0.6981317007977313
1666089233094951595,0.7153207659721375,0.0,0.0,0.0,0.0,0.6981317007977313
1666089233185118084,0.7831255793571471,0.0,0.0,0.0,0.0,0.6981317007977313
1666089233323391166,0.7198308706283569,0.0,0.0,0.0,0.0,0.8726646259971643
1666089233396218205,0.7010541558265686,0.0,0.0,0.0,0.0,0.8726646259971643
1666089233485877673,0.6944734454154968,0.0,0.0,0.0,0.0,0.8726646259971643
1666089233583770452,0.7560550570487976,0.0,0.0,0.0,0.0,0.8726646259971643
1666089233700533929,0.6787588596343994,0.0,0.0,0.0,0.0,0.8726646259971643
1666089233783043574,0.6490517854690552,0.0,0.0,0.0,0.0,0.8726646259971643
1666089233837231759,0.6489096283912659,0.0,0.0,0.0,0.0,0.8726646259971643
1666089233913725294,0.6299722790718079,0.0,0.0,0.0,0.0,0.8726646259971643
1666089233998188290,0.698974609375,0.0,0.0,0.0,0.0,0.8726646259971643
1666089234088095238,0.1,0.0,0.0,0.0,0.0,0.5235987755982984
1666089234177860243,0.1,0.0,0.0,0.0,0.0,0.6981317007977313
1666089234233946971,0.1,0.0,0.0,0.0,0.0,0.6981317007977313
1666089234343233329,0.1,0.0,0.0,0.0,0.0,0.6981317007977313
1666089234392547246,0.6313225626945496,0.0,0.0,0.0,0.0,0.8726646259971643
1666089234474290492,0.1,0.0,0.0,0.0,0.0,0.6981317007977313
1666089234556881819,0.1,0.0,0.0,0.0,0.0,0.5235987755982984
1666089234688532772,0.1,0.0,0.0,0.0,0.0,0.5235987755982984
1666089234776801619,0.1,0.0,0.0,0.0,0.0,0.5235987755982984
1666089234818499739,0.1,0.0,0.0,0.0,0.0,0.5235987755982984
1666089234940282989,0.1,0.0,0.0,0.0,0.0,0.3490658503988654
1666089234986190968,0.1,0.0,0.0,0.0,0.0,0.3490658503988654
1666089235029296483,0.1,0.0,0.0,0.0,0.0,0.3490658503988654
1666089235115710766,0.1,0.0,0.0,0.0,0.0,0.3490658503988654
1666089235205532474,0.1,0.0,0.0,0.0,0.0,0.3490658503988654
1666089235367831966,0.1,0.0,0.0,0.0,0.0,0.17453292519943245
1666089235410083937,0.1,0.0,0.0,0.0,0.0,0.17453292519943245
1666089235504112986,0.1,0.0,0.0,0.0,0.0,0.17453292519943245
1666089235545650335,0.1,0.0,0.0,0.0,0.0,0.17453292519943245
1666089235622932146,0.1,0.0,0.0,0.0,0.0,0.17453292519943245
1666089235718622383,0.1,0.0,0.0,0.0,0.0,0.0034829715732485056
1666089235796243741,0.1,0.0,0.0,0.0,0.0,-4.996003610813204e-16
1666089235880070338,0.1,0.0,0.0,0.0,0.0,-4.996003610813204e-16
1666089235922428740,0.1,0.0,0.0,0.0,0.0,-4.996003610813204e-16
1666089236000382189,0.1,0.0,0.0,0.0,0.0,-4.996003610813204e-16
1666089236087560147,0.1,0.0,0.0,0.0,0.0,-4.996003610813204e-16
1666089236174643347,0.1,0.0,0.0,0.0,0.0,-4.996003610813204e-16
1666089236220006904,0.1,0.0,0.0,0.0,0.0,-4.996003610813204e-16
1666089236268259656,0.1,0.0,0.0,0.0,0.0,-4.996003610813204e-16
1666089236343622633,0.1,0.0,0.0,0.0,0.0,-0.04925457388162613
1666089236432929482,0.1,0.0,0.0,0.0,0.0,-0.052231963723897934
1666089236520284318,0.1,0.0,0.0,0.0,0.0,-0.05425775796175003
1666089236575428044,0.1,0.0,0.0,0.0,0.0,-0.05672331154346466
1666089236686663215,0.1,0.0,0.0,0.0,0.0,-4.996003610813204e-16
1666089236732868715,0.1,0.0,0.0,0.0,0.0,-0.06354076415300369
1666089236819603409,0.1,0.0,0.0,0.0,0.0,-0.06690416485071182
1666089236867699064,0.1,0.0,0.0,0.0,0.0,-0.0712331235408783
1666089236938265395,0.1,0.0,0.0,0.0,0.0,-0.07666397094726562
1666089237036037330,0.1,0.0,0.0,0.0,0.0,0.008114888332784176
1666089237078792152,0.1,0.0,0.0,0.0,0.0,0.0025613366160541773
1666089237154755267,0.1,0.0,0.0,0.0,0.0,-0.0881858840584755
1666089237242767047,0.1,0.0,0.0,0.0,0.0,-0.008560639806091785
1666089237337699408,0.1,0.0,0.0,0.0,0.0,0.17453292519943245
1666089237421456541,0.1,0.0,0.0,0.0,0.0,0.6981317007977313
1666089237467749459,0.1,0.0,0.0,0.0,0.0,0.6981317007977313
1666089237538231832,0.1,0.0,0.0,0.0,0.0,0.6981317007977313
1666089237625635162,0.1,0.0,0.0,0.0,0.0,0.8726646259971643
1666089237670463203,0.1,0.0,0.0,0.0,0.0,1.0471975511965972
1666089237762398642,0.1,0.0,0.0,0.0,0.0,1.0471975511965972
1666089237835850609,0.1,0.0,0.0,0.0,0.0,1.5707963267948961
1666089237877451813,0.0,0.0,0.0,0.0,0.0,0.0
1666089237969629631,0.0,0.0,0.0,0.0,0.0,0.0
1666089238061524614,0.0,0.0,0.0,0.0,0.0,0.0
1666089238094345936,0.0,0.0,0.0,0.0,0.0,-0.24671955046996763
1666089238229319737,0.0,0.0,0.0,0.0,0.0,-0.29731100843326064
1666089238278998706,0.0,0.0,0.0,0.0,0.0,-0.317278670670677
1666089238336636725,0.0,0.0,0.0,0.0,0.0,-0.36203192421356145
1666089238399639667,0.0,0.0,0.0,0.0,0.0,-0.39817128021905174
1666089238485837531,0.0,0.0,0.0,0.0,0.0,-0.43083506956851053
1666089238574182430,0.0,0.0,0.0,0.0,0.0,-0.4568931600174172
1666089238701970024,0.0,0.0,0.0,0.0,0.0,-0.49739444990360904
1666089238742772073,0.0,0.0,0.0,0.0,0.0,-0.4860699859637564
1666089238781132728,0.0,0.0,0.0,0.0,0.0,-0.5017317174680062
1666089238869030237,0.0,0.0,0.0,0.0,0.0,-0.5200609923458069
1666089238958643169,0.0,0.0,0.0,0.0,0.0,-0.5313318329578184
1666089239001524475,0.0,0.0,0.0,0.0,0.0,-0.537572887245421
1666089239076830744,0.0,0.0,0.0,0.0,0.0,-0.5492653397336472
1666089239166040085,0.0,0.0,0.0,0.0,0.0,-0.558138214793298
1666089239297909257,0.0,0.0,0.0,0.0,0.0,-0.571411352059802
1666089239355705320,0.0,0.0,0.0,0.0,0.0,-0.565022638313816
1666089239376987697,0.0,0.0,0.0,0.0,0.0,-0.5608375617173721
1666089239469238703,0.0,0.0,0.0,0.0,0.0,-0.5660827017532588
1666089239575283993,0.0,0.0,0.0,0.0,0.0,-0.5613917336616253
1666089239680867188,0.0,0.0,0.0,0.0,0.0,-0.5521165104670095
1666089239773073933,0.0,0.0,0.0,0.0,0.0,-0.5358803809845977
1666089239861576496,0.0,0.0,0.0,0.0,0.0,-0.5024824627659908
1666089239875219387,0.0,0.0,0.0,0.0,0.0,-0.4962846773000117
1666089239981467199,0.0,0.0,0.0,0.0,0.0,-0.4793747196642724
1666089240166199425,0.0,0.0,0.0,0.0,0.0,-0.42812123899042664
1666089240281660325,0.0,0.0,0.0,0.0,0.0,-0.403368897455675
1666089240339979394,0.0,0.0,0.0,0.0,0.0,-0.3789359715262065
1666089240405879823,0.0,0.0,0.0,0.0,0.0,-0.35616293220194395
1666089240416867440,0.0,0.0,0.0,0.0,0.0,-0.3528882225469988
1666089240501237643,0.0,0.0,0.0,0.0,0.0,-0.33408376993794175
1666089240637053121,0.0,0.0,0.0,0.0,0.0,-0.31280583220536085
1666089240716745284,0.0,0.0,0.0,0.0,0.0,-0.28440030274034445
1666089240805228085,0.0,0.0,0.0,0.0,0.0,-0.2649817551117582
1666089240896893156,0.0,0.0,0.0,0.0,0.0,-0.246529723080322
1666089240942323675,0.0,0.0,0.0,0.0,0.0,-0.22573296388135428
1666089241021006398,0.0,0.0,0.0,0.0,0.0,0.0
1666089241153138794,0.0,0.0,0.0,0.0,0.0,0.0
1666089241197712028,0.0,0.0,0.0,0.0,0.0,0.0
1666089241254984222,0.0,0.0,0.0,0.0,0.0,0.0
1666089241360553724,0.0,0.0,0.0,0.0,0.0,0.0
1666089241409816586,0.0,0.0,0.0,0.0,0.0,0.0
1666089241482023352,0.0,0.0,0.0,0.0,0.0,0.0
1666089241621518677,0.0,0.0,0.0,0.0,0.0,0.0
1666089241701452461,0.0,0.0,0.0,0.0,0.0,0.0
1666089241793331755,0.0,0.0,0.0,0.0,0.0,0.0
1666089241885083636,0.0,0.0,0.0,0.0,0.0,0.0
1666089241964983997,0.0,0.0,0.0,0.0,0.0,0.0
1666089242053383787,0.0,0.0,0.0,0.0,0.0,0.0
1666089242142334314,0.0,0.0,0.0,0.0,0.0,0.0
1666089242195858831,0.0,0.0,0.0,0.0,0.0,0.0
1666089242309288087,0.0,0.0,0.0,0.0,0.0,0.0
1666089242396774719,0.0,0.0,0.0,0.0,0.0,0.0
1666089242460149392,0.0,0.0,0.0,0.0,0.0,0.0
1666089242569932523,0.0,0.0,0.0,0.0,0.0,0.0
1666089242660842037,0.0,0.0,0.0,0.0,0.0,0.0
1666089242713038218,0.0,0.0,0.0,0.0,0.0,0.0
1666089242781118930,0.0,0.0,0.0,0.0,0.0,0.0
1666089242872705505,0.0,0.0,0.0,0.0,0.0,0.0
1666089242961803952,0.0,0.0,0.0,0.0,0.0,0.0
1666089243063823680,0.0,0.0,0.0,0.0,0.0,0.0
1666089243081196489,0.0,0.0,0.0,0.0,0.0,0.0
1666089243176581163,0.0,0.0,0.0,0.0,0.0,0.0
1666089243257468077,0.0,0.0,0.0,0.0,0.0,0.0
1666089243305208122,0.0,0.0,0.0,0.0,0.0,0.0
1666089243358545204,0.0,0.0,0.0,0.0,0.0,0.0
1666089243471030609,0.0,0.0,0.0,0.0,0.0,0.0
1666089243561850133,0.0,0.0,0.0,0.0,0.0,0.0
1666089243605287492,0.0,0.0,0.0,0.0,0.0,0.0
1666089243683052834,0.0,0.0,0.0,0.0,0.0,0.0
1666089243770346084,0.0,0.0,0.0,0.0,0.0,0.0
1666089243861002531,0.0,0.0,0.0,0.0,0.0,0.0
1666089243907629809,0.0,0.0,0.0,0.0,0.0,0.0
1666089243988616818,0.0,0.0,0.0,0.0,0.0,0.0
1666089244117073381,0.0,0.0,0.0,0.0,0.0,0.0
1666089244217073487,0.0,0.0,0.0,0.0,0.0,0.0
1666089244325927916,0.0,0.0,0.0,0.0,0.0,0.0
1666089244416872841,0.0,0.0,0.0,0.0,0.0,0.0
1666089244509523874,0.0,0.0,0.0,0.0,0.0,0.0
1666089244582093945,0.0,0.0,0.0,0.0,0.0,0.0
1666089244718209662,0.0,0.0,0.0,0.0,0.0,0.0
1666089244758201092,0.0,0.0,0.0,0.0,0.0,0.0
1666089244845002336,0.0,0.0,0.0,0.0,0.0,0.0
1666089244878904883,0.0,0.0,0.0,0.0,0.0,0.0
1666089244969815348,0.0,0.0,0.0,0.0,0.0,0.0
1666089245061649732,0.0,0.0,0.0,0.0,0.0,0.0
1666089245185942064,0.0,0.0,0.0,0.0,0.0,0.0
1666089245273284542,0.0,0.0,0.0,0.0,0.0,0.0
1666089245319312842,0.0,0.0,0.0,0.0,0.0,0.21477887900981538
1666089245419415562,0.0,0.0,0.0,0.0,0.0,0.24655003623870375
1666089245574541904,0.0,0.0,0.0,0.0,0.0,0.27906315356327027
1666089245617122675,0.0,0.0,0.0,0.0,0.0,0.3119636681133946
1666089245705602887,0.0,0.0,0.0,0.0,0.0,0.3549686298994446
1666089245781834828,0.0,0.0,0.0,0.0,0.0,0.39609375724292417
1666089245869449693,0.0,0.0,0.0,0.0,0.0,0.44216688710729163
1666089245961119508,0.0,0.0,0.0,0.0,0.0,0.4868521822090505
1666089246009037587,0.0,0.0,0.0,0.0,0.0,0.5220258397811512
1666089246081697901,0.0,0.0,0.0,0.0,0.0,0.5640659523169699
1666089246170707525,0.0,0.0,0.0,0.0,0.0,0.6205335407764669
1666089246302647100,0.0,0.0,0.0,0.0,0.0,0.6803832055712087
1666089246358868173,0.0,0.0,0.0,0.0,0.0,0.7121347887126471
1666089246513731679,0.0,0.0,0.0,0.0,0.0,0.8009845817941258
1666089246602354557,0.0,0.0,0.0,0.0,0.0,0.8149987742290513
1666089246645396208,0.0,0.0,0.0,0.0,0.0,0.8233413548450557
1666089246724652863,0.0,0.0,0.0,0.0,0.0,0.8589237926553673
1666089246857202613,0.0,0.0,0.0,0.0,0.0,0.9414123657826554
1666089246900966426,0.0,0.0,0.0,0.0,0.0,0.906784254028833
1666089246945394370,0.0,0.0,0.0,0.0,0.0,0.9442007136347786
1666089247020959337,0.0,0.0,0.0,0.0,0.0,0.9636575660500701
1666089247113659043,0.0,0.0,0.0,0.0,0.0,0.9603374617096763
1666089247210391936,0.0,0.0,0.0,0.0,0.0,0.9549161104143521
1666089247329563786,0.0,0.0,0.0,0.0,0.0,0.9485064867235263
1666089247417326744,0.0,0.0,0.0,0.0,0.0,0.9564808727231513
1666089247544529263,0.1,0.0,0.0,0.0,0.0,1.0471975511965972
1666089247630035943,0.1,0.0,0.0,0.0,0.0,1.2217304763960302
1666089247689081635,0.40082940459251404,0.0,0.0,0.0,0.0,1.2217304763960302
1666089247719402951,0.3999765217304229,0.0,0.0,0.0,0.0,1.2217304763960302
1666089247855064451,0.3906943500041961,0.0,0.0,0.0,0.0,1.2217304763960302
1666089247970854143,0.23250123858451843,0.0,0.0,0.0,0.0,1.2217304763960302
1666089248064724004,0.3014606833457947,0.0,0.0,0.0,0.0,0.8726646259971643
1666089248155612068,0.37296897172927856,0.0,0.0,0.0,0.0,0.5235987755982984
1666089248216509301,0.3978923261165619,0.0,0.0,0.0,0.0,0.3490658503988654
1666089248222804964,0.3971104621887207,0.0,0.0,0.0,0.0,0.3490658503988654
1666089248399184794,0.4381256103515625,0.0,0.0,0.0,0.0,0.17453292519943245
1666089248447104843,0.45074975490570063,0.0,0.0,0.0,0.0,-0.055079974234104156
1666089248566725785,0.4425199329853058,0.0,0.0,0.0,0.0,-0.17453292519943345
1666089248704820326,0.46887096762657166,0.0,0.0,0.0,0.0,-0.3490658503988664
1666089248735362705,0.47211286425590515,0.0,0.0,0.0,0.0,-0.3490658503988664
1666089248876806701,0.4596425890922546,0.0,0.0,0.0,0.0,-0.5235987755982994
1666089248962751471,0.15381203889846803,0.0,0.0,0.0,0.0,-0.5235987755982994
1666089249044369846,0.4441398978233337,0.0,0.0,0.0,0.0,-0.6981317007977323
1666089249124661711,0.43027475476264954,0.0,0.0,0.0,0.0,-0.6981317007977323
1666089249177668461,0.43119874596595764,0.0,0.0,0.0,0.0,-0.6981317007977323
1666089249266366352,0.32582214474678034,0.0,0.0,0.0,0.0,-0.6981317007977323
1666089249324392220,0.41118150949478144,0.0,0.0,0.0,0.0,-0.8726646259971653
1666089249478153773,0.0,0.0,0.0,0.0,0.0,-0.5338493322924357
1666089249520994757,0.0,0.0,0.0,0.0,0.0,-0.5623130536268955
1666089249566086485,0.0,0.0,0.0,0.0,0.0,-0.5500434002088445
1666089249645516777,0.0,0.0,0.0,0.0,0.0,-0.5235987755982994
1666089249688921452,0.0,0.0,0.0,0.0,0.0,-0.5379596855668294
1666089249829204442,0.0,0.0,0.0,0.0,0.0,-0.5666208728953771
1666089249933089249,0.0,0.0,0.0,0.0,0.0,-0.6159295170461019
1666089249944770599,0.0,0.0,0.0,0.0,0.0,-0.6147991458637219
1666089250033115811,0.0,0.0,0.0,0.0,0.0,-0.6487244246005878
1666089250077618509,0.0,0.0,0.0,0.0,0.0,-0.6628359917366635
1666089250165333692,0.0,0.0,0.0,0.0,0.0,-0.6981317007977323
1666089250221774733,0.0,0.0,0.0,0.0,0.0,-0.7069156543418099
1666089250285410339,0.0,0.0,0.0,0.0,0.0,-0.7284947604636106
1666089250372721200,0.0,0.0,0.0,0.0,0.0,-0.7539017596929974
1666089250460978425,0.0,0.0,0.0,0.0,0.0,-0.7746405709426711
1666089250616677493,0.0,0.0,0.0,0.0,0.0,-0.8306025748500945
1666089250624936222,0.0,0.0,0.0,0.0,0.0,-0.7953391878733004
1666089250781739782,0.7999999999999999,0.0,0.0,0.0,0.0,-0.24994733929634094
1666089250812469415,0.7999999999999999,0.0,0.0,0.0,0.0,-0.24994036555290222
1666089250911207157,0.7999999999999999,0.0,0.0,0.0,0.0,-0.3019019663333893
1666089250939461154,0.7999999999999999,0.0,0.0,0.0,0.0,-0.3019438683986664
1666089251023620370,0.7999999999999999,0.0,0.0,0.0,0.0,-0.3108792006969452
