%time,field.linear.x,field.linear.y,field.linear.z,field.angular.x,field.angular.y,field.angular.z
1666089218352679159,0.015,0.0,0.0,0.0,0.0,-0.05072717270118864
1666089218402469884,0.03,0.0,0.0,0.0,0.0,-0.10429062529587732
1666089218452454632,0.045,0.0,0.0,0.0,0.0,-0.15785407789056602
1666089218503056876,0.06,0.0,0.0,0.0,0.0,-0.21734473263154303
1666089218552541061,0.075,0.0,0.0,0.0,0.0,-0.2893079521446576
1666089218602448309,0.09,0.0,0.0,0.0,0.0,-0.3612520354403097
1666089218652796828,0.105,0.0,0.0,0.0,0.0,-0.4331961187359618
1666089218702508401,0.112358696314856,0.0,0.0,0.0,0.0,-0.5331961187359618
1666089218752966878,0.127358696314856,0.0,0.0,0.0,0.0,-0.6029193041686526
1666089218803005829,0.14235869631485598,0.0,0.0,0.0,0.0,-0.6719234508675934
1666089218852377137,0.157358696314856,0.0,0.0,0.0,0.0,-0.7409275975665343
1666089218902492472,0.1594252597393445,0.0,0.0,0.0,0.0,-0.8409275975665342
1666089218952859629,0.16149182316383298,0.0,0.0,0.0,0.0,-0.9409275975665342
1666089219002508962,0.176491823163833,0.0,0.0,0.0,0.0,-0.9987641963404719
1666089219052983013,0.191491823163833,0.0,0.0,0.0,0.0,-1.0549187677445524
1666089219103326824,0.20649182316383302,0.0,0.0,0.0,0.0,-1.111073339148633
1666089219153536456,0.22149182316383303,0.0,0.0,0.0,0.0,-1.1672279105527135
1666089219202571382,0.23649182316383305,0.0,0.0,0.0,0.0,-1.221172118094279
1666089219253383441,0.25149182316383306,0.0,0.0,0.0,0.0,-1.2751163256358442
1666089219302668778,0.18937964517685424,0.0,0.0,0.0,0.0,-1.3751163256358443
1666089219352943454,0.20437964517685425,0.0,0.0,0.0,0.0,-1.3771939250563294
1666089219402655080,0.21937964517685427,0.0,0.0,0.0,0.0,-1.3792720750818868
1666089219452499862,0.23437964517685428,0.0,0.0,0.0,0.0,-1.381350225107444
1666089219502383898,0.2493796451768543,0.0,0.0,0.0,0.0,-1.3833772698143534
1666089219552521380,0.2643796451768543,0.0,0.0,0.0,0.0,-1.3854241491273875
1666089219602723452,0.2793796451768543,0.0,0.0,0.0,0.0,-1.3874710284404217
1666089219652468044,0.29437964517685433,0.0,0.0,0.0,0.0,-1.350500600554192
1666089219702482206,0.30937964517685435,0.0,0.0,0.0,0.0,-1.3135301726679622
1666089219752743253,0.15937964517685432,0.0,0.0,0.0,0.0,-1.0997803897343856
1666089219802824000,0.009379645176854301,0.0,0.0,0.0,0.0,-0.8860306068008091
1666089219852917601,0.0,0.0,0.0,0.0,0.0,0.0
1666089219902551494,0.0,0.0,0.0,0.0,0.0,-0.1
1666089219952562630,0.0,0.0,0.0,0.0,0.0,-0.2
1666089220002751750,0.0,0.0,0.0,0.0,0.0,-0.30000000000000004
1666089220052392163,0.0,0.0,0.0,0.0,0.0,-0.4
1666089220102531665,0.0,0.0,0.0,0.0,0.0,-0.40643328174404303
1666089220152606583,0.0,0.0,0.0,0.0,0.0,-0.40643328174404303
1666089220202718058,0.0,0.0,0.0,0.0,0.0,-0.17453292519943345
1666089220252567223,0.0,0.0,0.0,0.0,0.0,-0.17453292519943345
1666089220303791586,0.0,0.0,0.0,0.0,0.0,-4.996003610813204e-16
1666089220352799378,0.0,0.0,0.0,0.0,0.0,-4.996003610813204e-16
1666089220402929348,0.0,0.0,0.0,0.0,0.0,0.0999999999999995
1666089220452616525,0.0,0.0,0.0,0.0,0.0,0.17453292519943245
1666089220502407517,0.0,0.0,0.0,0.0,0.0,0.17453292519943245
1666089220552999046,0.0,0.0,0.0,0.0,0.0,0.17453292519943245
1666089220603402754,0.0,0.0,0.0,0.0,0.0,0.27453292519943245
1666089220652490214,0.0,0.0,0.0,0.0,0.0,0.3182270809994975
1666089220702530347,0.0,0.0,0.0,0.0,0.0,0.3583391696913161
1666089220753965284,0.0,0.0,0.0,0.0,0.0,0.39071991954431123
1666089220802511139,0.0,0.0,0.0,0.0,0.0,0.39071991954431123
1666089220854834382,0.0,0.0,0.0,0.0,0.0,0.4212461136674401
1666089220902563031,0.0,0.0,0.0,0.0,0.0,0.4212461136674401
1666089220953204275,0.0,0.0,0.0,0.0,0.0,0.44243620801460065
1666089221002638553,0.0,0.0,0.0,0.0,0.0,0.44243620801460065
1666089221052743446,0.0,0.0,0.0,0.0,0.0,0.39620147900532543
1666089221102461960,0.0,0.0,0.0,0.0,0.0,0.39620147900532543
1666089221153011401,0.0,0.0,0.0,0.0,0.0,0.36365794682509794
1666089221202514334,0.0,0.0,0.0,0.0,0.0,0.36365794682509794
1666089221252469419,0.0,0.0,0.0,0.0,0.0,0.33238034847535775
1666089221302515752,0.0,0.0,0.0,0.0,0.0,0.3005511129044298
1666089221352403856,0.0,0.0,0.0,0.0,0.0,0.3005511129044298
1666089221402526657,0.0,0.0,0.0,0.0,0.0,0.3005511129044298
1666089221452773135,0.0,0.0,0.0,0.0,0.0,0.29812194479545606
1666089221502519570,0.0,0.0,0.0,0.0,0.0,0.29812194479545606
1666089221553741252,0.0,0.0,0.0,0.0,0.0,0.2674606649502153
1666089221602410659,0.0,0.0,0.0,0.0,0.0,0.2513505166823726
1666089221652568947,0.0,0.0,0.0,0.0,0.0,0.2513505166823726
1666089221703016750,0.0,0.0,0.0,0.0,0.0,0.17453292519943245
1666089221752464117,0.0,0.0,0.0,0.0,0.0,0.17453292519943245
1666089221802441682,0.0,0.0,0.0,0.0,0.0,0.17453292519943245
1666089221853360360,0.0,0.0,0.0,0.0,0.0,0.17453292519943245
1666089221902434158,0.0,0.0,0.0,0.0,0.0,0.17453292519943245
1666089221952398792,0.0,0.0,0.0,0.0,0.0,0.17453292519943245
1666089222002980219,0.0,0.0,0.0,0.0,0.0,0.17453292519943245
1666089222052583809,0.0,0.0,0.0,0.0,0.0,0.07453292519943244
1666089222102525860,0.0,0.0,0.0,0.0,0.0,-4.996003610813204e-16
1666089222152511447,0.0,0.0,0.0,0.0,0.0,-4.996003610813204e-16
1666089222202454675,0.0,0.0,0.0,0.0,0.0,-4.996003610813204e-16
1666089222252535966,0.0,0.0,0.0,0.0,0.0,-4.996003610813204e-16
1666089222303052186,0.0,0.0,0.0,0.0,0.0,-4.996003610813204e-16
1666089222352710316,0.0,0.0,0.0,0.0,0.0,-4.996003610813204e-16
1666089222402437624,0.0,0.0,0.0,0.0,0.0,-4.996003610813204e-16
1666089222454089390,0.0,0.0,0.0,0.0,0.0,-4.996003610813204e-16
1666089222502470578,0.0,0.0,0.0,0.0,0.0,-4.996003610813204e-16
1666089222553292362,0.0,0.0,0.0,0.0,0.0,-4.996003610813204e-16
1666089222602478652,0.0,0.0,0.0,0.0,0.0,-4.996003610813204e-16
1666089222652770603,0.0,0.0,0.0,0.0,0.0,-4.996003610813204e-16
1666089222702643750,0.0,0.0,0.0,0.0,0.0,-0.1000000000000005
1666089222752479328,0.0,0.0,0.0,0.0,0.0,-0.2000000000000005
1666089222802533456,0.0,0.0,0.0,0.0,0.0,-0.251093504857314
1666089222853080545,0.0,0.0,0.0,0.0,0.0,-0.251093504857314
1666089222903483025,0.0,0.0,0.0,0.0,0.0,-0.2899252458973004
1666089222952396336,0.0,0.0,0.0,0.0,0.0,-0.2899252458973004
1666089223002546988,0.0,0.0,0.0,0.0,0.0,-0.3170228206328101
1666089223052824597,0.0,0.0,0.0,0.0,0.0,-0.3170228206328101
1666089223102591991,0.0,0.0,0.0,0.0,0.0,-0.3490658503988664
1666089223152470391,0.0,0.0,0.0,0.0,0.0,-0.3651294280375737
1666089223202369960,0.0,0.0,0.0,0.0,0.0,-0.40996808385880623
1666089223252976717,0.0,0.0,0.0,0.0,0.0,-0.4015298253899326
1666089223303346203,0.0,0.0,0.0,0.0,0.0,-0.4015298253899326
1666089223356485797,0.0,0.0,0.0,0.0,0.0,-0.44243245902944667
1666089223402637469,0.0,0.0,0.0,0.0,0.0,-0.4522614852260033
1666089223452831068,0.0,0.0,0.0,0.0,0.0,-0.4522614852260033
1666089223502718366,0.0,0.0,0.0,0.0,0.0,-0.4522614852260033
1666089223553463423,0.0,0.0,0.0,0.0,0.0,-0.48156117338771603
1666089223602611846,0.0,0.0,0.0,0.0,0.0,-0.4784601080945529
1666089223653125948,0.0,0.0,0.0,0.0,0.0,-0.4898957170674077
1666089223703216050,0.015,0.0,0.0,0.0,0.0,-0.477987802891058
1666089223752903052,0.03,0.0,0.0,0.0,0.0,-0.46607988871470835
1666089223802537146,0.045,0.0,0.0,0.0,0.0,-0.45491155417184237
1666089223852557771,0.06,0.0,0.0,0.0,0.0,-0.4437432196289764
1666089223902447460,0.075,0.0,0.0,0.0,0.0,-0.4344878855478393
1666089223952608834,0.09,0.0,0.0,0.0,0.0,-0.4252325514667022
1666089224002858807,0.105,0.0,0.0,0.0,0.0,-0.4175802209404049
1666089224052546111,0.12,0.0,0.0,0.0,0.0,-0.4099278904141076
1666089224102537651,0.135,0.0,0.0,0.0,0.0,-0.4028612596933545
1666089224152668219,0.15000000000000002,0.0,0.0,0.0,0.0,-0.3957923571429428
1666089224202655043,0.16500000000000004,0.0,0.0,0.0,0.0,-0.38959303674019286
1666089224252522347,0.18000000000000005,0.0,0.0,0.0,0.0,-0.3833937163374429
1666089224302676323,0.19500000000000006,0.0,0.0,0.0,0.0,-0.3774667760807996
1666089224352745117,0.21000000000000008,0.0,0.0,0.0,0.0,-0.37187203754352743
1666089224402469903,0.2250000000000001,0.0,0.0,0.0,0.0,-0.3662772990062553
1666089224452669666,0.2400000000000001,0.0,0.0,0.0,0.0,-0.3606825604689831
1666089224502489252,0.2550000000000001,0.0,0.0,0.0,0.0,-0.36025253539625074
1666089224552740587,0.27000000000000013,0.0,0.0,0.0,0.0,-0.3598307003090122
1666089224603201336,0.28500000000000014,0.0,0.0,0.0,0.0,-0.35941762717551556
1666089224652490551,0.30000000000000016,0.0,0.0,0.0,0.0,-0.3590045540420189
1666089224702786371,0.15000000000000013,0.0,0.0,0.0,0.0,-0.17950227702100954
1666089224752600608,0.16500000000000015,0.0,0.0,0.0,0.0,-0.18443098202604882
1666089224802634000,0.18000000000000016,0.0,0.0,0.0,0.0,-0.18997117217423526
1666089224852559457,0.19500000000000017,0.0,0.0,0.0,0.0,-0.2000561889074465
1666089224902557360,0.2100000000000002,0.0,0.0,0.0,0.0,-0.21014120564065775
1666089224952761230,0.2250000000000002,0.0,0.0,0.0,0.0,-0.22014101726299032
1666089225002448324,0.2400000000000002,0.0,0.0,0.0,0.0,-0.2301408288853229
1666089225052562206,0.2550000000000002,0.0,0.0,0.0,0.0,-0.24014064050765546
1666089225102671279,0.27000000000000024,0.0,0.0,0.0,0.0,-0.24382894770145025
1666089225152649002,0.28500000000000025,0.0,0.0,0.0,0.0,-0.24751725489524504
1666089225202694805,0.30000000000000027,0.0,0.0,0.0,0.0,-0.25113114325083713
1666089225252834937,0.3150000000000003,0.0,0.0,0.0,0.0,-0.25475707778539697
1666089225302551930,0.3300000000000003,0.0,0.0,0.0,0.0,-0.2590160449241266
1666089225353410004,0.3450000000000003,0.0,0.0,0.0,0.0,-0.2692099282032192
1666089225402477352,0.3600000000000003,0.0,0.0,0.0,0.0,-0.2794038114823118
1666089225452477505,0.37500000000000033,0.0,0.0,0.0,0.0,-0.2895976947614044
1666089225502380514,0.39000000000000035,0.0,0.0,0.0,0.0,-0.299791578040497
1666089225552550168,0.40500000000000036,0.0,0.0,0.0,0.0,-0.30977325110884246
1666089225602458537,0.4200000000000004,0.0,0.0,0.0,0.0,-0.3197549241771879
1666089225652668621,0.4350000000000004,0.0,0.0,0.0,0.0,-0.3297365972455334
1666089225702551934,0.4500000000000004,0.0,0.0,0.0,0.0,-0.3389544584004626
1666089225757378403,0.4650000000000004,0.0,0.0,0.0,0.0,-0.34817231955539185
1666089225802625883,0.4800000000000004,0.0,0.0,0.0,0.0,-0.3571448486837309
1666089225852515453,0.49500000000000044,0.0,0.0,0.0,0.0,-0.36611737781207
1666089225902720495,0.5100000000000005,0.0,0.0,0.0,0.0,-0.3745439640685325
1666089225952548841,0.5250000000000005,0.0,0.0,0.0,0.0,-0.38297055032499505
1666089226002527683,0.5400000000000005,0.0,0.0,0.0,0.0,-0.39104507703004243
1666089226052675655,0.5550000000000005,0.0,0.0,0.0,0.0,-0.3879582720511113
1666089226102805912,0.5700000000000005,0.0,0.0,0.0,0.0,-0.3848714670721801
1666089226152557948,0.5850000000000005,0.0,0.0,0.0,0.0,-0.38178466209324896
1666089226202573020,0.6000000000000005,0.0,0.0,0.0,0.0,-0.391678670012206
1666089226253148235,0.6150000000000005,0.0,0.0,0.0,0.0,-0.401572677931163
1666089226302486354,0.6300000000000006,0.0,0.0,0.0,0.0,-0.4114666858501201
1666089226352875739,0.6450000000000006,0.0,0.0,0.0,0.0,-0.42136069376907714
1666089226402582891,0.6600000000000006,0.0,0.0,0.0,0.0,-0.43125470168803415
1666089226453021592,0.6750000000000006,0.0,0.0,0.0,0.0,-0.4411487096069912
1666089226502513501,0.6900000000000006,0.0,0.0,0.0,0.0,-0.4245738170793976
1666089226552531297,0.7050000000000006,0.0,0.0,0.0,0.0,-0.4079989245518041
1666089226603052869,0.7200000000000006,0.0,0.0,0.0,0.0,-0.4262515326117772
1666089226652703260,0.7350000000000007,0.0,0.0,0.0,0.0,-0.44450414067175026
1666089226702552148,0.7500000000000007,0.0,0.0,0.0,0.0,-0.422479919839546
1666089226752619332,0.7650000000000007,0.0,0.0,0.0,0.0,-0.4004556990073418
1666089226806681619,0.7767577499662357,0.0,0.0,0.0,0.0,-0.5004556990073418
1666089226852536694,0.7885154999324706,0.0,0.0,0.0,0.0,-0.6004556990073417
1666089226902437823,0.7999999999999999,0.0,0.0,0.0,0.0,-0.6981317007977323
1666089226953272945,0.7999999999999999,0.0,0.0,0.0,0.0,-0.7981317007977323
1666089227002378184,0.7999999999999999,0.0,0.0,0.0,0.0,-0.8726646259971653
1666089227053377189,0.7999999999999999,0.0,0.0,0.0,0.0,-0.9726646259971653
1666089227102382325,0.7999999999999999,0.0,0.0,0.0,0.0,-1.0471975511965983
1666089227152614495,0.7246368527412415,0.0,0.0,0.0,0.0,-1.0471975511965983
1666089227202666096,0.7246368527412415,0.0,0.0,0.0,0.0,-1.0471975511965983
1666089227252954036,0.7396368527412415,0.0,0.0,0.0,0.0,-1.0471975511965983
1666089227302477946,0.7546368527412415,0.0,0.0,0.0,0.0,-1.0471975511965983
1666089227352449355,0.7696368527412415,0.0,0.0,0.0,0.0,-1.0471975511965983
1666089227402742628,0.7728504538536072,0.0,0.0,0.0,0.0,-1.0471975511965983
1666089227452709153,0.7728504538536072,0.0,0.0,0.0,0.0,-1.0471975511965983
1666089227502520462,0.7612369656562805,0.0,0.0,0.0,0.0,-1.0471975511965983
1666089227553010090,0.7521571516990662,0.0,0.0,0.0,0.0,-1.0471975511965983
1666089227602494957,0.7521571516990662,0.0,0.0,0.0,0.0,-1.0471975511965983
1666089227652538933,0.7521571516990662,0.0,0.0,0.0,0.0,-1.0471975511965983
1666089227703565479,0.7499641180038452,0.0,0.0,0.0,0.0,-1.0471975511965983
1666089227754518126,0.7450834512710571,0.0,0.0,0.0,0.0,-1.0471975511965983
1666089227802475757,0.7452256083488464,0.0,0.0,0.0,0.0,-1.0471975511965983
1666089227852661510,0.7393577694892883,0.0,0.0,0.0,0.0,-1.0471975511965983
1666089227902532883,0.7393577694892883,0.0,0.0,0.0,0.0,-1.0471975511965983
1666089227952868179,0.7276372313499451,0.0,0.0,0.0,0.0,-1.0471975511965983
1666089228002415332,0.7276372313499451,0.0,0.0,0.0,0.0,-1.0471975511965983
1666089228052448984,0.6320065855979919,0.0,0.0,0.0,0.0,-1.0471975511965983
1666089228102431502,0.6182578206062316,0.0,0.0,0.0,0.0,-1.0471975511965983
1666089228152493993,0.6182578206062316,0.0,0.0,0.0,0.0,-1.0471975511965983
1666089228202609932,0.6332578206062316,0.0,0.0,0.0,0.0,-1.0471975511965983
1666089228253162811,0.6482578206062316,0.0,0.0,0.0,0.0,-1.0471975511965983
1666089228302616107,0.6632578206062316,0.0,0.0,0.0,0.0,-1.0471975511965983
1666089228356915116,0.5816980600357056,0.0,0.0,0.0,0.0,-1.0471975511965983
1666089228402699298,0.5966980600357056,0.0,0.0,0.0,0.0,-1.0826623721494084
1666089228452764651,0.6116980600357056,0.0,0.0,0.0,0.0,-1.1181271931022185
1666089228502838869,0.46169806003570557,0.0,0.0,0.0,0.0,-0.9950090326751946
1666089228552430750,0.31169806003570555,0.0,0.0,0.0,0.0,-0.8718908722481706
1666089228602750351,0.16169806003570553,0.0,0.0,0.0,0.0,-0.7487727118211467
1666089228652743912,0.1,0.0,0.0,0.0,0.0,-0.6981317007977323
1666089228702542766,0.1,0.0,0.0,0.0,0.0,-0.6981317007977323
1666089228752967812,0.1,0.0,0.0,0.0,0.0,-0.6981317007977323
1666089228802532185,0.1,0.0,0.0,0.0,0.0,-0.6981317007977323
1666089228852736559,0.1,0.0,0.0,0.0,0.0,-0.7981317007977323
1666089228902854682,0.1,0.0,0.0,0.0,0.0,-0.8981317007977323
1666089228953543198,0.1,0.0,0.0,0.0,0.0,-0.8726646259971653
1666089229002486423,0.1,0.0,0.0,0.0,0.0,-0.8726646259971653
1666089229052563363,0.1,0.0,0.0,0.0,0.0,-0.8726646259971653
1666089229102655286,0.1,0.0,0.0,0.0,0.0,-0.8726646259971653
1666089229152951950,0.1,0.0,0.0,0.0,0.0,-0.8726646259971653
1666089229202930240,0.1,0.0,0.0,0.0,0.0,-0.8726646259971653
1666089229252639509,0.1,0.0,0.0,0.0,0.0,-0.6981317007977323
1666089229303169264,0.1,0.0,0.0,0.0,0.0,-0.3490658503988664
1666089229352882456,0.115,0.0,0.0,0.0,0.0,-0.3531947472335397
1666089229402374361,0.13,0.0,0.0,0.0,0.0,-0.35732364406821304
1666089229453061772,0.14500000000000002,0.0,0.0,0.0,0.0,-0.3507723119343105
1666089229502715681,0.16000000000000003,0.0,0.0,0.0,0.0,-0.34172758576960904
1666089229552524419,0.17500000000000004,0.0,0.0,0.0,0.0,-0.33268285960490757
1666089229602409638,0.19000000000000006,0.0,0.0,0.0,0.0,-0.32362328517048744
1666089229652750672,0.20500000000000007,0.0,0.0,0.0,0.0,-0.3096544279319855
1666089229702451350,0.22000000000000008,0.0,0.0,0.0,0.0,-0.29568557069348356
1666089229753005677,0.2350000000000001,0.0,0.0,0.0,0.0,-0.28351233918954916
1666089229803644395,0.2500000000000001,0.0,0.0,0.0,0.0,-0.27133910768561476
1666089229852530007,0.2650000000000001,0.0,0.0,0.0,0.0,-0.25326785514775585
1666089229902459686,0.28000000000000014,0.0,0.0,0.0,0.0,-0.23519660260989694
1666089229952697523,0.29500000000000015,0.0,0.0,0.0,0.0,-0.21511660047663483
1666089230005280729,0.31000000000000016,0.0,0.0,0.0,0.0,-0.18865806189520118
1666089230052485145,0.3250000000000002,0.0,0.0,0.0,0.0,-0.16219952331376752
1666089230102645816,0.3400000000000002,0.0,0.0,0.0,0.0,-0.14801174953472657
1666089230152463082,0.3550000000000002,0.0,0.0,0.0,0.0,-0.1338239757556856
1666089230203313226,0.3700000000000002,0.0,0.0,0.0,0.0,-0.11462998439677444
1666089230252754022,0.38500000000000023,0.0,0.0,0.0,0.0,-0.09543599303786326
1666089230302463960,0.40000000000000024,0.0,0.0,0.0,0.0,-0.07070511323097275
1666089230352518984,0.41500000000000026,0.0,0.0,0.0,0.0,-0.045974233424082245
1666089230403677204,0.43000000000000027,0.0,0.0,0.0,0.0,-0.01951739377698788
1666089230452459217,0.4450000000000003,0.0,0.0,0.0,0.0,0.038652202456702214
1666089230502635909,0.4600000000000003,0.0,0.0,0.0,0.0,0.09782834834102888
1666089230552764095,0.47129595839211,0.0,0.0,0.0,0.0,0.1978283483410289
1666089230603010188,0.48629595839211004,0.0,0.0,0.0,0.0,0.22519181574648445
1666089230652603053,0.50129595839211,0.0,0.0,0.0,0.0,0.25255528315194
1666089230702498556,0.5162959583921101,0.0,0.0,0.0,0.0,0.29385717199206846
1666089230752550681,0.4079326391220093,0.0,0.0,0.0,0.0,0.32480308413505554
1666089230802362468,0.4079326391220093,0.0,0.0,0.0,0.0,0.32480308413505554
1666089230852682939,0.3627096116542816,0.0,0.0,0.0,0.0,0.3490658503988654
1666089230902846350,0.3627096116542816,0.0,0.0,0.0,0.0,0.3490658503988654
1666089230952795564,0.35603479221241374,0.0,0.0,0.0,0.0,0.4490658503988654
1666089231003639659,0.34908596637481715,0.0,0.0,0.0,0.0,0.5490658503988654
1666089231052462726,0.3421371405372206,0.0,0.0,0.0,0.0,0.6490658503988653
1666089231102845393,0.3353585082337511,0.0,0.0,0.0,0.0,0.7490658503988653
1666089231152667566,0.32857987593028154,0.0,0.0,0.0,0.0,0.8490658503988653
1666089231203100161,0.3195290786930081,0.0,0.0,0.0,0.0,0.9490658503988653
1666089231252674226,0.31047828145573475,0.0,0.0,0.0,0.0,1.0490658503988652
1666089231303721696,0.2905780061362396,0.0,0.0,0.0,0.0,1.1490658503988653
1666089231352492052,0.2707639980620358,0.0,0.0,0.0,0.0,1.2490658503988654
1666089231402929003,0.25658438140794576,0.0,0.0,0.0,0.0,1.3490658503988655
1666089231455648433,0.2715843814079458,0.0,0.0,0.0,0.0,1.3789181167803397
1666089231502971559,0.2865843814079458,0.0,0.0,0.0,0.0,1.408770383161814
1666089231552617355,0.3015843814079458,0.0,0.0,0.0,0.0,1.4392309130601433
1666089231602592319,0.25372327706730274,0.0,0.0,0.0,0.0,1.5392309130601434
1666089231652674983,0.23861572146415705,0.0,0.0,0.0,0.0,1.5707963267948961
1666089231702634192,0.23964330554008484,0.0,0.0,0.0,0.0,1.5707963267948961
1666089231752486976,0.25464330554008485,0.0,0.0,0.0,0.0,1.5707963267948961
1666089231802950562,0.26964330554008487,0.0,0.0,0.0,0.0,1.5707963267948961
1666089231852443455,0.27273914217948914,0.0,0.0,0.0,0.0,1.5707963267948961
1666089231902359831,0.27273914217948914,0.0,0.0,0.0,0.0,1.5707963267948961
1666089231952813006,0.27273914217948914,0.0,0.0,0.0,0.0,1.5707963267948961
1666089232002568374,0.28773914217948915,0.0,0.0,0.0,0.0,1.5187431650075678
1666089232052452580,0.30273914217948916,0.0,0.0,0.0,0.0,1.129951060601753
1666089232102657993,0.3177391421794892,0.0,0.0,0.0,0.0,0.7411589561959382
1666089232152973815,0.3327391421794892,0.0,0.0,0.0,0.0,0.6363950250705246
1666089232202613300,0.3477391421794892,0.0,0.0,0.0,0.0,0.5316310939451109
1666089232252627069,0.3627391421794892,0.0,0.0,0.0,0.0,0.48052473928409384
1666089232302775268,0.37773914217948923,0.0,0.0,0.0,0.0,0.4551901986730753
1666089232352404936,0.39273914217948924,0.0,0.0,0.0,0.0,0.4298556580620568
1666089232402880743,0.40773914217948926,0.0,0.0,0.0,0.0,0.4126775333624629
1666089232455232716,0.42273914217948927,0.0,0.0,0.0,0.0,0.395499408662869
1666089232502958494,0.4377391421794893,0.0,0.0,0.0,0.0,0.3840412691025333
1666089232553326038,0.4527391421794893,0.0,0.0,0.0,0.0,0.37467867977771285
1666089232602648323,0.4677391421794893,0.0,0.0,0.0,0.0,0.36527615061645075
1666089232652493245,0.4827391421794893,0.0,0.0,0.0,0.0,0.3558736214551886
1666089232702507640,0.49773914217948934,0.0,0.0,0.0,0.0,0.3474021422386444
1666089232752474974,0.5127391421794893,0.0,0.0,0.0,0.0,0.33893066302210023
1666089232802695546,0.5277391421794894,0.0,0.0,0.0,0.0,0.337097215397014
1666089232852491932,0.5427391421794894,0.0,0.0,0.0,0.0,0.33526376777192773
1666089232902581288,0.5577391421794894,0.0,0.0,0.0,0.0,0.3334303201468415
1666089232952709068,0.40773914217948937,0.0,0.0,0.0,0.0,0.24375659234179037
1666089233002484608,0.4227391421794894,0.0,0.0,0.0,0.0,0.2577958315815497
1666089233052415122,0.4377391421794894,0.0,0.0,0.0,0.0,0.28060083165467165
1666089233102467868,0.4527391421794894,0.0,0.0,0.0,0.0,0.3031634312661801
1666089233152396842,0.4677391421794894,0.0,0.0,0.0,0.0,0.3257260308776886
1666089233202568304,0.48273914217948943,0.0,0.0,0.0,0.0,0.3434379055505173
1666089233252409589,0.49773914217948945,0.0,0.0,0.0,0.0,0.361149780223346
1666089233302697954,0.5127391421794895,0.0,0.0,0.0,0.0,0.3788616548961747
1666089233352511074,0.5277391421794895,0.0,0.0,0.0,0.0,0.4146286293764891
1666089233402381633,0.5427391421794895,0.0,0.0,0.0,0.0,0.45427054962755625
1666089233452475555,0.5577391421794895,0.0,0.0,0.0,0.0,0.4939124698786234
1666089233503030813,0.5727391421794895,0.0,0.0,0.0,0.0,0.535462265411439
1666089233552374000,0.5877391421794895,0.0,0.0,0.0,0.0,0.5770120609442546
1666089233602599419,0.6027391421794895,0.0,0.0,0.0,0.0,0.6033600654050159
1666089233652554260,0.6177391421794896,0.0,0.0,0.0,0.0,0.6297080698657771
1666089233702497273,0.6327391421794896,0.0,0.0,0.0,0.0,0.6894321802676939
1666089233752777309,0.6477391421794896,0.0,0.0,0.0,0.0,0.7491562906696108
1666089233802682624,0.6488019395089851,0.0,0.0,0.0,0.0,0.8491562906696107
1666089233853075554,0.6489096283912659,0.0,0.0,0.0,0.0,0.8726646259971643
1666089233902450808,0.6489096283912659,0.0,0.0,0.0,0.0,0.8726646259971643
1666089233952891795,0.6299722790718079,0.0,0.0,0.0,0.0,0.8726646259971643
1666089234002483509,0.6449722790718079,0.0,0.0,0.0,0.0,0.8726646259971643
1666089234052468992,0.6599722790718079,0.0,0.0,0.0,0.0,0.8726646259971643
1666089234102971334,0.5099722790718079,0.0,0.0,0.0,0.0,0.779160216017049
1666089234152742518,0.35997227907180784,0.0,0.0,0.0,0.0,0.6856558060369337
1666089234202520134,0.20997227907180782,0.0,0.0,0.0,0.0,0.692854205115486
1666089234252870252,0.1,0.0,0.0,0.0,0.0,0.6981317007977313
1666089234302376555,0.1,0.0,0.0,0.0,0.0,0.6981317007977313
1666089234352491896,0.1,0.0,0.0,0.0,0.0,0.6981317007977313
1666089234402734514,0.115,0.0,0.0,0.0,0.0,0.7030590162588226
1666089234452495631,0.13,0.0,0.0,0.0,0.0,0.7079863317199139
1666089234505034422,0.1,0.0,0.0,0.0,0.0,0.6981317007977313
1666089234552647844,0.1,0.0,0.0,0.0,0.0,0.6981317007977313
1666089234602733209,0.1,0.0,0.0,0.0,0.0,0.5235987755982984
1666089234652391205,0.1,0.0,0.0,0.0,0.0,0.5235987755982984
1666089234702474871,0.1,0.0,0.0,0.0,0.0,0.5235987755982984
1666089234753257355,0.1,0.0,0.0,0.0,0.0,0.5235987755982984
1666089234803279607,0.1,0.0,0.0,0.0,0.0,0.5235987755982984
1666089234852537039,0.1,0.0,0.0,0.0,0.0,0.5235987755982984
1666089234902425717,0.1,0.0,0.0,0.0,0.0,0.5235987755982984
1666089234952489080,0.1,0.0,0.0,0.0,0.0,0.3490658503988654
1666089235002526485,0.1,0.0,0.0,0.0,0.0,0.3490658503988654
1666089235052563967,0.1,0.0,0.0,0.0,0.0,0.3490658503988654
1666089235102432468,0.1,0.0,0.0,0.0,0.0,0.3490658503988654
1666089235152484033,0.1,0.0,0.0,0.0,0.0,0.3490658503988654
1666089235202527847,0.1,0.0,0.0,0.0,0.0,0.3490658503988654
1666089235252565298,0.1,0.0,0.0,0.0,0.0,0.3490658503988654
1666089235302456737,0.1,0.0,0.0,0.0,0.0,0.3490658503988654
1666089235352842710,0.1,0.0,0.0,0.0,0.0,0.3490658503988654
1666089235402419745,0.1,0.0,0.0,0.0,0.0,0.17453292519943245
1666089235452866084,0.1,0.0,0.0,0.0,0.0,0.17453292519943245
1666089235504074699,0.1,0.0,0.0,0.0,0.0,0.17453292519943245
1666089235552416144,0.1,0.0,0.0,0.0,0.0,0.17453292519943245
1666089235602457169,0.1,0.0,0.0,0.0,0.0,0.17453292519943245
1666089235652999449,0.1,0.0,0.0,0.0,0.0,0.17453292519943245
1666089235702644190,0.1,0.0,0.0,0.0,0.0,0.17453292519943245
1666089235752547470,0.1,0.0,0.0,0.0,0.0,0.0034829715732485056
1666089235802612485,0.1,0.0,0.0,0.0,0.0,-4.996003610813204e-16
1666089235852419030,0.1,0.0,0.0,0.0,0.0,-4.996003610813204e-16
1666089235902870179,0.1,0.0,0.0,0.0,0.0,-4.996003610813204e-16
1666089235952509575,0.1,0.0,0.0,0.0,0.0,-4.996003610813204e-16
1666089236002809302,0.1,0.0,0.0,0.0,0.0,-4.996003610813204e-16
1666089236052620463,0.1,0.0,0.0,0.0,0.0,-4.996003610813204e-16
1666089236104434761,0.1,0.0,0.0,0.0,0.0,-4.996003610813204e-16
1666089236152478838,0.1,0.0,0.0,0.0,0.0,-4.996003610813204e-16
1666089236202506242,0.1,0.0,0.0,0.0,0.0,-4.996003610813204e-16
1666089236252694401,0.1,0.0,0.0,0.0,0.0,-4.996003610813204e-16
1666089236303676879,0.1,0.0,0.0,0.0,0.0,-4.996003610813204e-16
1666089236352519219,0.1,0.0,0.0,0.0,0.0,-0.04925457388162613
1666089236402463426,0.1,0.0,0.0,0.0,0.0,-0.04925457388162613
1666089236454084057,0.1,0.0,0.0,0.0,0.0,-0.052231963723897934
1666089236502859353,0.1,0.0,0.0,0.0,0.0,-0.052231963723897934
1666089236552625630,0.1,0.0,0.0,0.0,0.0,-0.05425775796175003
1666089236604052285,0.1,0.0,0.0,0.0,0.0,-0.05672331154346466
1666089236652859787,0.1,0.0,0.0,0.0,0.0,-0.05672331154346466
1666089236703132320,0.1,0.0,0.0,0.0,0.0,-4.996003610813204e-16
1666089236752876256,0.1,0.0,0.0,0.0,0.0,-0.06354076415300369
1666089236802432468,0.1,0.0,0.0,0.0,0.0,-0.06354076415300369
1666089236852622124,0.1,0.0,0.0,0.0,0.0,-0.06690416485071182
1666089236902748316,0.1,0.0,0.0,0.0,0.0,-0.0712331235408783
1666089236952610138,0.1,0.0,0.0,0.0,0.0,-0.07666397094726562
1666089237002614102,0.1,0.0,0.0,0.0,0.0,-0.07666397094726562
1666089237053580636,0.1,0.0,0.0,0.0,0.0,0.008114888332784176
1666089237102521627,0.1,0.0,0.0,0.0,0.0,0.0025613366160541773
1666089237152540748,0.1,0.0,0.0,0.0,0.0,0.0025613366160541773
1666089237202480252,0.1,0.0,0.0,0.0,0.0,-0.0881858840584755
1666089237252513685,0.1,0.0,0.0,0.0,0.0,-0.008560639806091785
1666089237302665664,0.1,0.0,0.0,0.0,0.0,-0.008560639806091785
1666089237352640399,0.1,0.0,0.0,0.0,0.0,0.09143936019390822
1666089237403099418,0.1,0.0,0.0,0.0,0.0,0.17453292519943245
1666089237452641350,0.1,0.0,0.0,0.0,0.0,0.27453292519943245
1666089237502526162,0.1,0.0,0.0,0.0,0.0,0.3745329251994325
1666089237553389921,0.1,0.0,0.0,0.0,0.0,0.47453292519943246
1666089237602479322,0.1,0.0,0.0,0.0,0.0,0.5745329251994324
1666089237652566081,0.1,0.0,0.0,0.0,0.0,0.6745329251994324
1666089237702617148,0.1,0.0,0.0,0.0,0.0,0.7745329251994324
1666089237752490433,0.1,0.0,0.0,0.0,0.0,0.8745329251994324
1666089237802598337,0.1,0.0,0.0,0.0,0.0,0.9745329251994324
1666089237852722414,0.1,0.0,0.0,0.0,0.0,1.0745329251994324
1666089237902619256,0.00693630911175655,0.0,0.0,0.0,0.0,0.07453292519943244
1666089237952481529,0.0,0.0,0.0,0.0,0.0,0.0
1666089238002685801,0.0,0.0,0.0,0.0,0.0,0.0
1666089238052948664,0.0,0.0,0.0,0.0,0.0,0.0
1666089238102578527,0.0,0.0,0.0,0.0,0.0,-0.1
1666089238152598239,0.0,0.0,0.0,0.0,0.0,-0.2
1666089238202635674,0.0,0.0,0.0,0.0,0.0,-0.24671955046996763
1666089238252582225,0.0,0.0,0.0,0.0,0.0,-0.29731100843326064
1666089238303259217,0.0,0.0,0.0,0.0,0.0,-0.317278670670677
1666089238352843447,0.0,0.0,0.0,0.0,0.0,-0.36203192421356145
1666089238402581124,0.0,0.0,0.0,0.0,0.0,-0.39817128021905174
1666089238452691555,0.0,0.0,0.0,0.0,0.0,-0.39817128021905174
1666089238502883803,0.0,0.0,0.0,0.0,0.0,-0.43083506956851053
1666089238552370747,0.0,0.0,0.0,0.0,0.0,-0.43083506956851053
1666089238603195504,0.0,0.0,0.0,0.0,0.0,-0.4568931600174172
1666089238652824637,0.0,0.0,0.0,0.0,0.0,-0.4568931600174172
1666089238702375486,0.0,0.0,0.0,0.0,0.0,-0.49739444990360904
1666089238752437428,0.0,0.0,0.0,0.0,0.0,-0.4860699859637564
1666089238803006577,0.0,0.0,0.0,0.0,0.0,-0.5017317174680062
1666089238852633314,0.0,0.0,0.0,0.0,0.0,-0.5017317174680062
1666089238904441932,0.0,0.0,0.0,0.0,0.0,-0.5200609923458069
1666089238952823582,0.0,0.0,0.0,0.0,0.0,-0.5200609923458069
1666089239002512505,0.0,0.0,0.0,0.0,0.0,-0.537572887245421
1666089239052665430,0.0,0.0,0.0,0.0,0.0,-0.537572887245421
1666089239102804233,0.0,0.0,0.0,0.0,0.0,-0.5492653397336472
1666089239152393088,0.0,0.0,0.0,0.0,0.0,-0.5492653397336472
1666089239202704194,0.0,0.0,0.0,0.0,0.0,-0.558138214793298
1666089239252411742,0.0,0.0,0.0,0.0,0.0,-0.558138214793298
1666089239302777578,0.0,0.0,0.0,0.0,0.0,-0.571411352059802
1666089239352406260,0.0,0.0,0.0,0.0,0.0,-0.571411352059802
1666089239402753244,0.0,0.0,0.0,0.0,0.0,-0.5608375617173721
1666089239452413811,0.0,0.0,0.0,0.0,0.0,-0.5608375617173721
1666089239502643144,0.0,0.0,0.0,0.0,0.0,-0.5660827017532588
1666089239552418724,0.0,0.0,0.0,0.0,0.0,-0.5660827017532588
1666089239602650406,0.0,0.0,0.0,0.0,0.0,-0.5613917336616253
1666089239652439826,0.0,0.0,0.0,0.0,0.0,-0.5613917336616253
1666089239702752743,0.0,0.0,0.0,0.0,0.0,-0.5521165104670095
1666089239753046127,0.0,0.0,0.0,0.0,0.0,-0.5521165104670095
1666089239802730568,0.0,0.0,0.0,0.0,0.0,-0.5358803809845977
1666089239852584022,0.0,0.0,0.0,0.0,0.0,-0.5358803809845977
1666089239903050131,0.0,0.0,0.0,0.0,0.0,-0.4962846773000117
1666089239952437471,0.0,0.0,0.0,0.0,0.0,-0.4962846773000117
1666089240002693485,0.0,0.0,0.0,0.0,0.0,-0.4793747196642724
1666089240052434353,0.0,0.0,0.0,0.0,0.0,-0.4793747196642724
1666089240102633239,0.0,0.0,0.0,0.0,0.0,-0.4793747196642724
1666089240152855978,0.0,0.0,0.0,0.0,0.0,-0.4793747196642724
1666089240202692650,0.0,0.0,0.0,0.0,0.0,-0.42812123899042664
1666089240252561833,0.0,0.0,0.0,0.0,0.0,-0.42812123899042664
1666089240302657513,0.0,0.0,0.0,0.0,0.0,-0.403368897455675
1666089240353081882,0.0,0.0,0.0,0.0,0.0,-0.3789359715262065
1666089240402545736,0.0,0.0,0.0,0.0,0.0,-0.3789359715262065
1666089240453017443,0.0,0.0,0.0,0.0,0.0,-0.3528882225469988
1666089240502447476,0.0,0.0,0.0,0.0,0.0,-0.33408376993794175
1666089240552422109,0.0,0.0,0.0,0.0,0.0,-0.33408376993794175
1666089240604401177,0.0,0.0,0.0,0.0,0.0,-0.33408376993794175
1666089240652979402,0.0,0.0,0.0,0.0,0.0,-0.31280583220536085
1666089240703172901,0.0,0.0,0.0,0.0,0.0,-0.31280583220536085
1666089240752643061,0.0,0.0,0.0,0.0,0.0,-0.28440030274034445
1666089240802678960,0.0,0.0,0.0,0.0,0.0,-0.28440030274034445
1666089240853225609,0.0,0.0,0.0,0.0,0.0,-0.2649817551117582
1666089240902843965,0.0,0.0,0.0,0.0,0.0,-0.246529723080322
1666089240952461468,0.0,0.0,0.0,0.0,0.0,-0.22573296388135428
1666089241002650513,0.0,0.0,0.0,0.0,0.0,-0.22573296388135428
1666089241053192118,0.0,0.0,0.0,0.0,0.0,0.0
1666089241102520528,0.0,0.0,0.0,0.0,0.0,0.0
1666089241152605243,0.0,0.0,0.0,0.0,0.0,0.0
1666089241202582778,0.0,0.0,0.0,0.0,0.0,0.0
1666089241252373913,0.0,0.0,0.0,0.0,0.0,0.0
1666089241303049890,0.0,0.0,0.0,0.0,0.0,0.0
1666089241352391840,0.0,0.0,0.0,0.0,0.0,0.0
1666089241402958955,0.0,0.0,0.0,0.0,0.0,0.0
1666089241452574889,0.0,0.0,0.0,0.0,0.0,0.0
1666089241502600460,0.0,0.0,0.0,0.0,0.0,0.0
1666089241552473333,0.0,0.0,0.0,0.0,0.0,0.0
1666089241602492829,0.0,0.0,0.0,0.0,0.0,0.0
1666089241652749278,0.0,0.0,0.0,0.0,0.0,0.0
1666089241702544036,0.0,0.0,0.0,0.0,0.0,0.0
1666089241752412891,0.0,0.0,0.0,0.0,0.0,0.0
1666089241802592965,0.0,0.0,0.0,0.0,0.0,0.0
1666089241852450443,0.0,0.0,0.0,0.0,0.0,0.0
1666089241902492892,0.0,0.0,0.0,0.0,0.0,0.0
1666089241952566706,0.0,0.0,0.0,0.0,0.0,0.0
1666089242002661653,0.0,0.0,0.0,0.0,0.0,0.0
1666089242052582942,0.0,0.0,0.0,0.0,0.0,0.0
1666089242102633852,0.0,0.0,0.0,0.0,0.0,0.0
1666089242152921446,0.0,0.0,0.0,0.0,0.0,0.0
1666089242202489784,0.0,0.0,0.0,0.0,0.0,0.0
1666089242252592731,0.0,0.0,0.0,0.0,0.0,0.0
1666089242302523158,0.0,0.0,0.0,0.0,0.0,0.0
1666089242352430625,0.0,0.0,0.0,0.0,0.0,0.0
1666089242402452322,0.0,0.0,0.0,0.0,0.0,0.0
1666089242452566120,0.0,0.0,0.0,0.0,0.0,0.0
1666089242502542787,0.0,0.0,0.0,0.0,0.0,0.0
1666089242552781941,0.0,0.0,0.0,0.0,0.0,0.0
1666089242602650136,0.0,0.0,0.0,0.0,0.0,0.0
1666089242652941332,0.0,0.0,0.0,0.0,0.0,0.0
1666089242703015918,0.0,0.0,0.0,0.0,0.0,0.0
1666089242752635500,0.0,0.0,0.0,0.0,0.0,0.0
1666089242804176538,0.0,0.0,0.0,0.0,0.0,0.0
1666089242852577607,0.0,0.0,0.0,0.0,0.0,0.0
1666089242902818192,0.0,0.0,0.0,0.0,0.0,0.0
1666089242953061745,0.0,0.0,0.0,0.0,0.0,0.0
1666089243002875801,0.0,0.0,0.0,0.0,0.0,0.0
1666089243052507931,0.0,0.0,0.0,0.0,0.0,0.0
1666089243103665444,0.0,0.0,0.0,0.0,0.0,0.0
1666089243152789483,0.0,0.0,0.0,0.0,0.0,0.0
1666089243203391729,0.0,0.0,0.0,0.0,0.0,0.0
1666089243253527093,0.0,0.0,0.0,0.0,0.0,0.0
1666089243302664187,0.0,0.0,0.0,0.0,0.0,0.0
1666089243352758281,0.0,0.0,0.0,0.0,0.0,0.0
1666089243403952289,0.0,0.0,0.0,0.0,0.0,0.0
1666089243453199652,0.0,0.0,0.0,0.0,0.0,0.0
1666089243502528333,0.0,0.0,0.0,0.0,0.0,0.0
1666089243552520525,0.0,0.0,0.0,0.0,0.0,0.0
1666089243602709018,0.0,0.0,0.0,0.0,0.0,0.0
1666089243652777128,0.0,0.0,0.0,0.0,0.0,0.0
1666089243702738009,0.0,0.0,0.0,0.0,0.0,0.0
1666089243752481328,0.0,0.0,0.0,0.0,0.0,0.0
1666089243803740390,0.0,0.0,0.0,0.0,0.0,0.0
1666089243853111773,0.0,0.0,0.0,0.0,0.0,0.0
1666089243903696126,0.0,0.0,0.0,0.0,0.0,0.0
1666089243952687037,0.0,0.0,0.0,0.0,0.0,0.0
1666089244003051645,0.0,0.0,0.0,0.0,0.0,0.0
1666089244052428872,0.0,0.0,0.0,0.0,0.0,0.0
1666089244102904416,0.0,0.0,0.0,0.0,0.0,0.0
1666089244152613123,0.0,0.0,0.0,0.0,0.0,0.0
1666089244202504839,0.0,0.0,0.0,0.0,0.0,0.0
1666089244252587860,0.0,0.0,0.0,0.0,0.0,0.0
1666089244302765148,0.0,0.0,0.0,0.0,0.0,0.0
1666089244352567754,0.0,0.0,0.0,0.0,0.0,0.0
1666089244403563586,0.0,0.0,0.0,0.0,0.0,0.0
1666089244453089610,0.0,0.0,0.0,0.0,0.0,0.0
1666089244502666661,0.0,0.0,0.0,0.0,0.0,0.0
1666089244552634247,0.0,0.0,0.0,0.0,0.0,0.0
1666089244602560353,0.0,0.0,0.0,0.0,0.0,0.0
1666089244652539749,0.0,0.0,0.0,0.0,0.0,0.0
1666089244702493696,0.0,0.0,0.0,0.0,0.0,0.0
1666089244753115489,0.0,0.0,0.0,0.0,0.0,0.0
1666089244802550413,0.0,0.0,0.0,0.0,0.0,0.0
1666089244852456765,0.0,0.0,0.0,0.0,0.0,0.0
1666089244902934189,0.0,0.0,0.0,0.0,0.0,0.0
1666089244952775021,0.0,0.0,0.0,0.0,0.0,0.0
1666089245002839064,0.0,0.0,0.0,0.0,0.0,0.0
1666089245053518482,0.0,0.0,0.0,0.0,0.0,0.0
1666089245102740918,0.0,0.0,0.0,0.0,0.0,0.0
1666089245152446486,0.0,0.0,0.0,0.0,0.0,0.0
1666089245203319163,0.0,0.0,0.0,0.0,0.0,0.0
1666089245252522676,0.0,0.0,0.0,0.0,0.0,0.0
1666089245302582983,0.0,0.0,0.0,0.0,0.0,0.0
1666089245352679843,0.0,0.0,0.0,0.0,0.0,0.1
1666089245403114840,0.0,0.0,0.0,0.0,0.0,0.2
1666089245452505820,0.0,0.0,0.0,0.0,0.0,0.24655003623870375
1666089245502703328,0.0,0.0,0.0,0.0,0.0,0.24655003623870375
1666089245552653560,0.0,0.0,0.0,0.0,0.0,0.24655003623870375
1666089245602610981,0.0,0.0,0.0,0.0,0.0,0.27906315356327027
1666089245652465873,0.0,0.0,0.0,0.0,0.0,0.3119636681133946
1666089245703043530,0.0,0.0,0.0,0.0,0.0,0.3119636681133946
1666089245752512128,0.0,0.0,0.0,0.0,0.0,0.3549686298994446
1666089245803438367,0.0,0.0,0.0,0.0,0.0,0.39609375724292417
1666089245852958222,0.0,0.0,0.0,0.0,0.0,0.39609375724292417
1666089245903255107,0.0,0.0,0.0,0.0,0.0,0.44216688710729163
1666089245952629615,0.0,0.0,0.0,0.0,0.0,0.44216688710729163
1666089246003026308,0.0,0.0,0.0,0.0,0.0,0.4868521822090505
1666089246052483259,0.0,0.0,0.0,0.0,0.0,0.5220258397811512
1666089246102826485,0.0,0.0,0.0,0.0,0.0,0.5640659523169699
1666089246152500209,0.0,0.0,0.0,0.0,0.0,0.5640659523169699
1666089246203196457,0.0,0.0,0.0,0.0,0.0,0.6205335407764669
1666089246252459669,0.0,0.0,0.0,0.0,0.0,0.6205335407764669
1666089246303006227,0.0,0.0,0.0,0.0,0.0,0.6205335407764669
1666089246352425945,0.0,0.0,0.0,0.0,0.0,0.6803832055712087
1666089246402451599,0.0,0.0,0.0,0.0,0.0,0.7121347887126471
1666089246452428295,0.0,0.0,0.0,0.0,0.0,0.7121347887126471
1666089246502843568,0.0,0.0,0.0,0.0,0.0,0.7121347887126471
1666089246552673108,0.0,0.0,0.0,0.0,0.0,0.8009845817941258
1666089246602615571,0.0,0.0,0.0,0.0,0.0,0.8149987742290513
1666089246652514289,0.0,0.0,0.0,0.0,0.0,0.8233413548450557
1666089246702738787,0.0,0.0,0.0,0.0,0.0,0.8233413548450557
1666089246752992460,0.0,0.0,0.0,0.0,0.0,0.8589237926553673
1666089246802452460,0.0,0.0,0.0,0.0,0.0,0.8589237926553673
1666089246852416783,0.0,0.0,0.0,0.0,0.0,0.8589237926553673
1666089246902414785,0.0,0.0,0.0,0.0,0.0,0.906784254028833
1666089246952550387,0.0,0.0,0.0,0.0,0.0,0.9442007136347786
1666089247002530465,0.0,0.0,0.0,0.0,0.0,0.9442007136347786
1666089247052713807,0.0,0.0,0.0,0.0,0.0,0.9636575660500701
1666089247102987986,0.0,0.0,0.0,0.0,0.0,0.9636575660500701
1666089247152747044,0.0,0.0,0.0,0.0,0.0,0.9603374617096763
1666089247202872634,0.0,0.0,0.0,0.0,0.0,0.9603374617096763
1666089247252452214,0.0,0.0,0.0,0.0,0.0,0.9549161104143521
1666089247302514089,0.0,0.0,0.0,0.0,0.0,0.9549161104143521
1666089247352589819,0.0,0.0,0.0,0.0,0.0,0.9485064867235263
1666089247402536815,0.0,0.0,0.0,0.0,0.0,0.9485064867235263
1666089247452493320,0.0,0.0,0.0,0.0,0.0,0.9564808727231513
1666089247502495479,0.0,0.0,0.0,0.0,0.0,0.9564808727231513
1666089247552849450,0.015,0.0,0.0,0.0,0.0,0.9700883744941682
1666089247602456365,0.03,0.0,0.0,0.0,0.0,0.9836958762651851
1666089247652760215,0.045,0.0,0.0,0.0,0.0,1.0347032905789375
1666089247702402771,0.06,0.0,0.0,0.0,0.0,1.0425874276149676
1666089247752644307,0.075,0.0,0.0,0.0,0.0,1.0504913432090175
1666089247802600360,0.09,0.0,0.0,0.0,0.0,1.0583952588030674
1666089247852563954,0.105,0.0,0.0,0.0,0.0,1.0662991743971173
1666089247902539366,0.12,0.0,0.0,0.0,0.0,1.0744598871656739
1666089247952655863,0.135,0.0,0.0,0.0,0.0,1.0826205999342304
1666089248002640859,0.15000000000000002,0.0,0.0,0.0,0.0,1.1040218475206207
1666089248052572427,0.16500000000000004,0.0,0.0,0.0,0.0,1.125423095107011
1666089248102442060,0.18000000000000005,0.0,0.0,0.0,0.0,1.0976394365198687
1666089248152703713,0.19500000000000006,0.0,0.0,0.0,0.0,1.0698557779327265
1666089248202632850,0.21000000000000008,0.0,0.0,0.0,0.0,1.023814858802842
1666089248255553697,0.2250000000000001,0.0,0.0,0.0,0.0,0.9697225594858143
1666089248302459364,0.2400000000000001,0.0,0.0,0.0,0.0,0.9156302601687867
1666089248352426235,0.2550000000000001,0.0,0.0,0.0,0.0,0.861537960851759
1666089248402419773,0.27000000000000013,0.0,0.0,0.0,0.0,0.8052646983899912
1666089248452410488,0.28500000000000014,0.0,0.0,0.0,0.0,0.7338667034322983
1666089248502513878,0.30000000000000016,0.0,0.0,0.0,0.0,0.6624687084746054
1666089248552676615,0.31500000000000017,0.0,0.0,0.0,0.0,0.5910707135169124
1666089248602994439,0.3300000000000002,0.0,0.0,0.0,0.0,0.5010137764412905
1666089248652531282,0.3450000000000002,0.0,0.0,0.0,0.0,0.4109568393656686
1666089248702413805,0.3600000000000002,0.0,0.0,0.0,0.0,0.3208999022900467
1666089248752499723,0.3750000000000002,0.0,0.0,0.0,0.0,0.23126267504558806
1666089248802655038,0.39000000000000024,0.0,0.0,0.0,0.0,0.1416254478011294
1666089248856091803,0.40500000000000025,0.0,0.0,0.0,0.0,0.05198822055667074
1666089248903708523,0.41449336754604926,0.0,0.0,0.0,0.0,-0.04801177944332927
1666089248952513240,0.4239867350920983,0.0,0.0,0.0,0.0,-0.14801177944332927
1666089249002436958,0.3520527493685473,0.0,0.0,0.0,0.0,-0.24801177944332928
1666089249052659837,0.3670527493685473,0.0,0.0,0.0,0.0,-0.3213314438439605
1666089249102384211,0.38205274936854733,0.0,0.0,0.0,0.0,-0.39465110824459176
1666089249152414259,0.39705274936854734,0.0,0.0,0.0,0.0,-0.4890521778619467
1666089249202464891,0.41205274936854736,0.0,0.0,0.0,0.0,-0.580898753055322
1666089249252413203,0.42705274936854737,0.0,0.0,0.0,0.0,-0.6727453282486975
1666089249302434562,0.32582214474678034,0.0,0.0,0.0,0.0,-0.6981317007977323
1666089249352884406,0.34082214474678035,0.0,0.0,0.0,0.0,-0.7288019604197477
1666089249402562326,0.35582214474678037,0.0,0.0,0.0,0.0,-0.759472220041763
1666089249453064494,0.3708221447467804,0.0,0.0,0.0,0.0,-0.7901424796637783
1666089249502630883,0.22082214474678036,0.0,0.0,0.0,0.0,-0.6864702134566097
1666089249554743834,0.07082214474678034,0.0,0.0,0.0,0.0,-0.6021327753078543
1666089249602420494,0.0,0.0,0.0,0.0,0.0,-0.5500434002088445
1666089249652461296,0.0,0.0,0.0,0.0,0.0,-0.5235987755982994
1666089249702599868,0.0,0.0,0.0,0.0,0.0,-0.5379596855668294
1666089249752439875,0.0,0.0,0.0,0.0,0.0,-0.5379596855668294
1666089249802385476,0.0,0.0,0.0,0.0,0.0,-0.5379596855668294
1666089249852528752,0.0,0.0,0.0,0.0,0.0,-0.5666208728953771
1666089249902397941,0.0,0.0,0.0,0.0,0.0,-0.5666208728953771
1666089249952845884,0.0,0.0,0.0,0.0,0.0,-0.6147991458637219
1666089250002565237,0.0,0.0,0.0,0.0,0.0,-0.6147991458637219
1666089250052714213,0.0,0.0,0.0,0.0,0.0,-0.6487244246005878
1666089250102635620,0.0,0.0,0.0,0.0,0.0,-0.6628359917366635
1666089250152566115,0.0,0.0,0.0,0.0,0.0,-0.6628359917366635
1666089250202829147,0.0,0.0,0.0,0.0,0.0,-0.6981317007977323
1666089250253046085,0.0,0.0,0.0,0.0,0.0,-0.7069156543418099
1666089250302467652,0.0,0.0,0.0,0.0,0.0,-0.7284947604636106
1666089250353261839,0.0,0.0,0.0,0.0,0.0,-0.7284947604636106
1666089250402723268,0.0,0.0,0.0,0.0,0.0,-0.7539017596929974
1666089250452956446,0.0,0.0,0.0,0.0,0.0,-0.7539017596929974
1666089250502616343,0.0,0.0,0.0,0.0,0.0,-0.7746405709426711
1666089250552801157,0.0,0.0,0.0,0.0,0.0,-0.7746405709426711
1666089250602422174,0.0,0.0,0.0,0.0,0.0,-0.7746405709426711
1666089250653476549,0.0,0.0,0.0,0.0,0.0,-0.7953391878733004
1666089250702428532,0.0,0.0,0.0,0.0,0.0,-0.7953391878733004
1666089250752777410,0.0,0.0,0.0,0.0,0.0,-0.7953391878733004
1666089250803004796,0.015,0.0,0.0,0.0,0.0,-0.7851130907124824
1666089250852869646,0.03,0.0,0.0,0.0,0.0,-0.7748868602954203
1666089250902547984,0.045,0.0,0.0,0.0,0.0,-0.7646606298783583
1666089250953087541,0.06,0.0,0.0,0.0,0.0,-0.7554675816370399
1666089251002682187,0.075,0.0,0.0,0.0,0.0,-0.7462745333957215
1666089251052546561,0.09,0.0,0.0,0.0,0.0,-0.7372663540985054
