%time,field.linear.x,field.linear.y,field.linear.z,field.angular.x,field.angular.y,field.angular.z
1666092069433336015,0.0,0.0,0.0,0.0,0.0,0.0
1666092069453342729,0.0,0.0,0.0,0.0,0.0,0.0
1666092069474248780,0.0,0.0,0.0,0.0,0.0,0.0
1666092069494256567,0.0,0.0,0.0,0.0,0.0,0.0
1666092069514301163,0.0,0.0,0.0,0.0,0.0,0.0
1666092069534274745,0.0,0.0,0.0,0.0,0.0,0.0
1666092069554180982,0.0,0.0,0.0,0.0,0.0,0.0
1666092069574358846,0.0,0.0,0.0,0.0,0.0,0.0
1666092069594285960,0.0,0.0,0.0,0.0,0.0,0.0
1666092069636074077,0.0,0.0,0.0,0.0,0.0,0.0
1666092069636085309,0.0,0.0,0.0,0.0,0.0,0.0
1666092069680038798,0.0,0.0,0.0,0.0,0.0,0.0
1666092069680054854,0.002132302208337933,0.0,0.0,0.0,0.0,-0.003490658503988659
1666092069724041311,0.002132302208337933,0.0,0.0,0.0,0.0,0.0
1666092069724052446,0.0,0.0,0.0,0.0,0.0,0.0
1666092069768334558,0.0,0.0,0.0,0.0,0.0,0.0
1666092069768345078,0.0,0.0,0.0,0.0,0.0,0.0
1666092069812047403,0.0,0.0,0.0,0.0,0.0,0.0
1666092069812064456,0.0,0.0,0.0,0.0,0.0,0.0
1666092069856051913,-0.006396906625013799,0.0,0.0,0.0,0.0,0.0
1666092069856066716,-0.002132302208337933,0.0,0.0,0.0,0.0,0.0
1666092069856073303,-0.002132302208337933,0.0,0.0,0.0,0.0,0.0031415926535897933
1666092069900042775,0.0,0.0,0.0,0.0,0.0,0.0
1666092069900060378,0.0,0.0,0.0,0.0,0.0,0.0
1666092069914060055,0.0,0.0,0.0,0.0,0.0,0.0
1666092069935049803,0.0,0.0,0.0,0.0,0.0,0.0
1666092069976050474,0.0,0.0,0.0,0.0,0.0,0.0
1666092069976061473,0.0,0.0,0.0,0.0,0.0,0.0
1666092070020019849,0.0,0.0,0.0,0.0,0.0,0.0
1666092070020030675,0.0,0.0,0.0,0.0,0.0,0.0
1666092070064038621,0.0,0.0,0.0,0.0,0.0,0.0
1666092070064047657,0.0,0.0,0.0,0.0,0.0,0.0
1666092070108028039,0.0,0.0,0.0,0.0,0.0,0.0
1666092070108036503,0.0,0.0,0.0,0.0,0.0,0.0
1666092070152025900,0.0,0.0,0.0,0.0,0.0,0.0
1666092070152039388,0.0,0.0,0.0,0.0,0.0,0.0
1666092070196042828,0.0,0.0,0.0,0.0,0.0,0.0
1666092070196054977,0.0,0.0,0.0,0.0,0.0,0.0
1666092070196064463,0.0,0.0,0.0,0.0,0.0,0.0
1666092070240027147,0.0,0.0,0.0,0.0,0.0,0.0
1666092070240035266,0.0,0.0,0.0,0.0,0.0,0.0
1666092070254903588,0.0,0.0,0.0,0.0,0.0,0.0
1666092070273952967,0.0,0.0,0.0,0.0,0.0,0.0
1666092070316041625,0.0,0.0,0.0,0.0,0.0,0.0
1666092070316055039,0.0,0.0,0.0,0.0,0.0,0.0
1666092070360055868,0.0,0.0,0.0,0.0,0.0,0.0
1666092070360065996,0.0,0.0,0.0,0.0,0.0,0.0
1666092070404063304,0.0,0.0,0.0,0.0,0.0,0.0
1666092070404076600,0.0,0.0,0.0,0.0,0.0,0.0
1666092070448067330,0.0,0.0,0.0,0.0,0.0,0.0
1666092070448081395,0.0,0.0,0.0,0.0,0.0,0.0
1666092070492056944,0.0,0.0,0.0,0.0,0.0,0.0
1666092070492070579,0.0,0.0,0.0,0.0,0.0,0.0
1666092070536055506,0.0,0.0,0.0,0.0,0.0,0.0
1666092070536065029,0.0,0.0,0.0,0.0,0.0,0.0
1666092070536072046,0.0,0.0,0.0,0.0,0.0,0.0
1666092070580033296,0.0,0.0,0.0,0.0,0.0,0.0
1666092070580046933,0.0,0.0,0.0,0.0,0.0,0.0
1666092070594741235,0.0,0.0,0.0,0.0,0.0,0.0
1666092070614836251,0.0,0.0,0.0,0.0,0.0,0.0
1666092070660045160,0.0,0.0,0.0,0.0,0.0,0.0
1666092070660055046,0.0,0.0,0.0,0.0,0.0,0.0
1666092070704069745,0.0,0.0,0.0,0.0,0.0,0.0
1666092070704081742,0.0,0.0,0.0,0.0,0.0,0.0
1666092070748183920,0.0,0.0,0.0,0.0,0.0,0.0
1666092070748205463,0.0,0.0,0.0,0.0,0.0,0.0
1666092070792057749,0.0,0.0,0.0,0.0,0.0,0.0
1666092070792069625,0.0,0.0,0.0,0.0,0.0,0.0
1666092070836032912,0.0,0.0,0.0,0.0,0.0,0.0
1666092070836042974,0.0,0.0,0.0,0.0,0.0,0.0
1666092070836050739,0.0,0.0,0.0,0.0,0.0,0.0
1666092070880123052,0.0,0.0,0.0,0.0,0.0,0.0
1666092070880146262,0.0,0.0,0.0,0.0,0.0,0.0
1666092070894742175,0.0,0.0,0.0,0.0,0.0,0.0
1666092070914673539,0.0,0.0,0.0,0.0,0.0,0.0
1666092070956075554,0.0,0.0,0.0,0.0,0.0,0.0
1666092070956090291,0.0,0.0,0.0,0.0,0.0,0.0
1666092071000037953,0.0,0.0,0.0,0.0,0.0,0.0
1666092071000043815,0.0,0.0,0.0,0.0,0.0,0.0
1666092071044040781,0.0,0.0,0.0,0.0,0.0,0.0
1666092071044050577,0.0,0.0,0.0,0.0,0.0,0.0
1666092071088037613,0.0,0.0,0.0,0.0,0.0,0.0
1666092071088046973,0.0,0.0,0.0,0.0,0.0,0.0
1666092071132293126,0.0,0.0,0.0,0.0,0.0,0.0
1666092071132337253,0.0,0.0,0.0,0.0,0.0,0.0
1666092071176055955,0.0,0.0,0.0,0.0,0.0,0.0
1666092071176071502,0.0,0.0,0.0,0.0,0.0,0.0
1666092071176078308,0.0,0.0,0.0,0.0,0.0,0.0
1666092071220030274,0.0,0.0,0.0,0.0,0.0,0.0
1666092071220044297,0.0,0.0,0.0,0.0,0.0,0.0
1666092071234494337,0.0,0.0,0.0,0.0,0.0,0.0
1666092071254506895,0.0,0.0,0.0,0.0,0.0,0.0
1666092071300099787,0.0,0.0,0.0,0.0,0.0,0.0
1666092071300113029,0.0,0.0,0.0,0.0,0.0,0.0
1666092071344116364,0.0,0.0,0.0,0.0,0.0,0.0
1666092071344143152,0.0,0.0,0.0,0.0,0.0,0.0
1666092071388150026,0.0,0.0,0.0,0.0,0.0,0.0
1666092071388166551,0.0,0.0,0.0,0.0,0.0,0.0
1666092071433215123,0.0,0.0,0.0,0.0,0.0,0.0
1666092071433268977,0.0,0.0,0.0,0.0,0.0,0.0
1666092071476072865,0.0,0.0,0.0,0.0,0.0,0.0
1666092071476091463,0.0,0.0,0.0,0.0,0.0,0.0
1666092071476109463,0.0,0.0,0.0,0.0,0.0,0.0
1666092071524102868,0.0,0.0,0.0,0.0,0.0,0.0
1666092071524138212,0.0,0.0,0.0,0.0,0.0,0.0
1666092071535657671,0.0,0.0,0.0,0.0,0.0,0.0
1666092071554660056,0.0,0.0,0.0,0.0,0.0,0.0
1666092071596073506,0.0,0.0,0.0,0.0,0.0,0.0
1666092071596085708,0.0,0.0,0.0,0.0,0.0,0.0
1666092071640174542,0.0,0.0,0.0,0.0,0.0,0.0
1666092071640201054,0.0,0.0,0.0,0.0,0.0,0.0
1666092071684274457,0.0,0.0,0.0,0.0,0.0,0.0
1666092071684317335,0.0,0.0,0.0,0.0,0.0,0.0
1666092071728267041,0.0,0.0,0.0,0.0,0.0,0.0
1666092071728308646,0.0,0.0,0.0,0.0,0.0,0.0
1666092071776233796,0.0,0.0,0.0,0.0,0.0,0.0
1666092071776270055,0.0,0.0,0.0,0.0,0.0,0.0
1666092071776306518,0.0,0.0,0.0,0.0,0.0,0.0
1666092071820148373,0.0,0.0,0.0,0.0,0.0,0.0
1666092071820174620,0.0,0.0,0.0,0.0,0.0,0.0
1666092071835798004,0.0,0.0,0.0,0.0,0.0,0.0
1666092071855536373,0.0,0.0,0.0,0.0,0.0,0.0
1666092071900129098,0.0,0.0,0.0,0.0,0.0,0.0
1666092071900153379,0.0,0.0,0.0,0.0,0.0,0.0
1666092071948286575,0.0,0.0,0.0,0.0,0.0,0.0
1666092071948307210,0.0,0.0,0.0,0.0,0.0,0.0
1666092071996055311,0.0,0.0,0.0,0.0,0.0,0.0
1666092071996070099,0.0,0.0,0.0,0.0,0.0,0.0
1666092071996073800,0.0,0.0,0.0,0.0,0.0,0.0
1666092072040046318,0.0,0.0,0.0,0.0,0.0,0.0
1666092072040061406,0.0,0.0,0.0,0.0,0.0,0.0
1666092072055269166,0.0,0.0,0.0,0.0,0.0,0.0
1666092072076284183,0.0,0.0,0.0,0.0,0.0,0.0
1666092072120045546,0.0,0.0,0.0,0.0,0.0,0.0
1666092072120055307,0.0,0.0,0.0,0.0,0.0,0.0
1666092072164057764,0.0,0.0,0.0,0.0,0.0,0.0
1666092072164068657,0.0,0.0,0.0,0.0,0.0,0.0
1666092072208048044,0.0,0.0,0.0,0.0,0.0,0.0
1666092072208058122,0.0,0.0,0.0,0.0,0.0,0.0
1666092072252055016,0.0,0.0,0.0,0.0,0.0,0.0
1666092072252065153,0.0,0.0,0.0,0.0,0.0,0.0
1666092072296049587,0.0,0.0,0.0,0.0,0.0,0.0
1666092072296060938,0.0,0.0,0.0,0.0,0.0,0.0
1666092072296068216,0.0,0.0,0.0,0.0,0.0,0.0
1666092072340078474,0.0,0.0,0.0,0.0,0.0,0.0
1666092072340104784,0.0,0.0,0.0,0.0,0.0,0.0
1666092072355367532,0.0,0.0,0.0,0.0,0.0,0.0
1666092072375345051,0.0,0.0,0.0,0.0,0.0,0.0
1666092072416068329,0.0,0.0,0.0,0.0,0.0,0.0
1666092072416083533,0.0,0.0,0.0,0.0,0.0,0.0
1666092072464168440,0.0,0.0,0.0,0.0,0.0,0.0
1666092072464198607,0.0,0.0,0.0,0.0,0.0,0.0
1666092072512088449,0.0,0.0,0.0,0.0,0.0,0.0
1666092072512105216,0.0,0.0,0.0,0.0,0.0,0.0
1666092072556112818,0.0,0.0,0.0,0.0,0.0,0.0
1666092072556134336,0.0,0.0,0.0,0.0,0.0,0.0
1666092072600068459,0.0,0.0,0.0,0.0,0.0,0.0
1666092072600081829,0.0,0.0,0.0,0.0,0.0,0.0
1666092072600095465,0.0,0.0,0.0,0.0,0.0,0.0
1666092072648117993,0.0,0.0,0.0,0.0,0.0,0.0
1666092072648136967,0.0,0.0,0.0,0.0,0.0,0.0
1666092072655218818,0.0,0.0,0.0,0.0,0.0,0.0
1666092072676290815,0.0,0.0,0.0,0.0,0.0,0.0
1666092072720089677,0.0,0.0,0.0,0.0,0.0,0.0
1666092072720108297,0.0,0.0,0.0,0.0,0.0,0.0
1666092072764086712,0.0,0.0,0.0,0.0,0.0,0.0
1666092072764097537,0.0,0.0,0.0,0.0,0.0,0.0
1666092072808119034,0.0,0.0,0.0,0.0,0.0,0.0
1666092072808143381,0.0,0.0,0.0,0.0,0.0,0.0
1666092072852079590,0.0,0.0,0.0,0.0,0.0,0.0
1666092072852092897,0.0,0.0,0.0,0.0,0.0,0.0
1666092072896125461,0.0,0.0,0.0,0.0,0.0,0.0
1666092072896138631,0.0,0.0,0.0,0.0,0.0,0.0
1666092072896154544,0.0,0.0,0.0,0.0,0.0,0.0
1666092072940071115,0.0,0.0,0.0,0.0,0.0,0.0
1666092072940085564,0.0,0.0,0.0,0.0,0.0,0.0
1666092072955949255,0.0,0.0,0.0,0.0,0.0,0.0
1666092072977213307,0.0,0.0,0.0,0.0,0.0,0.0
1666092073020074078,0.0,0.0,0.0,0.0,0.0,0.0
1666092073020090488,0.0,0.0,0.0,0.0,0.0,0.0
1666092073064102334,0.0,0.0,0.0,0.0,0.0,0.0
1666092073064111333,0.0,0.0,0.0,0.0,0.0,0.0
1666092073112186185,0.0,0.0,0.0,0.0,0.0,0.0
1666092073112213980,0.0,0.0,0.0,0.0,0.0,0.0
1666092073156115375,0.0,0.0,0.0,0.0,0.0,0.0
1666092073156137339,0.0,0.0,0.0,0.0,0.0,0.0
1666092073200063007,0.0,0.0,0.0,0.0,0.0,0.0
1666092073200076787,0.0,0.0,0.0,0.0,0.0,0.0
1666092073200085162,0.0,0.0,0.0,0.0,0.0,0.0
1666092073244119647,0.0,0.0,0.0,0.0,0.0,0.0
1666092073244144703,0.0,0.0,0.0,0.0,0.0,0.0
1666092073256107436,0.0,0.0,0.0,0.0,0.0,0.0
1666092073276177658,0.0,0.0,0.0,0.0,0.0,0.0
1666092073320088091,0.0,0.0,0.0,0.0,0.0,0.0
1666092073320103983,0.0,0.0,0.0,0.0,0.0,0.0
1666092073364079417,0.0,0.0,0.0,0.0,0.0,0.0
1666092073364094060,0.0,0.0,0.0,0.0,0.0,0.0
1666092073408050361,0.0,0.0,0.0,0.0,0.0,0.0
1666092073408060325,0.0,0.0,0.0,0.0,0.0,0.0
1666092073452139949,0.0,0.0,0.0,0.0,0.0,0.0
1666092073452162507,0.0,0.0,0.0,0.0,0.0,0.0
1666092073496109621,0.0,0.0,0.0,0.0,0.0,0.0
1666092073496133691,0.0,0.0,0.0,0.0,0.0,0.0
1666092073496141465,0.0,0.0,0.0,0.0,0.0,0.0
1666092073544092871,0.0,0.0,0.0,0.0,0.0,0.0
1666092073544113522,0.0,0.0,0.0,0.0,0.0,0.0
1666092073556897842,0.0,0.0,0.0,0.0,0.0,0.0
1666092073576054653,0.0,0.0,0.0,0.0,0.0,0.0
1666092073620075032,0.0,0.0,0.0,0.0,0.0,0.0
1666092073620092035,0.0,0.0,0.0,0.0,0.0,0.0
1666092073664077506,0.0,0.0,0.0,0.0,0.0,0.0
1666092073664088380,0.0,0.0,0.0,0.0,0.0,0.0
1666092073712161316,0.0,0.0,0.0,0.0,0.0,0.0
1666092073712186190,0.0,0.0,0.0,0.0,0.0,0.0
1666092073760130681,0.0,0.0,0.0,0.0,0.0,0.0
1666092073760148148,0.0,0.0,0.0,0.0,0.0,0.0
1666092073760156731,0.0,0.0,0.0,0.0,0.0,0.0
1666092073804051592,0.0,0.0,0.0,0.0,0.0,0.0
1666092073804065084,0.0,0.0,0.0,0.0,0.0,0.0
1666092073816685102,0.0,0.0,0.0,0.0,0.0,0.0
1666092073836787473,0.0,0.0,0.0,0.0,0.0,0.0
1666092073880101769,0.0,0.0,0.0,0.0,0.0,0.0
1666092073880118081,0.0,0.0,0.0,0.0,0.0,0.0
1666092073928057562,0.0,0.0,0.0,0.0,0.0,0.0
1666092073928068936,0.0,0.0,0.0,0.0,0.0,0.0
1666092073972110252,0.0,0.0,0.0,0.0,0.0,0.0
1666092073972120430,0.0,0.0,0.0,0.0,0.0,0.0
1666092074016057216,0.0,0.0,0.0,0.0,0.0,0.0
1666092074016069336,0.0,0.0,0.0,0.0,0.0,0.0
1666092074060256991,0.0,0.0,0.0,0.0,0.0,0.0
1666092074060290070,0.0,0.0,0.0,0.0,0.0,0.0
1666092074060325343,0.0,0.0,0.0,0.0,0.0,0.0
1666092074108064330,0.0,0.0,0.0,0.0,0.0,0.0
1666092074108077982,0.0,0.0,0.0,0.0,0.0,0.0
1666092074117107934,0.0,0.0,0.0,0.0,0.0,0.0
1666092074136511235,0.0,0.0,0.0,0.0,0.0,0.0
1666092074184128634,0.0,0.0,0.0,0.0,0.0,0.0
1666092074184150855,0.0,0.0,0.0,0.0,0.0,0.0
1666092074228041098,0.0,0.0,0.0,0.0,0.0,0.0
1666092074228052693,0.0,0.0,0.0,0.0,0.0,0.0
1666092074276077347,0.0,0.0,0.0,0.0,0.0,0.0
1666092074276086593,0.0,0.0,0.0,0.0,0.0,0.0
1666092074324132091,0.0,0.0,0.0,0.0,0.0,0.0
1666092074324176088,0.0,0.0,0.0,0.0,0.0,0.0
1666092074324576080,0.0,0.0,0.0,0.0,0.0,0.0
1666092074368085473,0.0,0.0,0.0,0.0,0.0,0.0
1666092074368107535,0.0,0.0,0.0,0.0,0.0,0.0
1666092074377821314,0.0,0.0,0.0,0.0,0.0,0.0
1666092074396934209,0.0,0.0,0.0,0.0,0.0,0.0
1666092074440066343,0.0,0.0,0.0,0.0,0.0,0.0
1666092074440077622,0.0,0.0,0.0,0.0,0.0,0.0
1666092074488224303,0.0,0.0,0.0,0.0,0.0,0.0
1666092074488246202,0.0,0.0,0.0,0.0,0.0,0.0
1666092074532091876,0.0,0.0,0.0,0.0,0.0,0.0
1666092074532111286,0.0,0.0,0.0,0.0,0.0,0.0
1666092074580116917,0.0,0.0,0.0,0.0,0.0,0.0
1666092074580141423,0.0,0.0,0.0,0.0,0.0,0.0
1666092074580151387,0.0,0.0,0.0,0.0,0.0,0.0
1666092074624100882,0.0,0.0,0.0,0.0,0.0,0.0
1666092074624112720,0.0,0.0,0.0,0.0,0.0,0.0
1666092074636350842,0.0,0.0,0.0,0.0,0.0,0.0
1666092074656578305,0.0,0.0,0.0,0.0,0.0,0.0
1666092074700059628,0.0,0.0,0.0,0.0,0.0,0.0
1666092074700068537,0.0,0.0,0.0,0.0,0.0,0.0
1666092074744203684,0.0,0.0,0.0,0.0,0.0,0.0
1666092074744226827,0.0,0.0,0.0,0.0,0.0,0.0
1666092074788104364,0.0,0.0,0.0,0.0,0.0,0.0
1666092074788132404,0.0,0.0,0.0,0.0,0.0,0.0
1666092074836054959,0.0,0.0,0.0,0.0,0.0,0.0
1666092074836067445,0.0,0.0,0.0,0.0,0.0,0.0
1666092074880265765,0.0,0.0,0.0,0.0,0.0,0.0
1666092074880288009,0.0,0.0,0.0,0.0,0.0,0.0
1666092074880304854,0.0,0.0,0.0,0.0,0.0,0.0
1666092074924122010,0.0,0.0,0.0,0.0,0.0,0.0
1666092074924137080,0.0,0.0,0.0,0.0,0.0,0.0
1666092074937446977,0.0,0.0,0.0,0.0,0.0,0.0
1666092074958101045,0.0,0.0,0.0,0.0,0.0,0.0
1666092075000204698,0.0,0.0,0.0,0.0,0.0,0.0
1666092075000227786,0.0,0.0,0.0,0.0,0.0,0.0
1666092075048223785,0.0,0.0,0.0,0.0,0.0,0.0
1666092075048263881,0.0,0.0,0.0,0.0,0.0,0.0
1666092075092207228,0.0,0.0,0.0,0.0,0.0,0.0
1666092075092221062,0.0,0.0,0.0,0.0,0.0,0.0
1666092075136067962,0.0,0.0,0.0,0.0,0.0,0.0
1666092075136083669,0.0,0.0,0.0,0.0,0.0,0.0
1666092075180111685,0.0,0.0,0.0,0.0,0.0,0.0
1666092075180129535,0.0,0.0,0.0,0.0,0.0,0.0
1666092075180135035,0.0,0.0,0.0,0.0,0.0,0.0
1666092075224137392,0.0,0.0,0.0,0.0,0.0,0.0
1666092075224163286,0.0,0.0,0.0,0.0,0.0,0.0
1666092075237251964,0.0,0.0,0.0,0.0,0.0,0.0
1666092075257404279,0.0,0.0,0.0,0.0,0.0,0.0
1666092075300060718,0.0,0.0,0.0,0.0,0.0,0.0
1666092075300074003,0.0,0.0,0.0,0.0,0.0,0.0
1666092075344112925,0.0,0.0,0.0,0.0,0.0,0.0
1666092075344131118,0.0,0.0,0.0,0.0,0.0,0.0
1666092075388185496,0.0,0.0,0.0,0.0,0.0,0.0
1666092075388208098,0.0,0.0,0.0,0.0,0.0,0.0
1666092075432064787,0.0,0.0,0.0,0.0,0.0,0.0
1666092075432072581,0.0,0.0,0.0,0.0,0.0,0.0
1666092075476110700,0.0,0.0,0.0,0.0,0.0,0.0
1666092075476128144,0.0,0.0,0.0,0.0,0.0,0.0
1666092075520091477,0.0,0.0,0.0,0.0,0.0,0.0
1666092075520107266,0.0,0.0,0.0,0.0,0.0,0.0
1666092075520113184,0.0,0.0,0.0,0.0,0.0,0.0
1666092075564101602,0.0,0.0,0.0,0.0,0.0,0.0
1666092075564115208,0.0,0.0,0.0,0.0,0.0,0.0
1666092075577034692,0.0,0.0,0.0,0.0,0.0,0.0
1666092075599474734,0.0,0.0,0.0,0.0,0.0,0.0
1666092075640109027,0.0,0.0,0.0,0.0,0.0,0.0
1666092075640120520,0.0,0.0,0.0,0.0,0.0,0.0
1666092075684157346,0.0,0.0,0.0,0.0,0.0,0.0
1666092075684180143,0.0,0.0,0.0,0.0,0.0,0.0
1666092075728648871,0.0,0.0,0.0,0.0,0.0,0.0
1666092075729057065,0.0,0.0,0.0,0.0,0.0,0.0
1666092075772326388,0.0,0.0,0.0,0.0,0.0,0.0
1666092075772404826,0.0,0.0,0.0,0.0,0.0,0.0
1666092075816108473,0.0,0.0,0.0,0.0,0.0,0.0
1666092075816124705,0.0,0.0,0.0,0.0,0.0,0.0
1666092075860124051,0.0,0.0,0.0,0.0,0.0,0.0
1666092075860145913,0.0,0.0,0.0,0.0,0.0,0.0
1666092075860162992,0.0,0.0,0.0,0.0,0.0,0.0
1666092075904116377,0.0,0.0,0.0,0.0,0.0,0.0
1666092075904130630,0.0,0.0,0.0,0.0,0.0,0.0
1666092075918021382,0.0,0.0,0.0,0.0,0.0,0.0
1666092075938177115,0.0,0.0,0.0,0.0,0.0,0.0
1666092075980155290,0.0,0.0,0.0,0.0,0.0,0.0
1666092075980179435,0.0,0.0,0.0,0.0,0.0,0.0
1666092076024063267,0.0,0.0,0.0,0.0,0.0,0.0
1666092076024075885,0.0,0.0,0.0,0.0,0.0,0.0
1666092076068141097,0.0,0.0,0.0,0.0,0.0,0.0
1666092076068156774,0.0,0.0,0.0,0.0,0.0,0.0
1666092076112194559,0.0,0.0,0.0,0.0,0.0,0.0
1666092076112216015,0.0,0.0,0.0,0.0,0.0,0.0
1666092076156233600,0.0,0.0,0.0,0.0,0.0,0.0
1666092076156251668,0.0,0.0,0.0,0.0,0.0,0.0
1666092076212442432,0.0,0.0,0.0,0.0,0.0,0.0
1666092076212536986,0.0,0.0,0.0,0.0,0.0,0.0
1666092076212552666,0.0,0.0,0.0,0.0,0.0,0.0
1666092076244392255,0.0,0.0,0.0,0.0,0.0,0.0
1666092076244426793,0.0,0.0,0.0,0.0,0.0,0.0
1666092076258176658,0.0,0.0,0.0,0.0,0.0,0.0
1666092076279544113,0.0,0.0,0.0,0.0,0.0,0.0
1666092076320121513,0.0,0.0,0.0,0.0,0.0,0.0
1666092076320142120,0.0,0.0,0.0,0.0,0.0,0.0
1666092076364087044,0.0,0.0,0.0,0.0,0.0,0.0
1666092076364105095,0.0,0.0,0.0,0.0,0.0,0.0
1666092076408380704,0.0,0.0,0.0,0.0,0.0,0.0
1666092076408394134,0.0,0.0,0.0,0.0,0.0,0.0
1666092076456117749,0.0,0.0,0.0,0.0,0.0,0.0
1666092076456130540,0.0,0.0,0.0,0.0,0.0,0.0
1666092076500126113,0.0,0.0,0.0,0.0,0.0,0.0
1666092076500143294,0.0,0.0,0.0,0.0,0.0,0.0
1666092076500164721,0.0,0.0,0.0,0.0,0.0,0.0
1666092076544092845,0.0,0.0,0.0,0.0,0.0,0.0
1666092076544105711,0.0,0.0,0.0,0.0,0.0,0.0
1666092076558099546,0.0,0.0,0.0,0.0,0.0,0.0
1666092076578147094,0.0,0.0,0.0,0.0,0.0,0.0
1666092076620090425,0.0,0.0,0.0,0.0,0.0,0.0
1666092076620102118,0.0,0.0,0.0,0.0,0.0,0.0
1666092076664451695,0.0,0.0,0.0,0.0,0.0,0.0
1666092076664482667,0.0,0.0,0.0,0.0,0.0,0.0
1666092076708103849,0.0,0.0,0.0,0.0,0.0,0.0
1666092076708112350,0.0,0.0,0.0,0.0,0.0,0.0
1666092076756121194,0.0,0.0,0.0,0.0,0.0,0.0
1666092076756136974,0.0,0.0,0.0,0.0,0.0,0.0
1666092076804125737,0.0,0.0,0.0,0.0,0.0,0.0
1666092076804142497,0.0,0.0,0.0,0.0,0.0,0.0
1666092076804147417,0.0,0.0,0.0,0.0,0.0,0.0
1666092076848193478,0.0,0.0,0.0,0.0,0.0,0.0
1666092076848212179,0.0,0.0,0.0,0.0,0.0,0.0
1666092076858658276,0.0,0.0,0.0,0.0,0.0,0.0
1666092076879059567,0.0,0.0,0.0,0.0,0.0,0.0
1666092076920093874,0.0,0.0,0.0,0.0,0.0,0.0
1666092076920110200,0.0,0.0,0.0,0.0,0.0,0.0
1666092076964111917,0.0,0.0,0.0,0.0,0.0,0.0
1666092076964126384,0.0,0.0,0.0,0.0,0.0,0.0
1666092077008114889,0.0,0.0,0.0,0.0,0.0,0.0
1666092077008127987,0.0,0.0,0.0,0.0,0.0,0.0
1666092077052569616,0.0,0.0,0.0,0.0,0.0,0.0
1666092077052623134,0.0,0.0,0.0,0.0,0.0,0.0
1666092077100946729,0.0,0.0,0.0,0.0,0.0,0.0
1666092077100980409,0.0,0.0,0.0,0.0,0.0,0.0
1666092077148262799,0.0,0.0,0.0,0.0,0.0,0.0
1666092077148289120,0.0,0.0,0.0,0.0,0.0,0.0
1666092077148309252,0.0,0.0,0.0,0.0,0.0,0.0
1666092077192631727,0.0,0.0,0.0,0.0,0.0,0.0
1666092077192679859,0.0,0.0,0.0,0.0,0.0,0.0
1666092077199146592,0.0,0.0,0.0,0.0,0.0,0.0
1666092077229157059,0.0,0.0,0.0,0.0,0.0,0.0
1666092077260256255,0.0,0.0,0.0,0.0,0.0,0.0
1666092077260292729,0.0,0.0,0.0,0.0,0.0,0.0
1666092077325209538,0.0,0.0,0.0,0.0,0.0,0.0
1666092077325232805,0.0,0.0,0.0,0.0,0.0,0.0
1666092077353513457,0.0,0.0,0.0,0.0,0.0,0.0
1666092077353558058,0.0,0.0,0.0,0.0,0.0,0.0
1666092077401717563,0.0,0.0,0.0,0.0,0.0,0.0
1666092077401765281,0.0,0.0,0.0,0.0,0.0,0.0
1666092077401827198,0.0,0.0,0.0,0.0,0.0,0.0
1666092077444287059,0.0,0.0,0.0,0.0,0.0,0.0
1666092077444328053,0.0,0.0,0.0,0.0,0.0,0.0
1666092077460759186,0.0,0.0,0.0,0.0,0.0,0.0
1666092077479475313,0.0,0.0,0.0,0.0,0.0,0.0
1666092077520361637,0.0,0.0,0.0,0.0,0.0,0.0
1666092077520400397,0.0,0.0,0.0,0.0,0.0,0.0
1666092077564088406,0.0,0.0,0.0,0.0,0.0,0.0
1666092077564099541,0.0,0.0,0.0,0.0,0.0,0.0
1666092077608175966,0.0,0.0,0.0,0.0,0.0,0.0
1666092077608195611,0.0,0.0,0.0,0.0,0.0,0.0
1666092077652469478,0.0,0.0,0.0,0.0,0.0,0.0
1666092077652518831,0.0,0.0,0.0,0.0,0.0,0.0
1666092077696052840,0.0,0.0,0.0,0.0,0.0,0.0
1666092077696061089,0.0,0.0,0.0,0.0,0.0,0.0
1666092077740101756,0.0,0.0,0.0,0.0,0.0,0.0
1666092077740121749,0.0,0.0,0.0,0.0,0.0,0.0
1666092077740126730,0.0,0.0,0.0,0.0,0.0,0.0
1666092077788199199,0.0,0.0,0.0,0.0,0.0,0.0
1666092077788226847,0.0,0.0,0.0,0.0,0.0,0.0
1666092077798254813,0.0,0.0,0.0,0.0,0.0,0.0
1666092077819105707,0.0,0.0,0.0,0.0,0.0,0.0
1666092077860139983,0.0,0.0,0.0,0.0,0.0,0.0
1666092077860156607,0.0,0.0,0.0,0.0,0.0,0.0
1666092077908137746,0.0,0.0,0.0,0.0,0.0,0.0
1666092077908159477,0.0,0.0,0.0,0.0,0.0,0.0
1666092077952136405,0.0,0.0,0.0,0.0,0.0,0.0
1666092077952166134,0.0,0.0,0.0,0.0,0.0,0.0
1666092077996113082,0.0,0.0,0.0,0.0,0.0,0.0
1666092077996126348,0.0,0.0,0.0,0.0,0.0,0.0
1666092078040082143,0.0,0.0,0.0,0.0,0.0,0.0
1666092078040096124,0.0,0.0,0.0,0.0,0.0,0.0
1666092078040127292,0.0,0.0,0.0,0.0,0.0,0.0
1666092078084116927,0.0,0.0,0.0,0.0,0.0,0.0
1666092078084135733,0.0,0.0,0.0,0.0,0.0,0.0
1666092078099136410,0.0,0.0,0.0,0.0,0.0,0.0
1666092078119508949,0.0,0.0,0.0,0.0,0.0,0.0
1666092078164074224,0.0,0.0,0.0,0.0,0.0,0.0
1666092078164087634,0.0,0.0,0.0,0.0,0.0,0.0
1666092078212212708,0.0,0.0,0.0,0.0,0.0,0.0
1666092078212239662,0.0,0.0,0.0,0.0,0.0,0.0
1666092078256146671,0.0,0.0,0.0,0.0,0.0,0.0
1666092078256179145,0.0,0.0,0.0,0.0,0.0,0.0
1666092078300154198,0.0,0.0,0.0,0.0,0.0,0.0
1666092078300177424,0.0,0.0,0.0,0.0,0.0,0.0
1666092078300192648,0.0,0.0,0.0,0.0,0.0,0.0
1666092078348202584,0.0,0.0,0.0,0.0,0.0,0.0
1666092078348234559,0.0,0.0,0.0,0.0,0.0,0.0
1666092078359946865,0.0,0.0,0.0,0.0,0.0,0.0
1666092078379260149,0.0,0.0,0.0,0.0,0.0,0.0
1666092078420239108,0.0,0.0,0.0,0.0,0.0,0.0
1666092078420262729,0.0,0.0,0.0,0.0,0.0,0.0
1666092078468072701,0.0,0.0,0.0,0.0,0.0,0.0
1666092078468087025,0.0,0.0,0.0,0.0,0.0,0.0
1666092078512265215,0.0,0.0,0.0,0.0,0.0,0.0
1666092078512298953,0.0,0.0,0.0,0.0,0.0,0.0
1666092078556069005,0.0,0.0,0.0,0.0,0.0,0.0
1666092078556087027,0.0,0.0,0.0,0.0,0.0,0.0
1666092078600055848,0.0,0.0,0.0,0.0,0.0,0.0
1666092078600077559,0.0,0.0,0.0,0.0,0.0,0.0
1666092078600082834,0.0,0.0,0.0,0.0,0.0,0.0
1666092078644108036,0.0,0.0,0.0,0.0,0.0,0.0
1666092078644126424,0.0,0.0,0.0,0.0,0.0,0.0
1666092078660043164,0.0,0.0,0.0,0.0,0.0,0.0
1666092078679493276,0.0,0.0,0.0,0.0,0.0,0.0
1666092078724350735,0.0,0.0,0.0,0.0,0.0,0.0
1666092078724385946,0.0,0.0,0.0,0.0,0.0,0.0
1666092078768057628,0.0,0.0,0.0,0.0,0.0,0.0
1666092078768069097,0.0,0.0,0.0,0.0,0.0,0.0
1666092078812143744,0.0,0.0,0.0,0.0,0.0,0.0
1666092078812175986,0.0,0.0,0.0,0.0,0.0,0.0
1666092078856692731,0.0,0.0,0.0,0.0,0.0,0.0
1666092078856717654,0.0,0.0,0.0,0.0,0.0,0.0
1666092078900179651,0.0,0.0,0.0,0.0,0.0,0.0
1666092078900203125,0.0,0.0,0.0,0.0,0.0,0.0
1666092078900210215,0.0,0.0,0.0,0.0,0.0,0.0
1666092078948231683,0.0,0.0,0.0,0.0,0.0,0.0
1666092078948284712,0.0,0.0,0.0,0.0,0.0,0.0
1666092078958906193,0.0,0.0,0.0,0.0,0.0,0.0
1666092078980321667,0.0,0.0,0.0,0.0,0.0,0.0
1666092079028303637,0.0,0.0,0.0,0.0,0.0,0.0
1666092079028317628,0.0,0.0,0.0,0.0,0.0,0.0
1666092079072052540,0.0,0.0,0.0,0.0,0.0,0.0
1666092079072067558,0.0,0.0,0.0,0.0,0.0,0.0
1666092079120113704,0.0,0.0,0.0,0.0,0.0,0.0
1666092079120129143,0.0,0.0,0.0,0.0,0.0,0.0
1666092079120150578,0.0,0.0,0.0,0.0,0.0,0.0
1666092079168164733,0.0,0.0,0.0,0.0,0.0,0.0
1666092079168181526,0.0,0.0,0.0,0.0,0.0,0.0
1666092079180205014,0.0,0.0,0.0,0.0,0.0,0.0
1666092079199182198,0.0,0.0,0.0,0.0,0.0,0.0
1666092079240059000,0.0,0.0,0.0,0.0,0.0,0.0
1666092079240072353,0.0,0.0,0.0,0.0,0.0,0.0
1666092079284178904,0.0,0.0,0.0,0.0,0.0,0.0
1666092079284219195,0.0,0.0,0.0,0.0,0.0,0.0
1666092079328375188,0.0,0.0,0.0,0.0,0.0,0.0
1666092079328399162,0.0,0.0,0.0,0.0,0.0,0.0
1666092079372205084,0.0,0.0,0.0,0.0,0.0,0.0
1666092079372233355,0.0,0.0,0.0,0.0,0.0,0.0
1666092079416275106,0.0,0.0,0.0,0.0,0.0,0.0
1666092079416307133,0.0,0.0,0.0,0.0,0.0,0.0
1666092079460139440,0.0,0.0,0.0,0.0,0.0,0.0
1666092079460153709,0.0,0.0,0.0,0.0,0.0,0.0
1666092079460188314,0.0,0.0,0.0,0.0,0.0,0.0
1666092079504100784,0.0,0.0,0.0,0.0,0.0,0.0
1666092079504116030,0.0,0.0,0.0,0.0,0.0,0.0
1666092079519849773,0.0,0.0,0.0,0.0,0.0,0.0
1666092079540416930,0.0,0.0,0.0,0.0,0.0,0.0
1666092079588208638,0.0,0.0,0.0,0.0,0.0,0.0
1666092079588238172,0.0,0.0,0.0,0.0,0.0,0.0
1666092079636129237,0.0,0.0,0.0,0.0,0.0,0.0
1666092079636146796,0.0,0.0,0.0,0.0,0.0,0.0
1666092079684130033,0.0,0.0,0.0,0.0,0.0,0.0
1666092079684150911,0.0,0.0,0.0,0.0,0.0,0.0
1666092079684158296,0.0,0.0,0.0,0.0,0.0,0.0
1666092079732123175,0.0,0.0,0.0,0.0,0.0,0.0
1666092079732140372,0.0,0.0,0.0,0.0,0.0,0.0
1666092079740739412,0.0,0.0,0.0,0.0,0.0,0.0
1666092079760570314,0.0,0.0,0.0,0.0,0.0,0.0
1666092079808101823,0.0,0.0,0.0,0.0,0.0,0.0
1666092079808114633,0.0,0.0,0.0,0.0,0.0,0.0
1666092079852250057,0.0,0.0,0.0,0.0,0.0,0.0
1666092079852276572,0.0,0.0,0.0,0.0,0.0,0.0
1666092079896416263,0.0,0.0,0.0,0.0,0.0,0.0
1666092079896460552,0.0,0.0,0.0,0.0,0.0,0.0
1666092079940167318,0.0,0.0,0.0,0.0,0.0,0.0
1666092079940192944,0.0,0.0,0.0,0.0,0.0,0.0
1666092079940211076,0.0,0.0,0.0,0.0,0.0,0.0
1666092079984334842,0.0,0.0,0.0,0.0,0.0,0.0
1666092079984383627,0.0,0.0,0.0,0.0,0.0,0.0
1666092079999732386,0.0,0.0,0.0,0.0,0.0,0.0
1666092080022660795,0.0,0.0,0.0,0.0,0.0,0.0
1666092080068088272,0.0,0.0,0.0,0.0,0.0,0.0
1666092080068104415,0.0,0.0,0.0,0.0,0.0,0.0
1666092080112231072,0.0,0.0,0.0,0.0,0.0,0.0
1666092080112265970,0.0,0.0,0.0,0.0,0.0,0.0
1666092080160484679,0.0,0.0,0.0,0.0,0.0,0.0
1666092080160515527,0.0,0.0,0.0,0.0,0.0,0.0
1666092080160537124,0.0,0.0,0.0,0.0,0.0,0.0
1666092080208198438,0.0,0.0,0.0,0.0,0.0,0.0
1666092080208222620,0.0,0.0,0.0,0.0,0.0,0.0
1666092080220652656,0.0,0.0,0.0,0.0,0.0,0.0
1666092080241583463,0.0,0.0,0.0,0.0,0.0,0.0
1666092080284143031,0.0,0.0,0.0,0.0,0.0,0.0
1666092080284163786,0.0,0.0,0.0,0.0,0.0,0.0
1666092080332034514,0.0,0.0,0.0,0.0,0.0,0.0
1666092080332045309,0.0,0.0,0.0,0.0,0.0,0.0
1666092080376139003,0.0,0.0,0.0,0.0,0.0,0.0
1666092080376153905,0.0,0.0,0.0,0.0,0.0,0.0
1666092080420250593,0.0,0.0,0.0,0.0,0.0,0.0
1666092080420275303,0.0,0.0,0.0,0.0,0.0,0.0
1666092080420325790,0.0,0.0,0.0,0.0,0.0,0.0
1666092080464220246,0.0,0.0,0.0,0.0,0.0,0.0
1666092080464252756,0.0,0.0,0.0,0.0,0.0,0.0
1666092080479637910,0.0,0.0,0.0,0.0,0.0,0.0
1666092080500196505,0.0,0.0,0.0,0.0,0.0,0.0
1666092080548169457,0.0,0.0,0.0,0.0,0.0,0.0
1666092080548191734,0.0,0.0,0.0,0.0,0.0,0.0
1666092080596285694,0.0,0.0,0.0,0.0,0.0,0.0
1666092080596318154,0.0,0.0,0.0,0.0,0.0,0.0
1666092080640090555,0.0,0.0,0.0,0.0,0.0,0.0
1666092080640108599,0.0,0.0,0.0,0.0,0.0,0.0
1666092080684629166,0.0,0.0,0.0,0.0,0.0,0.0
1666092080684719784,0.0,0.0,0.0,0.0,0.0,0.0
1666092080684756290,0.0,0.0,0.0,0.0,0.0,0.0
1666092080728132556,0.0,0.0,0.0,0.0,0.0,0.0
1666092080728159122,0.0,0.0,0.0,0.0,0.0,0.0
1666092080740637065,0.0,0.0,0.0,0.0,0.0,0.0
1666092080761467979,0.0,0.0,0.0,0.0,0.0,0.0
1666092080808068141,0.0,0.0,0.0,0.0,0.0,0.0
1666092080808084141,0.0,0.0,0.0,0.0,0.0,0.0
1666092080852323027,0.0,0.0,0.0,0.0,0.0,0.0
1666092080852407106,0.0,0.0,0.0,0.0,0.0,0.0
1666092080896127390,0.0,0.0,0.0,0.0,0.0,0.0
1666092080896145060,0.0,0.0,0.0,0.0,0.0,0.0
1666092080940346095,0.0,0.0,0.0,0.0,0.0,0.0
1666092080940395347,0.0,0.0,0.0,0.0,0.0,0.0
1666092080984130306,0.0,0.0,0.0,0.0,0.0,0.0
1666092080984146217,0.0,0.0,0.0,0.0,0.0,0.0
1666092080984157379,0.0,0.0,0.0,0.0,0.0,0.0
1666092081028315100,0.0,0.0,0.0,0.0,0.0,0.0
1666092081028352652,0.0,0.0,0.0,0.0,0.0,0.0
1666092081040361628,0.0,0.0,0.0,0.0,0.0,0.0
1666092081060216956,0.0,0.0,0.0,0.0,0.0,0.0
1666092081104080926,0.0,0.0,0.0,0.0,0.0,0.0
1666092081104089364,0.0,0.0,0.0,0.0,0.0,0.0
1666092081148152603,0.0,0.0,0.0,0.0,0.0,0.0
1666092081148175523,0.0,0.0,0.0,0.0,0.0,0.0
1666092081192347394,0.0,0.0,0.0,0.0,0.0,0.0
1666092081192410635,0.0,0.0,0.0,0.0,0.0,0.0
1666092081236122958,0.0,0.0,0.0,0.0,0.0,0.0
1666092081236139603,0.0,0.0,0.0,0.0,0.0,0.0
1666092081280327103,0.0,0.0,0.0,0.0,0.0,0.0
1666092081280363270,0.0,0.0,0.0,0.0,0.0,0.0
1666092081324157557,0.0,0.0,0.0,0.0,0.0,0.0
1666092081324181104,0.0,0.0,0.0,0.0,0.0,0.0
1666092081324194819,0.0,0.0,0.0,0.0,0.0,0.0
1666092081368081649,0.0,0.0,0.0,0.0,0.0,0.0
1666092081368091331,0.0,0.0,0.0,0.0,0.0,0.0019198621771937623
1666092081380407142,0.0,0.0,0.0,0.0,0.0,-0.0012217304763960308
1666092081400924608,0.0,0.0,0.0,0.0,0.0,-0.0010471975511965976
1666092081444280678,0.0,0.0,0.0,0.0,0.0,0.003316125578789226
1666092081444359344,0.002132302208337933,0.0,0.0,0.0,0.0,0.0008726646259971648
1666092081488215544,0.017058417666703463,0.0,0.0,0.0,0.0,-0.0019198621771937623
1666092081488240030,0.012793813250027599,0.0,0.0,0.0,0.0,0.0020943951023931952
1666092081532213669,0.004264604416675866,0.0,0.0,0.0,0.0,0.0
1666092081532255847,0.017058417666703463,0.0,0.0,0.0,0.0,-0.0031415926535897933
1666092081576120747,0.027719928708393127,0.0,0.0,0.0,0.0,0.0022689280275926286
1666092081576139981,0.03838143975008279,0.0,0.0,0.0,0.0,0.0036651914291880917
1666092081620282774,0.02345532429171726,0.0,0.0,0.0,0.0,-0.005061454830783556
1666092081620317375,0.029852230916731063,0.0,0.0,0.0,0.0,0.00034906585039886593
1666092081664135844,0.05330755520844832,0.0,0.0,0.0,0.0,0.00034906585039886593
1666092081664159466,0.04691064858343452,0.0,0.0,0.0,0.0,-0.00890117918517108
1666092081664168067,0.05543985741678625,0.0,0.0,0.0,0.0,-0.011344640137963142
1666092081708075313,0.05543985741678625,0.0,0.0,0.0,0.0,-0.010122909661567111
1666092081708090057,0.06183676404180006,0.0,0.0,0.0,0.0,-0.006806784082777885
1666092081720793027,0.08102748391684146,0.0,0.0,0.0,0.0,-0.012217304763960306
1666092081742328901,0.08315978612517938,0.0,0.0,0.0,0.0,-0.010821041362364843
1666092081784087094,0.09168899495853111,0.0,0.0,0.0,0.0,-0.01064650843716541
1666092081784110540,0.08742439054185526,0.0,0.0,0.0,0.0,-0.020071286397934786
1666092081832304097,0.08529208833351731,0.0,0.0,0.0,0.0,-0.026703537555513242
1666092081832342726,0.10661511041689664,0.0,0.0,0.0,0.0,-0.022863813201125717
1666092081880071532,0.11727662145858632,0.0,0.0,0.0,0.0,-0.023038346126325153
1666092081880086482,0.12580583029193804,0.0,0.0,0.0,0.0,-0.020071286397934786
1666092081924259984,0.11301201704191044,0.0,0.0,0.0,0.0,-0.03089232776029963
1666092081924281358,0.11514431925024839,0.0,0.0,0.0,0.0,-0.04276056667386108
1666092081924287359,0.13220273691695184,0.0,0.0,0.0,0.0,-0.048520153205442354
1666092081968240017,0.1407319457503036,0.0,0.0,0.0,0.0,-0.040491638646268445
1666092081968287229,0.14286424795864153,0.0,0.0,0.0,0.0,-0.039968039870670144
1666092081981343311,0.14499655016697943,0.0,0.0,0.0,0.0,-0.08168140899333462
1666092082002059096,0.13859964354196566,0.0,0.0,0.0,0.0,-0.1101302758008422
1666092082044084572,0.16205496783368292,0.0,0.0,0.0,0.0,-0.10000736613927509
1666092082044099932,0.16205496783368292,0.0,0.0,0.0,0.0,-0.12723450247038662
1666092082088395480,0.1684518744586967,0.0,0.0,0.0,0.0,-0.13543754995475998
1666092082088463917,0.17058417666703463,0.0,0.0,0.0,0.0,-0.14276793281313616
1666092082132308842,0.16205496783368292,0.0,0.0,0.0,0.0,-0.15289084247470328
1666092082132397343,0.18337798991706222,0.0,0.0,0.0,0.0,-0.1630137521362704
1666092082176119478,0.18551029212540016,0.0,0.0,0.0,0.0,-0.18483036778619952
1666092082176148955,0.2004364075837657,0.0,0.0,0.0,0.0,-0.17400932642383465
1666092082220210343,0.19403950095875191,0.0,0.0,0.0,0.0,-0.187448361664191
1666092082220275475,0.19830410537542775,0.0,0.0,0.0,0.0,-0.21607176139689802
1666092082264212773,0.20470101200044158,0.0,0.0,0.0,0.0,-0.2090904443889207
1666092082264241135,0.2196271274588071,0.0,0.0,0.0,0.0,-0.21258110289290932
1666092082264253785,0.22815633629215884,0.0,0.0,0.0,0.0,-0.21223203704251045
1666092082308109790,0.221759429667145,0.0,0.0,0.0,0.0,-0.22479840765686968
1666092082308140500,0.21749482525046915,0.0,0.0,0.0,0.0,-0.2436479635784084
1666092082320603202,0.23668554512551054,0.0,0.0,0.0,0.0,-0.2584832622203602
1666092082341614540,0.24947935837553817,0.0,0.0,0.0,0.0,-0.2584832622203602
1666092082384781462,0.253743962792214,0.0,0.0,0.0,0.0,-0.2670353755551324
1666092082384899643,0.24521475395886227,0.0,0.0,0.0,0.0,-0.2853613327010729
1666092082428153022,0.24947935837553817,0.0,0.0,0.0,0.0,-0.3097959422289935
1666092082428172501,0.26653777604224166,0.0,0.0,0.0,0.0,-0.3310889591033243
1666092082476137549,0.27080238045891747,0.0,0.0,0.0,0.0,-0.3307398932529254
1666092082476163738,0.2729346826672554,0.0,0.0,0.0,0.0,-0.3450515931192789
1666092082520262755,0.26653777604224166,0.0,0.0,0.0,0.0,-0.36163222101322506
1666092082520269531,0.2814638915006072,0.0,0.0,0.0,0.0,-0.40858157789187255
1666092082564052203,0.2814638915006072,0.0,0.0,0.0,0.0,-0.4180063558526419
1666092082564064883,0.2793315892922692,0.0,0.0,0.0,0.0,-0.42149701435663056
1666092082564075102,0.2793315892922692,0.0,0.0,0.0,0.0,-0.4419173666049642
1666092082608139208,0.27506698487559333,0.0,0.0,0.0,0.0,-0.48240900525123265
1666092082608163023,0.28359619370894507,0.0,0.0,0.0,0.0,-0.5241223743738972
1666092082622895832,0.2963900069589727,0.0,0.0,0.0,0.0,-0.5265658353266892
1666092082642685026,0.30278691358398646,0.0,0.0,0.0,0.0,-0.562345084992573
1666092082688353346,0.3006546113756486,0.0,0.0,0.0,0.0,-0.5885250237724878
1666092082688387137,0.2985223091673106,0.0,0.0,0.0,0.0,-0.6052801845916335
1666092082736160973,0.3070515180006623,0.0,0.0,0.0,0.0,-0.6145304296272034
1666092082736189308,0.3155807268340141,0.0,0.0,0.0,0.0,-0.6347762489503376
1666092082780138632,0.3134484246256761,0.0,0.0,0.0,0.0,-0.6379178416039274
1666092082780158142,0.33050684229237964,0.0,0.0,0.0,0.0,-0.6284930636431579
1666092082824135587,0.3262422378757037,0.0,0.0,0.0,0.0,-0.6394886379307223
1666092082824177464,0.32410993566736584,0.0,0.0,0.0,0.0,-0.6349507818755371
1666092082824186784,0.3347714467090555,0.0,0.0,0.0,0.0,-0.6326818538479444
1666092082872131320,0.34116835333406925,0.0,0.0,0.0,0.0,-0.6253514709895682
1666092082872155888,0.3539621665840969,0.0,0.0,0.0,0.0,-0.6291911953439557
1666092082882232777,0.3539621665840969,0.0,0.0,0.0,0.0,-0.6349507818755371
1666092082902398798,0.34969756216742104,0.0,0.0,0.0,0.0,-0.6394886379307223
1666092082948075859,0.3646236776257865,0.0,0.0,0.0,0.0,-0.6260496026903659
1666092082948089079,0.3731528864591383,0.0,0.0,0.0,0.0,-0.6216862795603801
1666092082996460509,0.2921254025422968,0.0,0.0,0.0,0.0,-0.6363470452771326
1666092082996500277,0.27506698487559333,0.0,0.0,0.0,0.0,-0.6174974893555939
1666092083044208640,0.3155807268340141,0.0,0.0,0.0,0.0,-0.6194173515327875
1666092083044235268,0.3560944687924348,0.0,0.0,0.0,0.0,-0.5967280712568612
1666092083044249193,0.31984533125069,0.0,0.0,0.0,0.0,-0.582939970166106
1666092083088299577,0.3070515180006623,0.0,0.0,0.0,0.0,-0.5721189288037412
1666092083088333645,0.31984533125069,0.0,0.0,0.0,0.0,-0.5501277802286126
1666092083103483665,0.3390360511257314,0.0,0.0,0.0,0.0,-0.5443681936970314
1666092083123416444,0.34116835333406925,0.0,0.0,0.0,0.0,-0.5230751768227005
1666092083165093630,0.33050684229237964,0.0,0.0,0.0,0.0,-0.5176646561415181
1666092083165124131,0.3326391445007175,0.0,0.0,0.0,0.0,-0.5242969072990966
1666092083208132324,0.3369037489173934,0.0,0.0,0.0,0.0,-0.5312782243070739
1666092083208152037,0.3369037489173934,0.0,0.0,0.0,0.0,-0.519235452468313
1666092083253199194,0.34969756216742104,0.0,0.0,0.0,0.0,-0.4897393881096088
1666092083253286116,0.3539621665840969,0.0,0.0,0.0,0.0,-0.47595128701885364
1666092083296330213,0.36249137541744864,0.0,0.0,0.0,0.0,-0.4951499087907913
1666092083296397640,0.36035907320911065,0.0,0.0,0.0,0.0,-0.4995132319207771
1666092083340078752,0.3454329577507451,0.0,0.0,0.0,0.0,-0.4701917004872724
1666092083340093622,0.36035907320911065,0.0,0.0,0.0,0.0,-0.3747221904031825
1666092083384155581,0.3539621665840969,0.0,0.0,0.0,0.0,-0.2448696940548044
1666092083384172127,0.3646236776257865,0.0,0.0,0.0,0.0,-0.1778490507782222
1666092083384176463,0.36249137541744864,0.0,0.0,0.0,0.0,-0.15690509975429023
1666092083428090788,0.36035907320911065,0.0,0.0,0.0,0.0,-0.06824237375297829
1666092083428117413,0.34756525995908305,0.0,0.0,0.0,0.0,-0.0013962634015954637
1666092083441576264,0.3518298643757589,0.0,0.0,0.0,0.0,0.007504915783575617
1666092083461194668,0.36035907320911065,0.0,0.0,0.0,0.0,-0.018675022996339326
1666092083504094752,0.35822677100077277,0.0,0.0,0.0,0.0,-0.01972222054753592
1666092083504115641,0.3518298643757589,0.0,0.0,0.0,0.0,0.00715584993317675
1666092083548084878,0.2963900069589727,0.0,0.0,0.0,0.0,0.010995574287564275
1666092083548123238,0.2814638915006072,0.0,0.0,0.0,0.0,-0.002967059728390361
1666092083598006739,0.18337798991706222,0.0,0.0,0.0,0.0,-0.011519173063162576
1666092083598035026,0.20256870979210362,0.0,0.0,0.0,0.0,-0.006981317007977318
1666092083644077983,0.2516116605838761,0.0,0.0,0.0,0.0,-0.00715584993317675
1666092083644096155,0.09595359937520698,0.0,0.0,0.0,0.0,-0.024783675378319478
1666092083644107892,0.03198453312506899,0.0,0.0,0.0,0.0,-0.04799655442984406
1666092083688406489,0.004264604416675866,0.0,0.0,0.0,0.0,-0.04921828490624009
1666092083688484104,0.019190719875041395,0.0,0.0,0.0,0.0,-0.04136430327226561
1666092083702958371,0.059704461833462126,0.0,0.0,0.0,0.0,-0.05672320068981571
1666092083724203130,0.07249827508348972,0.0,0.0,0.0,0.0,-0.08360127117052839
1666092083768115627,0.042646044166758657,0.0,0.0,0.0,0.0,-0.07696902001294993
1666092083768146603,0.017058417666703463,0.0,0.0,0.0,0.0,-0.08587019919812101
1666092083812085752,0.017058417666703463,0.0,0.0,0.0,0.0,-0.10175269539126942
1666092083812100965,0.019190719875041395,0.0,0.0,0.0,0.0,-0.0994837673636768
1666092083863816839,0.021323022083379328,0.0,0.0,0.0,0.0,-0.08377580409572781
1666092083863970655,0.014926115458365532,0.0,0.0,0.0,0.0,-0.07819075048934597
1666092083908137189,0.0,0.0,0.0,0.0,0.0,-0.11344640137963143
1666092083908159790,-0.008529208833351731,0.0,0.0,0.0,0.0,-0.09983283321407564
1666092083908169041,-0.006396906625013799,0.0,0.0,0.0,0.0,-0.07435102613495843
1666092083952640111,0.0,0.0,0.0,0.0,0.0,-0.05777039824101231
1666092083952686131,-0.002132302208337933,0.0,0.0,0.0,0.0,-0.05235987755982988
1666092083963487214,-0.006396906625013799,0.0,0.0,0.0,0.0,-0.05777039824101231
1666092083982061753,-0.008529208833351731,0.0,0.0,0.0,0.0,-0.05026548245743669
1666092084024323381,-0.004264604416675866,0.0,0.0,0.0,0.0,-0.035430183815484885
1666092084024347959,-0.012793813250027599,0.0,0.0,0.0,0.0,-0.03159045946109736
1666092084068228137,-0.010661511041689664,0.0,0.0,0.0,0.0,-0.04084070449666731
1666092084068253007,-0.002132302208337933,0.0,0.0,0.0,0.0,-0.030194196059501903
1666092084112190645,0.0,0.0,0.0,0.0,0.0,-0.0012217304763960308
1666092084112207376,0.0,0.0,0.0,0.0,0.0,0.012042771838760872
1666092084156080950,0.002132302208337933,0.0,0.0,0.0,0.0,0.0
1666092084156095637,0.014926115458365532,0.0,0.0,0.0,0.0,0.0019198621771937623
1666092084200125254,0.021323022083379328,0.0,0.0,0.0,0.0,0.006283185307179587
1666092084200135202,0.014926115458365532,0.0,0.0,0.0,0.0,0.007504915783575617
1666092084244150584,0.004264604416675866,0.0,0.0,0.0,0.0,0.0
1666092084244173501,0.004264604416675866,0.0,0.0,0.0,0.0,0.0
1666092084244189290,0.006396906625013799,0.0,0.0,0.0,0.0,-0.00942477796076938
1666092084288364636,0.0,0.0,0.0,0.0,0.0,-0.011693705988362009
1666092084288403744,0.0,0.0,0.0,0.0,0.0,0.0
1666092084302256018,0.0,0.0,0.0,0.0,0.0,0.015184364492350668
1666092084323336748,-0.002132302208337933,0.0,0.0,0.0,0.0,0.02583087292951608
1666092084364111957,-0.006396906625013799,0.0,0.0,0.0,0.0,0.01972222054753592
1666092084364137623,-0.006396906625013799,0.0,0.0,0.0,0.0,0.010297442586766544
1666092084408099450,-0.006396906625013799,0.0,0.0,0.0,0.0,0.014137166941154071
1666092084408118607,0.0,0.0,0.0,0.0,0.0,0.010122909661567111
1666092084452177569,0.0,0.0,0.0,0.0,0.0,0.0
1666092084452205976,0.0,0.0,0.0,0.0,0.0,-0.007504915783575617
1666092084496264724,0.0,0.0,0.0,0.0,0.0,0.0
1666092084496294183,0.0,0.0,0.0,0.0,0.0,0.0
1666092084540212175,0.0,0.0,0.0,0.0,0.0,0.00017453292519943296
1666092084540250685,0.0,0.0,0.0,0.0,0.0,0.004886921905584123
1666092084588484891,0.0,0.0,0.0,0.0,0.0,-0.0006981317007977319
1666092084588546399,0.0,0.0,0.0,0.0,0.0,-0.0015707963267948967
1666092084588558503,0.0,0.0,0.0,0.0,0.0,0.0022689280275926286
1666092084632161863,0.0,0.0,0.0,0.0,0.0,0.0027925268031909274
1666092084632227156,0.002132302208337933,0.0,0.0,0.0,0.0,-0.00017453292519943296
1666092084644107214,0.0,0.0,0.0,0.0,0.0,-0.002617993877991494
1666092084662182930,-0.004264604416675866,0.0,0.0,0.0,0.0,0.0010471975511965976
1666092084704422306,0.0,0.0,0.0,0.0,0.0,0.0005235987755982988
1666092084704473628,-0.002132302208337933,0.0,0.0,0.0,0.0,-0.00017453292519943296
1666092084748355447,0.002132302208337933,0.0,0.0,0.0,0.0,-0.00017453292519943296
1666092084748387130,0.0,0.0,0.0,0.0,0.0,0.0
1666092084792351062,0.0,0.0,0.0,0.0,0.0,0.00017453292519943296
1666092084792403171,0.0,0.0,0.0,0.0,0.0,0.0013962634015954637
1666092084840357345,0.002132302208337933,0.0,0.0,0.0,0.0,-0.00034906585039886593
1666092084840396376,-0.002132302208337933,0.0,0.0,0.0,0.0,-0.0005235987755982988
1666092084884175495,0.0,0.0,0.0,0.0,0.0,0.0013962634015954637
1666092084884197036,0.0,0.0,0.0,0.0,0.0,0.0012217304763960308
1666092084884201537,-0.002132302208337933,0.0,0.0,0.0,0.0,-0.00017453292519943296
1666092084928183292,0.0,0.0,0.0,0.0,0.0,0.0012217304763960308
1666092084928206852,0.0,0.0,0.0,0.0,0.0,0.00034906585039886593
1666092084943697532,0.0,0.0,0.0,0.0,0.0,-0.0005235987755982988
1666092084963593294,-0.002132302208337933,0.0,0.0,0.0,0.0,0.0022689280275926286
1666092085004168258,0.0,0.0,0.0,0.0,0.0,-0.00017453292519943296
1666092085004185426,0.0,0.0,0.0,0.0,0.0,-0.005235987755982988
1666092085048101072,0.0,0.0,0.0,0.0,0.0,-0.0038397243543875246
1666092085048119716,0.0,0.0,0.0,0.0,0.0,0.0017453292519943296
1666092085092536915,-0.002132302208337933,0.0,0.0,0.0,0.0,0.0027925268031909274
1666092085092584827,0.0,0.0,0.0,0.0,0.0,0.0015707963267948967
1666092085140263040,0.0,0.0,0.0,0.0,0.0,0.0005235987755982988
1666092085140287606,0.0,0.0,0.0,0.0,0.0,0.0006981317007977319
1666092085184269280,-0.004264604416675866,0.0,0.0,0.0,0.0,-0.0008726646259971648
1666092085184291587,0.0,0.0,0.0,0.0,0.0,0.00017453292519943296
1666092085184298630,-0.002132302208337933,0.0,0.0,0.0,0.0,0.0008726646259971648
1666092085228656026,0.0,0.0,0.0,0.0,0.0,0.0015707963267948967
1666092085228746510,0.002132302208337933,0.0,0.0,0.0,0.0,-0.0022689280275926286
1666092085243125247,0.0,0.0,0.0,0.0,0.0,-0.005934119456780722
1666092085263249556,-0.002132302208337933,0.0,0.0,0.0,0.0,-0.002967059728390361
1666092085304201202,0.0,0.0,0.0,0.0,0.0,-0.005585053606381855
1666092085348224986,0.002132302208337933,0.0,0.0,0.0,0.0,-0.006981317007977318
1666092085348257738,0.002132302208337933,0.0,0.0,0.0,0.0,-0.0015707963267948967
1666092085348280213,0.0,0.0,0.0,0.0,0.0,-0.0013962634015954637
1666092085392273694,0.0,0.0,0.0,0.0,0.0,-0.0027925268031909274
1666092085392293985,-0.004264604416675866,0.0,0.0,0.0,0.0,-0.003316125578789226
1666092085406222582,-0.004264604416675866,0.0,0.0,0.0,0.0,-0.0022689280275926286
1666092085422722510,-0.004264604416675866,0.0,0.0,0.0,0.0,-0.0038397243543875246
1666092085464214348,-0.002132302208337933,0.0,0.0,0.0,0.0,-0.012217304763960306
1666092085464227681,0.0,0.0,0.0,0.0,0.0,-0.01902408884673819
1666092085508088409,-0.002132302208337933,0.0,0.0,0.0,0.0,-0.02722713633111154
1666092085508108536,-0.002132302208337933,0.0,0.0,0.0,0.0,-0.035953782591083186
1666092085552315759,0.0,0.0,0.0,0.0,0.0,-0.0497418836818384
1666092085552360919,-0.006396906625013799,0.0,0.0,0.0,0.0,-0.05899212871740834
1666092085596565904,-0.004264604416675866,0.0,0.0,0.0,0.0,-0.0635299847725936
1666092085596640484,0.0,0.0,0.0,0.0,0.0,-0.05742133239061344
1666092085640081148,-0.002132302208337933,0.0,0.0,0.0,0.0,-0.06911503837897545
1666092085640096714,-0.002132302208337933,0.0,0.0,0.0,0.0,-0.09424777960769379
1666092085684140417,-0.002132302208337933,0.0,0.0,0.0,0.0,-0.10070549784007281
1666092085684160935,0.002132302208337933,0.0,0.0,0.0,0.0,-0.10437068926926091
1666092085684194018,-0.002132302208337933,0.0,0.0,0.0,0.0,-0.12391837689159739
1666092085728190266,-0.002132302208337933,0.0,0.0,0.0,0.0,-0.14800392056911915
1666092085728206802,-0.002132302208337933,0.0,0.0,0.0,0.0,-0.15917402778188283
1666092085742362800,-0.006396906625013799,0.0,0.0,0.0,0.0,-0.1630137521362704
1666092085763058677,0.0,0.0,0.0,0.0,0.0,-0.1682497398922534
1666092085804351448,0.0,0.0,0.0,0.0,0.0,-0.17174039839624203
1666092085804390163,-0.002132302208337933,0.0,0.0,0.0,0.0,-0.17470745812463237
1666092085848214091,-0.008529208833351731,0.0,0.0,0.0,0.0,-0.1916371518689774
1666092085848246555,-0.002132302208337933,0.0,0.0,0.0,0.0,-0.2038544566329377
1666092085892185091,0.002132302208337933,0.0,0.0,0.0,0.0,-0.20106192982974677
1666092085892209306,0.0,0.0,0.0,0.0,0.0,-0.20943951023931953
1666092085936256007,-0.010661511041689664,0.0,0.0,0.0,0.0,-0.2324778563656447
1666092085936374665,-0.004264604416675866,0.0,0.0,0.0,0.0,-0.24626595745639987
1666092085980073745,0.0,0.0,0.0,0.0,0.0,-0.24347343065320895
1666092085980088185,-0.002132302208337933,0.0,0.0,0.0,0.0,-0.24434609527920614
1666092086024311322,-0.006396906625013799,0.0,0.0,0.0,0.0,-0.256388867117967
1666092086024346640,-0.004264604416675866,0.0,0.0,0.0,0.0,-0.2698279023583234
1666092086068239644,0.002132302208337933,0.0,0.0,0.0,0.0,-0.28082347664588764
1666092086068291624,-0.002132302208337933,0.0,0.0,0.0,0.0,-0.27052603405912107
1666092086068302614,-0.002132302208337933,0.0,0.0,0.0,0.0,-0.27942721324429215
1666092086112243349,-0.006396906625013799,0.0,0.0,0.0,0.0,-0.2935643801854462
1666092086112275250,0.006396906625013799,0.0,0.0,0.0,0.0,-0.30525808617380823
1666092086123297653,-0.004264604416675866,0.0,0.0,0.0,0.0,-0.2961823740634377
1666092086142961391,-0.004264604416675866,0.0,0.0,0.0,0.0,-0.2822197400474831
1666092086184228218,0.012793813250027599,0.0,0.0,0.0,0.0,-0.29059732045705583
1666092086184256778,0.006396906625013799,0.0,0.0,0.0,0.0,-0.2897246558310587
1666092086232524114,0.006396906625013799,0.0,0.0,0.0,0.0,-0.29391344603584507
1666092086232593423,0.017058417666703463,0.0,0.0,0.0,0.0,-0.30037116426822413
1666092086276258522,0.02345532429171726,0.0,0.0,0.0,0.0,-0.30246555937061725
1666092086276276582,0.034116835333406925,0.0,0.0,0.0,0.0,-0.3110176727053895
1666092086320266855,0.029852230916731063,0.0,0.0,0.0,0.0,-0.31730085801256913
1666092086320304786,0.029852230916731063,0.0,0.0,0.0,0.0,-0.3193952531149623
1666092086364101211,0.04051374195842073,0.0,0.0,0.0,0.0,-0.3125884690321844
1666092086364112682,0.03838143975008279,0.0,0.0,0.0,0.0,-0.3066543495754037
1666092086364129359,0.04904295079177246,0.0,0.0,0.0,0.0,-0.3090978105281958
1666092086408189858,0.04691064858343452,0.0,0.0,0.0,0.0,-0.30839967882739805
1666092086408216217,0.05543985741678625,0.0,0.0,0.0,0.0,-0.3063052837250048
1666092086423358273,0.06183676404180006,0.0,0.0,0.0,0.0,-0.3045599544730105
1666092086444650893,0.06396906625013798,0.0,0.0,0.0,0.0,-0.3063052837250048
1666092086488199278,0.07249827508348972,0.0,0.0,0.0,0.0,-0.29478611066184224
1666092086488224023,0.07249827508348972,0.0,0.0,0.0,0.0,-0.2991494337918281
1666092086532209098,0.08742439054185526,0.0,0.0,0.0,0.0,-0.29897490086662865
1666092086532232925,0.08742439054185526,0.0,0.0,0.0,0.0,-0.28082347664588764
1666092086576530982,0.08315978612517938,0.0,0.0,0.0,0.0,-0.2687807048071268
1666092086577220465,0.09595359937520698,0.0,0.0,0.0,0.0,-0.27977627909469105
1666092086620103813,0.09595359937520698,0.0,0.0,0.0,0.0,-0.2925171826342497
1666092086620127563,0.09595359937520698,0.0,0.0,0.0,0.0,-0.2871066619530672
1666092086664080740,0.10661511041689664,0.0,0.0,0.0,0.0,-0.2696533694331239
1666092086664091403,0.10874741262523457,0.0,0.0,0.0,0.0,-0.2734930937875114
1666092086664100428,0.11940892366692425,0.0,0.0,0.0,0.0,-0.28309240467348024
1666092086708479969,0.12367352808360012,0.0,0.0,0.0,0.0,-0.27436575841350863
1666092086708509157,0.12367352808360012,0.0,0.0,0.0,0.0,-0.266860842629933
1666092086723839413,0.13433503912528977,0.0,0.0,0.0,0.0,-0.27104963283471933
1666092086742656290,0.13859964354196566,0.0,0.0,0.0,0.0,-0.26790804018112957
1666092086784241891,0.14712885237531736,0.0,0.0,0.0,0.0,-0.2645919146023404
1666092086828146381,0.14499655016697943,0.0,0.0,0.0,0.0,-0.24713862208239704
1666092086828164585,0.14712885237531736,0.0,0.0,0.0,0.0,-0.23404865269243957
1666092086828179252,0.1556580612086691,0.0,0.0,0.0,0.0,-0.24207716725161352
1666092086872185300,0.16631957225035876,0.0,0.0,0.0,0.0,-0.23369958684204073
1666092086872204516,0.17484878108371052,0.0,0.0,0.0,0.0,-0.23352505391684128
1666092086883007947,0.17058417666703463,0.0,0.0,0.0,0.0,-0.2267182698340634
1666092086903679999,0.18124568770872432,0.0,0.0,0.0,0.0,-0.19809487010135637
1666092086944057274,0.19190719875041395,0.0,0.0,0.0,0.0,-0.21258110289290932
1666092086944069130,0.19190719875041395,0.0,0.0,0.0,0.0,-0.1876228945893904
1666092086992482902,0.19830410537542775,0.0,0.0,0.0,0.0,-0.18884462506578648
1666092086992527102,0.20256870979210362,0.0,0.0,0.0,0.0,-0.1949532774477666
1666092087040562606,0.21109791862545538,0.0,0.0,0.0,0.0,-0.18779742751458986
1666092087040588857,0.21109791862545538,0.0,0.0,0.0,0.0,-0.18727382873899157
1666092087084109707,0.20896561641711744,0.0,0.0,0.0,0.0,-0.19285888234537343
1666092087084131030,0.23028863850049677,0.0,0.0,0.0,0.0,-0.19617500792416262
1666092087084139527,0.23242094070883468,0.0,0.0,0.0,0.0,-0.18919369091618532
1666092087128952625,0.22815633629215884,0.0,0.0,0.0,0.0,-0.1832595714594046
1666092087129065524,0.23242094070883468,0.0,0.0,0.0,0.0,-0.18308503853420516
1666092087144186376,0.2409501495421864,0.0,0.0,0.0,0.0,-0.18430676901060122
1666092087163832089,0.253743962792214,0.0,0.0,0.0,0.0,-0.19041542139258136
1666092087208133706,0.253743962792214,0.0,0.0,0.0,0.0,-0.1898918226169831
1666092087208196498,0.24734705616720024,0.0,0.0,0.0,0.0,-0.19390607989657
1666092087256226559,0.25800856720888987,0.0,0.0,0.0,0.0,-0.1916371518689774
1666092087256253161,0.26867007825057954,0.0,0.0,0.0,0.0,-0.20961404316451898
1666092087300095549,0.2814638915006072,0.0,0.0,0.0,0.0,-0.20088739690454732
1666092087300108933,0.2793315892922692,0.0,0.0,0.0,0.0,-0.2040289895581371
1666092087344125870,0.28786079812562093,0.0,0.0,0.0,0.0,-0.20071286397934787
1666092087344141833,0.28786079812562093,0.0,0.0,0.0,0.0,-0.20577431881013142
1666092087344147670,0.28786079812562093,0.0,0.0,0.0,0.0,-0.20525072003453312
1666092087388346647,0.2963900069589727,0.0,0.0,0.0,0.0,-0.1897172896917836
1666092087388378001,0.3113161224173382,0.0,0.0,0.0,0.0,-0.16894787159305108
1666092087403755140,0.3113161224173382,0.0,0.0,0.0,0.0,-0.1530653753999027
1666092087424229196,0.317713029042352,0.0,0.0,0.0,0.0,-0.15132004614790837
1666092087464194803,0.32197763345902786,0.0,0.0,0.0,0.0,-0.1356120828799594
1666092087508081101,0.3347714467090555,0.0,0.0,0.0,0.0,-0.10925761117484502
1666092087508096321,0.3369037489173934,0.0,0.0,0.0,0.0,-0.10035643198967394
1666092087508102581,0.3390360511257314,0.0,0.0,0.0,0.0,-0.10471975511965977
1666092087552058413,0.3454329577507451,0.0,0.0,0.0,0.0,-0.12007865253720987
1666092087552071290,0.3518298643757589,0.0,0.0,0.0,0.0,-0.0973893722612836
1666092087564219316,0.36035907320911065,0.0,0.0,0.0,0.0,-0.09878563566287904
1666092087584484270,0.3646236776257865,0.0,0.0,0.0,0.0,-0.10349802464326374
1666092087632087304,0.36035907320911065,0.0,0.0,0.0,0.0,-0.1054178868204575
1666092087632103869,0.36675597983412445,0.0,0.0,0.0,0.0,-0.10192722831646885
1666092087676141944,0.3710205842508003,0.0,0.0,0.0,0.0,-0.09128071987930345
1666092087676162115,0.3902113041258417,0.0,0.0,0.0,0.0,-0.08220500776893291
1666092087720128914,0.38807900191750383,0.0,0.0,0.0,0.0,-0.06946410422937431
1666092087720157038,0.38594669970916584,0.0,0.0,0.0,0.0,-0.05550147021341968
1666092087764147154,0.40300511737586936,0.0,0.0,0.0,0.0,-0.04293509959906051
1666092087764170230,0.40513741958420724,0.0,0.0,0.0,0.0,-0.03787364476827695
1666092087808141514,0.4072697217925452,0.0,0.0,0.0,0.0,-0.03316125578789226
1666092087808157101,0.41366662841755897,0.0,0.0,0.0,0.0,-0.025132741228718346
1666092087808283595,0.42219583725091075,0.0,0.0,0.0,0.0,-0.03979350694547071
1666092087852218304,0.42646044166758657,0.0,0.0,0.0,0.0,-0.05183627878423159
1666092087852260260,0.4307250460842625,0.0,0.0,0.0,0.0,-0.05044001538263612
1666092087863859290,0.4328573482926004,0.0,0.0,0.0,0.0,-0.06579891280018622
1666092087885681410,0.43712195270927623,0.0,0.0,0.0,0.0,-0.0747000919853573
1666092087928424107,0.44138655712595215,0.0,0.0,0.0,0.0,-0.0715584993317675
1666092087928480333,0.44351885933429,0.0,0.0,0.0,0.0,-0.07033676885537149
1666092087972086689,0.45418037037597975,0.0,0.0,0.0,0.0,-0.06178465552059926
1666092087972102574,0.4669741836260073,0.0,0.0,0.0,0.0,-0.05619960191421742
1666092088016161528,0.4691064858343453,0.0,0.0,0.0,0.0,-0.05707226654021458
1666092088016189615,0.4733710902510211,0.0,0.0,0.0,0.0,-0.04590215932745086
1666092088064244682,0.477635694667697,0.0,0.0,0.0,0.0,-0.041015237421866746
1666092088064264599,0.48616490350104874,0.0,0.0,0.0,0.0,-0.0291469985083053
1666092088108194388,0.49682641454273835,0.0,0.0,0.0,0.0,-0.02199114857512855
1666092088108215913,0.4882972057093866,0.0,0.0,0.0,0.0,-0.016929693744344998
1666092088108252685,0.5010910189594143,0.0,0.0,0.0,0.0,-0.013788101090755204
1666092088156185545,0.5053556233760901,0.0,0.0,0.0,0.0,-0.014835298641951801
1666092088156216332,0.5117525300011039,0.0,0.0,0.0,0.0,-0.009773843811168246
1666092088164448174,0.5224140410427935,0.0,0.0,0.0,0.0,-0.013264502315156903
1666092088185393365,0.5202817388344556,0.0,0.0,0.0,0.0,-0.008377580409572781
1666092088228063610,0.5330755520844833,0.0,0.0,0.0,0.0,-0.006981317007977318
1666092088228076569,0.5330755520844833,0.0,0.0,0.0,0.0,-0.01308996938995747
1666092088272156469,0.5266786454594694,0.0,0.0,0.0,0.0,-0.016406094968746697
1666092088272179363,0.5266786454594694,0.0,0.0,0.0,0.0,-0.017278759594743863
1666092088316099721,0.5352078542928211,0.0,0.0,0.0,0.0,-0.010995574287564275
1666092088316119564,0.5288109476678073,0.0,0.0,0.0,0.0,-0.020943951023931952
1666092088360477879,0.5266786454594694,0.0,0.0,0.0,0.0,-0.009773843811168246
1666092088360575780,0.5266786454594694,0.0,0.0,0.0,0.0,-0.01308996938995747
1666092088404321462,0.5309432498761453,0.0,0.0,0.0,0.0,-0.01291543646475804
1666092088404371865,0.5288109476678073,0.0,0.0,0.0,0.0,-0.0143116998663535
1666092088448097423,0.5288109476678073,0.0,0.0,0.0,0.0,-0.009599310885968814
1666092088448113643,0.5352078542928211,0.0,0.0,0.0,0.0,-0.008203047484373348
1666092088448118553,0.5373401565011591,0.0,0.0,0.0,0.0,-0.030368728984701335
1666092088492223016,0.5224140410427935,0.0,0.0,0.0,0.0,-0.041887902047863905
1666092088492253473,0.5117525300011039,0.0,0.0,0.0,0.0,-0.017976891295541593
1666092088504838046,0.49895871675107634,0.0,0.0,0.0,0.0,-0.0022689280275926286
1666092088524448240,0.49469411233440047,0.0,0.0,0.0,0.0,-0.0008726646259971648
1666092088572151058,0.49682641454273835,0.0,0.0,0.0,0.0,0.0
1666092088572182558,0.5053556233760901,0.0,0.0,0.0,0.0,0.0022689280275926286
1666092088616059771,0.49895871675107634,0.0,0.0,0.0,0.0,-0.0017453292519943296
1666092088616073435,0.5010910189594143,0.0,0.0,0.0,0.0,-0.02722713633111154
1666092088660238296,0.48616490350104874,0.0,0.0,0.0,0.0,-0.020245819323134222
1666092088660265732,0.48616490350104874,0.0,0.0,0.0,0.0,-0.03089232776029963
1666092088704506288,0.4819002990843728,0.0,0.0,0.0,0.0,-0.03682644721708035
1666092088704601488,0.47976799687603494,0.0,0.0,0.0,0.0,-0.020420352248333655
1666092088748127478,0.47976799687603494,0.0,0.0,0.0,0.0,-0.009599310885968814
1666092088748149186,0.4733710902510211,0.0,0.0,0.0,0.0,-0.019198621771937627
1666092088748158412,0.4840326012927108,0.0,0.0,0.0,0.0,-0.026529004630313806
1666092088792106490,0.4733710902510211,0.0,0.0,0.0,0.0,-0.03944444109507184
1666092088792153295,0.4669741836260073,0.0,0.0,0.0,0.0,-0.04223696789826277
1666092088805266024,0.4691064858343453,0.0,0.0,0.0,0.0,-0.05323254218582704
1666092088824973077,0.46484188141766936,0.0,0.0,0.0,0.0,-0.06457718232379019
1666092088868170886,0.4712387880426832,0.0,0.0,0.0,0.0,-0.07225663103256524
1666092088868198710,0.46057727700099355,0.0,0.0,0.0,0.0,-0.09075712110370514
1666092088912137657,0.46484188141766936,0.0,0.0,0.0,0.0,-0.10873401239924674
1666092088912170094,0.45418037037597975,0.0,0.0,0.0,0.0,-0.12164944886400476
1666092088956224938,0.45418037037597975,0.0,0.0,0.0,0.0,-0.15114551322270892
1666092088956251865,0.4563126725843177,0.0,0.0,0.0,0.0,-0.1583013631558857
1666092089000166568,0.44138655712595215,0.0,0.0,0.0,0.0,-0.17872171540421936
1666092089000193406,0.4349896505009383,0.0,0.0,0.0,0.0,-0.20577431881013142
1666092089044060384,0.31984533125069,0.0,0.0,0.0,0.0,-0.2165953601724963
1666092089044080228,0.31984533125069,0.0,0.0,0.0,0.0,-0.24225170017681294
1666092089044088811,0.3838143975008279,0.0,0.0,0.0,0.0,-0.290248254606657
1666092089088237090,0.4008728151675314,0.0,0.0,0.0,0.0,-0.40264745843509187
1666092089088273839,0.3518298643757589,0.0,0.0,0.0,0.0,-0.43353978619539146
1666092089105180219,0.34756525995908305,0.0,0.0,0.0,0.0,-0.4284783313646079
1666092089124078506,0.36035907320911065,0.0,0.0,0.0,0.0,-0.46722464075888204
1666092089164326576,0.3731528864591383,0.0,0.0,0.0,0.0,-0.5068436147791533
1666092089208056968,0.3731528864591383,0.0,0.0,0.0,0.0,-0.5417501998190399
1666092089208072796,0.36035907320911065,0.0,0.0,0.0,0.0,-0.542622864445037
1666092089208081516,0.3710205842508003,0.0,0.0,0.0,0.0,-0.5302310267558773
1666092089252619497,0.37741749087581417,0.0,0.0,0.0,0.0,-0.5747369226817327
1666092089252687351,0.3731528864591383,0.0,0.0,0.0,0.0,-0.5880014249968896
1666092089265462750,0.38168209529249003,0.0,0.0,0.0,0.0,-0.6089453760208217
1666092089285343778,0.37954979308415204,0.0,0.0,0.0,0.0,-0.6187192198319899
1666092089329162315,0.38594669970916584,0.0,0.0,0.0,0.0,-0.610341639422417
1666092089329198158,0.3923436063341797,0.0,0.0,0.0,0.0,-0.6209881478595823
1666092089372387406,0.39447590854251763,0.0,0.0,0.0,0.0,-0.6270968002415626
1666092089372408427,0.41579893062589696,0.0,0.0,0.0,0.0,-0.6311110575211495
1666092089416089670,0.4285927438759245,0.0,0.0,0.0,0.0,-0.6307619916707508
1666092089416098671,0.42646044166758657,0.0,0.0,0.0,0.0,-0.6241297405131722
1666092089460688486,0.42219583725091075,0.0,0.0,0.0,0.0,-0.6398377037811211
1666092089460743956,0.42006353504257277,0.0,0.0,0.0,0.0,-0.6492624817418906
1666092089504058601,0.42006353504257277,0.0,0.0,0.0,0.0,-0.6279694648675598
1666092089504073450,0.42219583725091075,0.0,0.0,0.0,0.0,-0.5965535383316618
1666092089548143289,0.4285927438759245,0.0,0.0,0.0,0.0,-0.5799729104377156
1666092089548164553,0.4285927438759245,0.0,0.0,0.0,0.0,-0.6037093882648387
1666092089548171631,0.4285927438759245,0.0,0.0,0.0,0.0,-0.6028367236388413
1666092089596286263,0.4307250460842625,0.0,0.0,0.0,0.0,-0.592190215201676
1666092089596326109,0.4285927438759245,0.0,0.0,0.0,0.0,-0.605105651666434
1666092089605337635,0.4328573482926004,0.0,0.0,0.0,0.0,-0.6206390820091836
1666092089625107149,0.4285927438759245,0.0,0.0,0.0,0.0,-0.645422757387503
1666092089672250499,0.4285927438759245,0.0,0.0,0.0,0.0,-0.6448991586119048
1666092089672273920,0.36249137541744864,0.0,0.0,0.0,0.0,-0.645422757387503
1666092089720054387,0.3646236776257865,0.0,0.0,0.0,0.0,-0.6564183316750674
1666092089720069815,0.38168209529249003,0.0,0.0,0.0,0.0,-0.6576400621514633
1666092089768250344,0.3902113041258417,0.0,0.0,0.0,0.0,-0.6939429105929453
1666092089768285564,0.38168209529249003,0.0,0.0,0.0,0.0,-0.7004006288253245
1666092089768382432,0.3560944687924348,0.0,0.0,0.0,0.0,-0.6550220682734719
1666092089812527668,0.3646236776257865,0.0,0.0,0.0,0.0,-0.6290166624187563
1666092089812598929,0.37741749087581417,0.0,0.0,0.0,0.0,-0.6277949319423602
1666092089826785701,0.3731528864591383,0.0,0.0,0.0,0.0,-0.640535835481919
1666092089845768017,0.3646236776257865,0.0,0.0,0.0,0.0,-0.5749114556069321
1666092089888354197,0.3752851886674762,0.0,0.0,0.0,0.0,-0.540179403492245
1666092089888401365,0.36888828204246243,0.0,0.0,0.0,0.0,-0.536165146212658
1666092089936201159,0.3752851886674762,0.0,0.0,0.0,0.0,-0.5419247327442394
1666092089936242770,0.3710205842508003,0.0,0.0,0.0,0.0,-0.5129522671611334
1666092089980165434,0.36888828204246243,0.0,0.0,0.0,0.0,-0.47071529926287065
1666092089980182913,0.36249137541744864,0.0,0.0,0.0,0.0,-0.45779986279811263
1666092090028183512,0.36888828204246243,0.0,0.0,0.0,0.0,-0.44313909708136023
1666092090028218415,0.38168209529249003,0.0,0.0,0.0,0.0,-0.40212385965949354
1666092090028237155,0.39447590854251763,0.0,0.0,0.0,0.0,-0.3242821750205464
1666092090072193164,0.3902113041258417,0.0,0.0,0.0,0.0,-0.2815216083466853
1666092090072225685,0.3923436063341797,0.0,0.0,0.0,0.0,-0.2724458962363148
1666092090084508764,0.40513741958420724,0.0,0.0,0.0,0.0,-0.26022859147235455
1666092090105716148,0.42219583725091075,0.0,0.0,0.0,0.0,-0.23387411976724018
1666092090152122514,0.40940202400088316,0.0,0.0,0.0,0.0,-0.1998401993533507
1666092090152143546,0.41153432620922104,0.0,0.0,0.0,0.0,-0.18867009214058703
1666092090203781503,0.41579893062589696,0.0,0.0,0.0,0.0,-0.20542525295973257
1666092090203814897,0.4243281394592487,0.0,0.0,0.0,0.0,-0.19355701404617112
1666092090244257641,0.4328573482926004,0.0,0.0,0.0,0.0,-0.17348572764823633
1666092090244304941,0.4179312328342349,0.0,0.0,0.0,0.0,-0.16912240451825053
1666092090288108318,0.42006353504257277,0.0,0.0,0.0,0.0,-0.1722639971718403
1666092090288129576,0.38807900191750383,0.0,0.0,0.0,0.0,-0.15463617172669758
1666092090288139644,0.39874051295919344,0.0,0.0,0.0,0.0,-0.11431906600562858
1666092090336136485,0.4243281394592487,0.0,0.0,0.0,0.0,-0.07993607974134029
1666092090336161516,0.4179312328342349,0.0,0.0,0.0,0.0,-0.10018189906447451
