%time,field.linear.x,field.linear.y,field.linear.z,field.angular.x,field.angular.y,field.angular.z
1666092081291034302,0.5829998254776001,0.0,0.0,0.0,0.0,-1.2217304763960313
1666092081405896429,0.5697202682495117,0.0,0.0,0.0,0.0,-1.2217304763960313
1666092081491843361,0.5472705364227295,0.0,0.0,0.0,0.0,-1.2217304763960313
1666092081577955609,0.5328273177146912,0.0,0.0,0.0,0.0,-1.2217304763960313
1666092081623666916,0.5321165919303894,0.0,0.0,0.0,0.0,-1.2217304763960313
1666092081668482430,0.4033940732479095,0.0,0.0,0.0,0.0,-1.0471975511965983
1666092081784246341,0.5069268345832825,0.0,0.0,0.0,0.0,-1.2217304763960313
1666092081835778378,0.5060738921165466,0.0,0.0,0.0,0.0,-1.2217304763960313
1666092081930216374,0.509729266166687,0.0,0.0,0.0,0.0,-1.2217304763960313
1666092081973670901,0.4926806688308716,0.0,0.0,0.0,0.0,-1.2217304763960313
1666092082136431867,0.4866003394126892,0.0,0.0,0.0,0.0,-1.2217304763960313
1666092082192847440,0.4819424748420715,0.0,0.0,0.0,0.0,-1.2217304763960313
1666092082230381131,0.4814449250698089,0.0,0.0,0.0,0.0,-1.2217304763960313
1666092082311513790,0.35358574986457825,0.0,0.0,0.0,0.0,-1.0471975511965983
1666092082344903984,0.47435551881790156,0.0,0.0,0.0,0.0,-1.2217304763960313
1666092082430897508,0.3482220470905304,0.0,0.0,0.0,0.0,-1.0471975511965983
1666092082520223337,0.4683893620967865,0.0,0.0,0.0,0.0,-1.0471975511965983
1666092082612828612,0.4679324328899383,0.0,0.0,0.0,0.0,-1.0471975511965983
1666092082667658058,0.468114286661148,0.0,0.0,0.0,0.0,-1.0471975511965983
1666092082773997989,0.46809378266334534,0.0,0.0,0.0,0.0,-1.0471975511965983
1666092082864318407,0.3600459396839142,0.0,0.0,0.0,0.0,-0.8726646259971653
1666092082953819873,0.46796149015426636,0.0,0.0,0.0,0.0,-0.8726646259971653
1666092083073205218,0.4612340033054352,0.0,0.0,0.0,0.0,-0.8726646259971653
1666092083207833053,0.44639021158218384,0.0,0.0,0.0,0.0,-0.18445654213428497
1666092083211519237,0.4340123236179352,0.0,0.0,0.0,0.0,-0.16979707777500153
1666092083283489027,0.4225554168224334,0.0,0.0,0.0,0.0,-0.15536993741989136
1666092083423369275,0.3479897379875183,0.0,0.0,0.0,0.0,-0.016691256314516068
1666092083469133790,0.0,0.0,0.0,0.0,0.0,-0.3108466953558078
1666092083514707496,0.0,0.0,0.0,0.0,0.0,-0.2635122053512308
1666092083586844743,0.0,0.0,0.0,0.0,0.0,-0.22443146922596569
1666092083724172810,0.0,0.0,0.0,0.0,0.0,-0.17453292519943345
1666092083765013691,0.0,0.0,0.0,0.0,0.0,-0.17453292519943345
1666092083822904677,0.0,0.0,0.0,0.0,0.0,-0.17453292519943345
1666092083914471269,0.0,0.0,0.0,0.0,0.0,-4.996003610813204e-16
1666092083933551959,0.0,0.0,0.0,0.0,0.0,-4.996003610813204e-16
1666092084070186078,0.0,0.0,0.0,0.0,0.0,-4.996003610813204e-16
1666092084199200508,0.0,0.0,0.0,0.0,0.0,-4.996003610813204e-16
1666092084250912025,0.0,0.0,0.0,0.0,0.0,-4.996003610813204e-16
1666092084285166448,0.0,0.0,0.0,0.0,0.0,-4.996003610813204e-16
1666092084404970571,0.0,0.0,0.0,0.0,0.0,-4.996003610813204e-16
1666092084438208521,0.0,0.0,0.0,0.0,0.0,-0.17453292519943345
1666092084546639523,0.0,0.0,0.0,0.0,0.0,-0.17453292519943345
1666092084582469750,0.0,0.0,0.0,0.0,0.0,-0.17453292519943345
1666092084669537833,0.0,0.0,0.0,0.0,0.0,-0.2176031780500248
1666092084684925647,0.0,0.0,0.0,0.0,0.0,-0.21303434346962474
1666092084797220992,0.0,0.0,0.0,0.0,0.0,-0.22782707018589007
1666092084885686286,0.0,0.0,0.0,0.0,0.0,-0.26043842343038437
1666092084929229651,0.0,0.0,0.0,0.0,0.0,-0.2736017254211424
1666092084964812141,0.0,0.0,0.0,0.0,0.0,-0.28395019686356393
1666092085048902024,0.0,0.0,0.0,0.0,0.0,-0.33208977281272545
1666092085094625537,0.0,0.0,0.0,0.0,0.0,-0.3515970119608183
1666092085234674014,0.0,0.0,0.0,0.0,0.0,-0.3868094256409763
1666092085265232523,0.0,0.0,0.0,0.0,0.0,-0.4053585781497121
1666092085349142129,0.0,0.0,0.0,0.0,0.0,-0.45322056387308157
1666092085407575146,0.0,0.0,0.0,0.0,0.0,-0.4881220578669934
1666092085508663445,0.0,0.0,0.0,0.0,0.0,-0.5678988132964499
1666092085574300744,0.0,0.0,0.0,0.0,0.0,-0.5984525106546098
1666092085685596098,0.0,0.0,0.0,0.0,0.0,-0.6311941841494029
1666092085743840658,0.0,0.0,0.0,0.0,0.0,-0.6298159779349232
1666092085849427395,0.0,0.0,0.0,0.0,0.0,-0.6743862285110548
1666092085909923723,0.0,0.0,0.0,0.0,0.0,-0.6981317007977323
1666092086026184809,0.0,0.0,0.0,0.0,0.0,-0.700379173588808
1666092086070939065,0.4037785232067108,0.0,0.0,0.0,0.0,-0.8726646259971653
1666092086145718718,0.42019766569137573,0.0,0.0,0.0,0.0,-0.19938360154628754
1666092086239316961,0.3260694444179535,0.0,0.0,0.0,0.0,-0.10560780018568039
1666092086368986329,0.4680118262767792,0.0,0.0,0.0,0.0,-0.2144426554441452
1666092086419464065,0.4810405969619751,0.0,0.0,0.0,0.0,-0.21636413037776947
1666092086428121981,0.4806141257286072,0.0,0.0,0.0,0.0,-0.21627335250377655
1666092086494920816,0.4942689538002014,0.0,0.0,0.0,0.0,-0.21699492633342743
1666092086583018250,0.5102003216743469,0.0,0.0,0.0,0.0,-0.21670235693454742
1666092086668855837,0.523383378982544,0.0,0.0,0.0,0.0,-0.21524909138679504
1666092086745433407,0.5369789004325867,0.0,0.0,0.0,0.0,-0.212553009390831
1666092086832524714,0.553292989730835,0.0,0.0,0.0,0.0,-0.20966336131095886
1666092086937448152,0.5781391263008118,0.0,0.0,0.0,0.0,-0.20293164253234863
1666092086946556348,0.5775704979896545,0.0,0.0,0.0,0.0,-0.20201359689235687
1666092087088673861,0.5987278819084167,0.0,0.0,0.0,0.0,-0.20005586743354797
1666092087139038488,0.6237704157829285,0.0,0.0,0.0,0.0,-0.1999637931585312
1666092087213540574,0.6721356511116028,0.0,0.0,0.0,0.0,-0.20302121341228485
1666092087305098993,0.6933974623680115,0.0,0.0,0.0,0.0,-0.3490658503988664
1666092087307635348,0.6920469999313354,0.0,0.0,0.0,0.0,-0.3490658503988664
1666092087434749830,0.7146778106689453,0.0,0.0,0.0,0.0,-0.3490658503988664
1666092087565213210,0.7339913845062256,0.0,0.0,0.0,0.0,-0.3490658503988664
1666092087635451006,0.7384593486785889,0.0,0.0,0.0,0.0,-0.3490658503988664
1666092087715246319,0.6777833700180054,0.0,0.0,0.0,0.0,-0.3490658503988664
1666092087731372143,0.6772859096527098,0.0,0.0,0.0,0.0,-0.3490658503988664
1666092087866237783,0.6710959076881409,0.0,0.0,0.0,0.0,-0.3490658503988664
1666092087907812752,0.707991600036621,0.0,0.0,0.0,0.0,-0.3490658503988664
1666092087966997171,0.6333638429641724,0.0,0.0,0.0,0.0,-0.17453292519943345
1666092088075459603,0.668959617614746,0.0,0.0,0.0,0.0,-0.20180174708366394
1666092088147270590,0.6340070962905883,0.0,0.0,0.0,0.0,-0.20457082986831665
1666092088220393056,0.6219059824943542,0.0,0.0,0.0,0.0,-0.20907190442085266
1666092088235507336,0.6211951971054077,0.0,0.0,0.0,0.0,-0.20913822948932648
1666092088368557474,0.6009232401847839,0.0,0.0,0.0,0.0,-0.21146896481513977
1666092088455545669,0.5717390775680542,0.0,0.0,0.0,0.0,-0.21879056096076965
1666092088530717342,0.551909863948822,0.0,0.0,0.0,0.0,-0.3490658503988664
1666092088578065833,0.5528338551521301,0.0,0.0,0.0,0.0,-0.3490658503988664
1666092088709677453,0.5384624600410461,0.0,0.0,0.0,0.0,-0.5235987755982994
1666092088772114484,0.5063361525535583,0.0,0.0,0.0,0.0,-0.8726646259971653
1666092088871965443,0.49855440855026245,0.0,0.0,0.0,0.0,-0.8726646259971653
1666092088963123597,0.3920081853866577,0.0,0.0,0.0,0.0,-0.8726646259971653
1666092089047999650,0.49107497930526733,0.0,0.0,0.0,0.0,-0.8726646259971653
1666092089127371028,0.49130803346633906,0.0,0.0,0.0,0.0,-1.0471975511965983
1666092089257625713,0.49327531456947327,0.0,0.0,0.0,0.0,-1.0471975511965983
1666092089340536563,0.4923768937587738,0.0,0.0,0.0,0.0,-0.8726646259971653
1666092089465971686,0.3943467438220977,0.0,0.0,0.0,0.0,-0.8726646259971653
1666092089507798362,0.4936073124408722,0.0,0.0,0.0,0.0,-0.8726646259971653
1666092089601596197,0.40411096811294556,0.0,0.0,0.0,0.0,-0.8726646259971653
1666092089772626068,0.49870336055755615,0.0,0.0,0.0,0.0,-0.6981317007977323
1666092089869839795,0.41764292120933527,0.0,0.0,0.0,0.0,-0.6981317007977323
1666092089895519249,0.4188766777515411,0.0,0.0,0.0,0.0,-0.5235987755982994
1666092089956036742,0.4858684837818146,0.0,0.0,0.0,0.0,-0.5235987755982994
1666092090129379743,0.48502185940742487,0.0,0.0,0.0,0.0,-0.3490658503988664
1666092090193941895,0.44721195101737976,0.0,0.0,0.0,0.0,-0.3490658503988664
1666092090299500694,0.4643678367137909,0.0,0.0,0.0,0.0,-0.17453292519943345
1666092090324701197,0.4641546308994293,0.0,0.0,0.0,0.0,-0.17453292519943345
1666092090423343272,0.48001712560653687,0.0,0.0,0.0,0.0,-0.07033900916576385
1666092090463757313,0.479377418756485,0.0,0.0,0.0,0.0,-0.06972116976976395
1666092090533707897,0.4748225808143616,0.0,0.0,0.0,0.0,-0.06002941355109215
1666092090620377835,0.46338385343551636,0.0,0.0,0.0,0.0,-0.0468064546585083
1666092090662455864,0.46274417638778687,0.0,0.0,0.0,0.0,-0.04671918973326683
1666092090710979225,0.45255520939826965,0.0,0.0,0.0,0.0,-0.04157017171382904
1666092090800812397,0.4558714926242828,0.0,0.0,0.0,0.0,0.07992696017026901
1666092090829613505,0.43055000901222223,0.0,0.0,0.0,0.0,-0.03409131243824959
1666092090915739305,0.4254409372806549,0.0,0.0,0.0,0.0,-0.03102824278175831
1666092091046956432,0.42243868112564087,0.0,0.0,0.0,0.0,-0.02868122048676014
1666092091138187595,0.414369523525238,0.0,0.0,0.0,0.0,-0.02639823779463768
1666092091212891735,0.419658213853836,0.0,0.0,0.0,0.0,0.09696672111749649
1666092091310838838,0.3732280433177948,0.0,0.0,0.0,0.0,-0.025455716997385025
1666092091345619283,0.373299092054367,0.0,0.0,0.0,0.0,-0.025364957749843597
1666092091439457654,0.0,0.0,0.0,0.0,0.0,0.17453292519943245
1666092091474623561,0.0,0.0,0.0,0.0,0.0,0.17453292519943245
1666092091598076627,0.0,0.0,0.0,0.0,0.0,0.17453292519943245
1666092091645251774,0.0,0.0,0.0,0.0,0.0,0.17453292519943245
1666092091733300380,0.0,0.0,0.0,0.0,0.0,0.17453292519943245
1666092091767863023,0.0,0.0,0.0,0.0,0.0,0.17453292519943245
1666092091857488084,0.0,0.0,0.0,0.0,0.0,0.17453292519943245
1666092091906318189,0.0,0.0,0.0,0.0,0.0,0.17453292519943245
1666092091998919959,0.0,0.0,0.0,0.0,0.0,0.17453292519943245
1666092092034643113,0.0,0.0,0.0,0.0,0.0,0.17453292519943245
1666092092116860000,0.0,0.0,0.0,0.0,0.0,0.17453292519943245
1666092092164644072,0.0,0.0,0.0,0.0,0.0,0.17453292519943245
1666092092253771904,0.0,0.0,0.0,0.0,0.0,0.17453292519943245
1666092092378351956,0.3751582205295562,0.0,0.0,0.0,0.0,-0.018211184069514275
1666092092430198967,0.43055108189582825,0.0,0.0,0.0,0.0,0.10840915143489838
1666092092511414584,0.44765546917915344,0.0,0.0,0.0,0.0,0.11192236840724945
1666092092555525314,0.42330673336982727,0.0,0.0,0.0,0.0,-0.00042752738227136433
1666092092724923389,0.4406473040580749,0.0,0.0,0.0,0.0,0.00574698718264699
1666092092812084508,0.47180813550949097,0.0,0.0,0.0,0.0,0.01946452632546425
1666092092900567981,0.4867720603942871,0.0,0.0,0.0,0.0,0.026587586849927902
1666092092976344142,0.5012069940567017,0.0,0.0,0.0,0.0,0.17453292519943245
1666092093017744816,0.5004251599311829,0.0,0.0,0.0,0.0,0.17453292519943245
1666092093103276898,0.5111238360404968,0.0,0.0,0.0,0.0,0.17453292519943245
1666092093190515677,0.5147508382797241,0.0,0.0,0.0,0.0,0.17453292519943245
1666092093280216695,0.5675890445709229,0.0,0.0,0.0,0.0,0.15229113399982452
1666092093363566386,0.5137550234794617,0.0,0.0,0.0,0.0,0.057361993938684464
1666092093413435781,0.5138261318206787,0.0,0.0,0.0,0.0,0.05722934380173683
1666092093454879513,0.5080950260162354,0.0,0.0,0.0,0.0,0.059071965515613556
1666092093531912822,0.5018571615219116,0.0,0.0,0.0,0.0,0.06017084792256355
1666092093620693812,0.5027109384536743,0.0,0.0,0.0,0.0,0.0635734423995018
1666092093706508220,0.5612115859985352,0.0,0.0,0.0,0.0,0.1687180995941162
1666092093751772363,0.4975340664386749,0.0,0.0,0.0,0.0,0.07042435556650162
1666092093854056803,0.49928444623947144,0.0,0.0,0.0,0.0,0.07513022422790527
1666092093876937993,0.49864476919174194,0.0,0.0,0.0,0.0,0.07514069229364395
1666092094004026264,0.4953891336917877,0.0,0.0,0.0,0.0,0.0865960568189621
1666092094010882767,0.4943229854106903,0.0,0.0,0.0,0.0,0.08677060902118683
1666092094137290564,0.4927308261394501,0.0,0.0,0.0,0.0,0.09397081285715103
1666092094226877070,0.4853901267051697,0.0,0.0,0.0,0.0,0.09955491125583649
1666092094315693029,0.4645896255970001,0.0,0.0,0.0,0.0,0.10886075347661972
1666092094378186347,0.4517190158367157,0.0,0.0,0.0,0.0,0.11329681426286697
1666092094390458354,0.45164793729782104,0.0,0.0,0.0,0.0,0.11322001367807388
1666092094484935627,0.43704482913017273,0.0,0.0,0.0,0.0,0.17453292519943245
1666092094616410744,0.4153755009174347,0.0,0.0,0.0,0.0,0.17453292519943245
1666092094696320291,0.37789505720138544,0.0,0.0,0.0,0.0,0.17453292519943245
1666092094809082862,0.3615691065788269,0.0,0.0,0.0,0.0,0.3490658503988654
1666092094826826351,0.3555903136730194,0.0,0.0,0.0,0.0,0.3490658503988654
1666092094940119336,0.4602450430393219,0.0,0.0,0.0,0.0,0.5235987755982984
1666092094949880591,0.46031612157821655,0.0,0.0,0.0,0.0,0.5235987755982984
1666092095037376423,0.34265613555908203,0.0,0.0,0.0,0.0,0.3490658503988654
1666092095130005421,0.44614744186401367,0.0,0.0,0.0,0.0,0.5235987755982984
1666092095172156491,0.4470003545284271,0.0,0.0,0.0,0.0,0.5235987755982984
1666092095259763790,0.3302428126335144,0.0,0.0,0.0,0.0,0.8726646259971643
1666092095330344767,0.44523918628692627,0.0,0.0,0.0,0.0,1.0471975511965972
1666092095424028275,0.33002132177352905,0.0,0.0,0.0,0.0,0.8726646259971643
1666092095509166662,0.33316662907600403,0.0,0.0,0.0,0.0,0.8726646259971643
1666092095600274860,0.4571625590324402,0.0,0.0,0.0,0.0,0.8726646259971643
1666092095611890214,0.358076274394989,0.0,0.0,0.0,0.0,0.8726646259971643
1666092095719602431,0.36527529358863825,0.0,0.0,0.0,0.0,0.8726646259971643
1666092095764712758,0.3804822266101837,0.0,0.0,0.0,0.0,0.8726646259971643
1666092095923512967,0.39676439762115473,0.0,0.0,0.0,0.0,0.8726646259971643
1666092096010656527,0.4224112331867218,0.0,0.0,0.0,0.0,0.6981317007977313
1666092096068104223,0.43596789240837097,0.0,0.0,0.0,0.0,0.6981317007977313
1666092096071649754,0.4358968138694763,0.0,0.0,0.0,0.0,0.6981317007977313
1666092096224234392,0.45276424288749695,0.0,0.0,0.0,0.0,0.17453292519943245
1666092096270534687,0.45276424288749695,0.0,0.0,0.0,0.0,0.17453292519943245
1666092096358579379,0.4736002683639526,0.0,0.0,0.0,0.0,0.06189883127808571
1666092096450753574,0.54518061876297,0.0,0.0,0.0,0.0,0.3490658503988654
1666092096481269573,0.5439723134040833,0.0,0.0,0.0,0.0,0.3490658503988654
1666092096572623520,0.5144369006156921,0.0,0.0,0.0,0.0,0.3490658503988654
1666092096616509185,0.5366865396499634,0.0,0.0,0.0,0.0,0.3490658503988654
1666092096780430433,0.5474034547805786,0.0,0.0,0.0,0.0,0.3490658503988654
1666092096824880980,0.5471912622451782,0.0,0.0,0.0,0.0,0.17453292519943245
1666092096912388896,0.5440704226493835,0.0,0.0,0.0,0.0,0.17453292519943245
1666092096955083096,0.5349224209785461,0.0,0.0,0.0,0.0,0.17453292519943245
1666092097034095971,0.5251003503799438,0.0,0.0,0.0,0.0,0.17453292519943245
1666092097174599652,0.4956263899803161,0.0,0.0,0.0,0.0,-4.996003610813204e-16
1666092097281659259,0.4970472455024719,0.0,0.0,0.0,0.0,-4.996003610813204e-16
1666092097298701682,0.4978290796279907,0.0,0.0,0.0,0.0,-4.996003610813204e-16
1666092097427860079,0.48770394921302795,0.0,0.0,0.0,0.0,-0.06403182446956635
1666092097516847215,0.4772452414035797,0.0,0.0,0.0,0.0,-0.06652779877185822
1666092097560810064,0.4649283587932586,0.0,0.0,0.0,0.0,-0.07284548133611679
1666092097682654265,0.4429953396320343,0.0,0.0,0.0,0.0,-0.07676632702350616
1666092097801778541,0.4045877456665039,0.0,0.0,0.0,0.0,-0.08373117446899414
1666092097816697401,0.40465879440307617,0.0,0.0,0.0,0.0,-0.08378352969884872
1666092097871520415,0.0,0.0,0.0,0.0,0.0,-4.996003610813204e-16
1666092097982762779,0.0,0.0,0.0,0.0,0.0,-4.996003610813204e-16
1666092098077279888,0.0,0.0,0.0,0.0,0.0,-4.996003610813204e-16
1666092098122888552,0.0,0.0,0.0,0.0,0.0,-0.17453292519943345
1666092098152525962,0.0,0.0,0.0,0.0,0.0,-0.17453292519943345
1666092098238058925,0.0,0.0,0.0,0.0,0.0,-0.17453292519943345
1666092098330348877,0.0,0.0,0.0,0.0,0.0,-0.17453292519943345
1666092098410322120,0.0,0.0,0.0,0.0,0.0,-0.17453292519943345
1666092098472530616,0.0,0.0,0.0,0.0,0.0,-0.17453292519943345
1666092098493984471,0.0,0.0,0.0,0.0,0.0,-0.17453292519943345
1666092098585746941,0.4367257058620453,0.0,0.0,0.0,0.0,-0.10041093081235886
1666092098719952365,0.46491068601608276,0.0,0.0,0.0,0.0,-0.10626401007175446
1666092098755266675,0.4831847250461578,0.0,0.0,0.0,0.0,-0.10991701483726501
1666092098840810976,0.5026048421859741,0.0,0.0,0.0,0.0,-0.11360485106706619
1666092098930935436,0.5211784243583679,0.0,0.0,0.0,0.0,-0.11830062419176102
1666092098975665983,0.5381147265434265,0.0,0.0,0.0,0.0,-0.12181096524000168
1666092099033288261,0.5544695258140564,0.0,0.0,0.0,0.0,-0.12521523237228394
1666092099143170148,0.5730162858963013,0.0,0.0,0.0,0.0,-0.1304250955581665
1666092099183066527,0.5490781664848327,0.0,0.0,0.0,0.0,-0.03357671573758125
1666092099272751886,0.560059666633606,0.0,0.0,0.0,0.0,-0.04062986373901367
1666092099364959262,0.5706958770751953,0.0,0.0,0.0,0.0,-0.04809027537703514
1666092099394950892,0.6278563141822815,0.0,0.0,0.0,0.0,-0.15296994149684906
1666092099485323277,0.5914913415908813,0.0,0.0,0.0,0.0,-0.06137184798717499
1666092099568146450,0.5969411134719849,0.0,0.0,0.0,0.0,-0.0662432536482811
1666092099656846478,0.5987027287483215,0.0,0.0,0.0,0.0,-0.06978936493396759
1666092099703091954,0.6465847492218018,0.0,0.0,0.0,0.0,-0.1670628935098648
1666092099825965530,0.6481459736824036,0.0,0.0,0.0,0.0,-0.16866280138492584
1666092099919580289,0.6001991033554077,0.0,0.0,0.0,0.0,-0.07705619186162949
1666092099960842495,0.5993462204933167,0.0,0.0,0.0,0.0,-0.07702827453613281
1666092099995538407,0.5997717976570129,0.0,0.0,0.0,0.0,-0.17453292519943345
1666092100080518543,0.6542819142341614,0.0,0.0,0.0,0.0,-0.3490658503988664
1666092100184885840,0.6480485200881958,0.0,0.0,0.0,0.0,-0.17171961069107056
1666092100217605003,0.6470534801483154,0.0,0.0,0.0,0.0,-0.1717231124639511
1666092100315698275,0.6380817890167235,0.0,0.0,0.0,0.0,-0.1712869107723236
1666092100334792403,0.6373710632324219,0.0,0.0,0.0,0.0,-0.1712869107723236
1666092100428835750,0.627746045589447,0.0,0.0,0.0,0.0,-0.17047277092933655
1666092100515614338,0.6190174221992493,0.0,0.0,0.0,0.0,-0.17043709754943848
1666092100561510661,0.6090744733810425,0.0,0.0,0.0,0.0,-0.1712469607591629
1666092100635436447,0.529157817363739,0.0,0.0,0.0,0.0,-0.0769495740532875
1666092100680462801,0.5290156602859497,0.0,0.0,0.0,0.0,-0.17453292519943345
1666092100723014197,0.5754636526107788,0.0,0.0,0.0,0.0,-0.17660239338874817
1666092100811161935,0.5031827688217163,0.0,0.0,0.0,0.0,-0.08135857433080673
1666092100859223033,0.48552519083023066,0.0,0.0,0.0,0.0,-0.08394050598144531
1666092100977479127,0.46384856104850763,0.0,0.0,0.0,0.0,-0.0855584517121315
1666092101086994358,0.47787556052207947,0.0,0.0,0.0,0.0,-0.18887929618358612
1666092101109224179,0.4784441590309143,0.0,0.0,0.0,0.0,-0.18858960270881653
1666092101198673829,0.448036253452301,0.0,0.0,0.0,0.0,-0.19056285917758942
1666092101323355918,0.42203760147094727,0.0,0.0,0.0,0.0,-0.19034524261951447
1666092101411653687,0.2800954282283783,0.0,0.0,0.0,0.0,-0.08717355132102966
1666092101497086206,0.0,0.0,0.0,0.0,0.0,-0.7689900890988953
1666092101573809567,0.0,0.0,0.0,0.0,0.0,-0.8295847883283113
1666092101714578925,0.0,0.0,0.0,0.0,0.0,-0.9900983882271212
1666092101755920974,0.0,0.0,0.0,0.0,0.0,-0.961457474428457
1666092101811362950,0.0,0.0,0.0,0.0,0.0,-1.0471975511965983
1666092101921785083,0.0,0.0,0.0,0.0,0.0,-1.0752163651747875
1666092102009787987,0.0,0.0,0.0,0.0,0.0,-1.116551185244009
1666092102053297826,0.0,0.0,0.0,0.0,0.0,-1.1194987635132927
1666092102132529419,0.0,0.0,0.0,0.0,0.0,-1.1257785348264209
1666092102221077653,0.0,0.0,0.0,0.0,0.0,-1.1170326405391453
1666092102323274282,0.0,0.0,0.0,0.0,0.0,-1.0707858241975772
1666092102337482114,0.0,0.0,0.0,0.0,0.0,-1.0616379314225777
1666092102515298075,0.3676653802394867,0.0,0.0,0.0,0.0,-0.26061901450157166
1666092102556880355,0.3674521446228027,0.0,0.0,0.0,0.0,-0.2603851556777954
1666092102650785268,0.44636550545692444,0.0,0.0,0.0,0.0,-0.28181567788124084
1666092102758737728,0.3641944527626037,0.0,0.0,0.0,0.0,-0.21621547639369965
1666092102809474895,0.5232362151145935,0.0,0.0,0.0,0.0,-0.295310378074646
1666092102856874247,0.5645573735237122,0.0,0.0,0.0,0.0,-0.2912827730178833
1666092102884586138,0.5638465881347656,0.0,0.0,0.0,0.0,-0.2900959551334381
1666092103020569634,0.6093088388442993,0.0,0.0,0.0,0.0,-0.2890550196170807
1666092103111014522,0.6862475872039795,0.0,0.0,0.0,0.0,-0.271840363740921
1666092103114367864,0.686105489730835,0.0,0.0,0.0,0.0,-0.2716413736343384
1666092103228073369,0.7185552716255188,0.0,0.0,0.0,0.0,-0.25710418820381165
1666092103319413507,0.1,0.0,0.0,0.0,0.0,-0.5235987755982994
1666092103440507671,0.1,0.0,0.0,0.0,0.0,-0.3490658503988664
1666092103532075844,0.1,0.0,0.0,0.0,0.0,-0.3490658503988664
1666092103628277940,0.1,0.0,0.0,0.0,0.0,-0.17453292519943345
1666092103747678412,0.1,0.0,0.0,0.0,0.0,-0.17453292519943345
1666092103796072608,0.1,0.0,0.0,0.0,0.0,-0.018903404474258423
1666092103919041663,0.1,0.0,0.0,0.0,0.0,-4.996003610813204e-16
1666092104005354931,0.1,0.0,0.0,0.0,0.0,0.005371768958866596
1666092104060151960,0.1,0.0,0.0,0.0,0.0,0.0072357808239758015
1666092104108255482,0.1,0.0,0.0,0.0,0.0,0.17453292519943245
1666092104271454725,0.1,0.0,0.0,0.0,0.0,0.17453292519943245
1666092104389564372,0.1,0.0,0.0,0.0,0.0,0.3490658503988654
1666092104394072487,0.1,0.0,0.0,0.0,0.0,0.3490658503988654
1666092104500973938,0.1,0.0,0.0,0.0,0.0,0.3490658503988654
1666092104527068419,0.1,0.0,0.0,0.0,0.0,0.3490658503988654
1666092104623018992,0.1,0.0,0.0,0.0,0.0,0.3490658503988654
1666092104681627770,0.1,0.0,0.0,0.0,0.0,0.3490658503988654
1666092104783867232,0.1,0.0,0.0,0.0,0.0,0.3490658503988654
1666092104922132235,0.1,0.0,0.0,0.0,0.0,0.3490658503988654
1666092104959958817,0.1,0.0,0.0,0.0,0.0,0.3490658503988654
1666092105119016647,0.1,0.0,0.0,0.0,0.0,0.3490658503988654
1666092105165992914,0.1,0.0,0.0,0.0,0.0,0.3490658503988654
1666092105283379147,0.1,0.0,0.0,0.0,0.0,0.3490658503988654
1666092105381401139,0.1,0.0,0.0,0.0,0.0,0.3490658503988654
1666092105418242173,0.1,0.0,0.0,0.0,0.0,0.3490658503988654
1666092105475342927,0.1,0.0,0.0,0.0,0.0,0.3490658503988654
1666092105540799217,0.1,0.0,0.0,0.0,0.0,0.3490658503988654
1666092105627019406,0.1,0.0,0.0,0.0,0.0,0.3490658503988654
1666092105718152978,0.1,0.0,0.0,0.0,0.0,0.3490658503988654
1666092105835863148,0.1,0.0,0.0,0.0,0.0,0.5235987755982984
1666092105843155068,0.1,0.0,0.0,0.0,0.0,0.5235987755982984
1666092105980100612,0.1,0.0,0.0,0.0,0.0,0.5235987755982984
1666092106026068453,0.1,0.0,0.0,0.0,0.0,0.5235987755982984
1666092106142714874,0.1,0.0,0.0,0.0,0.0,0.5235987755982984
1666092106236417145,0.1,0.0,0.0,0.0,0.0,0.5235987755982984
1666092106322856950,0.1,0.0,0.0,0.0,0.0,0.5235987755982984
1666092106338949006,0.1,0.0,0.0,0.0,0.0,0.5235987755982984
1666092106442247643,0.1,0.0,0.0,0.0,0.0,0.5235987755982984
1666092106490866631,0.1,0.0,0.0,0.0,0.0,0.5235987755982984
1666092106584057089,0.1,0.0,0.0,0.0,0.0,0.5235987755982984
1666092106698232015,0.1,0.0,0.0,0.0,0.0,0.5235987755982984
1666092106742908942,0.1,0.0,0.0,0.0,0.0,0.5235987755982984
1666092106831298066,0.1,0.0,0.0,0.0,0.0,0.5235987755982984
1666092106922021943,0.1,0.0,0.0,0.0,0.0,0.5235987755982984
1666092106995058832,0.1,0.0,0.0,0.0,0.0,0.5235987755982984
1666092107089377327,0.1,0.0,0.0,0.0,0.0,0.5235987755982984
1666092107219955884,0.1,0.0,0.0,0.0,0.0,0.5235987755982984
1666092107315589003,0.1,0.0,0.0,0.0,0.0,0.3490658503988654
1666092107341971857,0.1,0.0,0.0,0.0,0.0,0.3490658503988654
1666092107435181996,0.1,0.0,0.0,0.0,0.0,0.3490658503988654
1666092107482919885,0.1,0.0,0.0,0.0,0.0,0.3490658503988654
1666092107535440119,0.1,0.0,0.0,0.0,0.0,0.3490658503988654
1666092107647938862,0.1,0.0,0.0,0.0,0.0,0.3490658503988654
1666092107694665759,0.1,0.0,0.0,0.0,0.0,0.3490658503988654
1666092107738341210,0.1,0.0,0.0,0.0,0.0,0.3490658503988654
1666092107820115975,0.1,0.0,0.0,0.0,0.0,0.3490658503988654
1666092107906758677,0.1,0.0,0.0,0.0,0.0,0.3490658503988654
1666092107994170351,0.1,0.0,0.0,0.0,0.0,0.3490658503988654
1666092108040478823,0.1,0.0,0.0,0.0,0.0,0.3490658503988654
1666092108082817859,0.1,0.0,0.0,0.0,0.0,0.3490658503988654
1666092108159885753,0.1,0.0,0.0,0.0,0.0,0.6981317007977313
1666092108246577992,0.1,0.0,0.0,0.0,0.0,0.6981317007977313
1666092108421828994,0.1,0.0,0.0,0.0,0.0,0.8726646259971643
1666092108484363858,0.1,0.0,0.0,0.0,0.0,0.8726646259971643
1666092108495140793,0.1,0.0,0.0,0.0,0.0,0.8726646259971643
1666092108585478591,0.1,0.0,0.0,0.0,0.0,1.0471975511965972
1666092108674750312,0.1,0.0,0.0,0.0,0.0,0.8726646259971643
1666092108718445855,0.1,0.0,0.0,0.0,0.0,1.0471975511965972
1666092108774690458,0.1,0.0,0.0,0.0,0.0,1.0471975511965972
1666092108883369733,0.1,0.0,0.0,0.0,0.0,1.2217304763960302
1666092108926603335,0.1,0.0,0.0,0.0,0.0,0.17453292519943245
1666092109019165300,0.7999999999999999,0.0,0.0,0.0,0.0,0.04796368256211281
1666092109060748386,0.7999999999999999,0.0,0.0,0.0,0.0,0.048260387033224106
1666092109117683796,0.7999999999999999,0.0,0.0,0.0,0.0,0.07051728665828705
1666092109183732663,0.7999999999999999,0.0,0.0,0.0,0.0,-0.07796349376440048
1666092109283469681,0.7999999999999999,0.0,0.0,0.0,0.0,-0.12957271933555603
1666092109321474899,0.7999999999999999,0.0,0.0,0.0,0.0,-0.1294575333595276
1666092109438316194,0.7999999999999999,0.0,0.0,0.0,0.0,-0.20575378835201263
1666092109442670105,0.7999999999999999,0.0,0.0,0.0,0.0,-0.20609936118125916
1666092109575349199,0.7999999999999999,0.0,0.0,0.0,0.0,-0.3490658503988664
1666092109619229908,0.7999999999999999,0.0,0.0,0.0,0.0,-0.3490658503988664
1666092109738948085,0.7999999999999999,0.0,0.0,0.0,0.0,-0.3490658503988664
1666092109830334114,0.7999999999999999,0.0,0.0,0.0,0.0,-0.3490658503988664
1666092109872227108,0.7999999999999999,0.0,0.0,0.0,0.0,-0.3490658503988664
1666092109960720801,0.7999999999999999,0.0,0.0,0.0,0.0,-0.3490658503988664
1666092110018215824,0.7999999999999999,0.0,0.0,0.0,0.0,-0.3490658503988664
1666092110136197310,0.7999999999999999,0.0,0.0,0.0,0.0,-0.3490658503988664
1666092110171862722,0.7999999999999999,0.0,0.0,0.0,0.0,-0.3490658503988664
1666092110257925660,0.7999999999999999,0.0,0.0,0.0,0.0,-0.3490658503988664
1666092110353436179,0.7999999999999999,0.0,0.0,0.0,0.0,-0.3490658503988664
1666092110464707736,0.7999999999999999,0.0,0.0,0.0,0.0,-0.3490658503988664
1666092110525140753,0.7999999999999999,0.0,0.0,0.0,0.0,-0.3490658503988664
1666092110604288125,0.7999999999999999,0.0,0.0,0.0,0.0,-0.3490658503988664
1666092110688562316,0.7999999999999999,0.0,0.0,0.0,0.0,-0.3490658503988664
1666092110774280277,0.7999999999999999,0.0,0.0,0.0,0.0,-0.3490658503988664
1666092110863533714,0.7999999999999999,0.0,0.0,0.0,0.0,-0.3490658503988664
1666092110919546756,0.7999999999999999,0.0,0.0,0.0,0.0,-0.3490658503988664
1666092111027799277,0.7999999999999999,0.0,0.0,0.0,0.0,-0.3490658503988664
1666092111098133690,0.7999999999999999,0.0,0.0,0.0,0.0,-0.3490658503988664
1666092111184675336,0.7999999999999999,0.0,0.0,0.0,0.0,-0.3490658503988664
1666092111303768689,0.7999999999999999,0.0,0.0,0.0,0.0,-0.3490658503988664
1666092111391248460,0.7999999999999999,0.0,0.0,0.0,0.0,-0.3490658503988664
1666092111484731099,0.7999999999999999,0.0,0.0,0.0,0.0,-0.3490658503988664
1666092111603129434,0.7999999999999999,0.0,0.0,0.0,0.0,-0.3490658503988664
1666092111672112999,0.7999999999999999,0.0,0.0,0.0,0.0,-0.3490658503988664
1666092111789229581,0.7999999999999999,0.0,0.0,0.0,0.0,-0.3490658503988664
1666092111902330812,0.7999999999999999,0.0,0.0,0.0,0.0,-0.5235987755982994
1666092112008777262,0.1,0.0,0.0,0.0,0.0,-0.17453292519943345
1666092112038490716,0.1,0.0,0.0,0.0,0.0,-0.17453292519943345
1666092112084403987,0.1,0.0,0.0,0.0,0.0,-0.17453292519943345
1666092112159126899,0.1,0.0,0.0,0.0,0.0,-0.17453292519943345
1666092112250505777,0.1,0.0,0.0,0.0,0.0,-0.17453292519943345
1666092112299015982,0.1,0.0,0.0,0.0,0.0,-0.17453292519943345
1666092112423434729,0.1,0.0,0.0,0.0,0.0,-0.17453292519943345
1666092112470726760,0.1,0.0,0.0,0.0,0.0,-0.17453292519943345
1666092112562138457,0.1,0.0,0.0,0.0,0.0,-0.17453292519943345
1666092112637446272,0.1,0.0,0.0,0.0,0.0,-0.17453292519943345
1666092112721389949,0.1,0.0,0.0,0.0,0.0,-0.07425437122583389
1666092112767918933,0.1,0.0,0.0,0.0,0.0,-0.06698344647884369
1666092112845406561,0.1,0.0,0.0,0.0,0.0,-0.17453292519943345
1666092112934645218,0.1,0.0,0.0,0.0,0.0,-0.8726646259971653
1666092113025638117,0.1,0.0,0.0,0.0,0.0,-0.6981317007977323
1666092113146828355,0.1,0.0,0.0,0.0,0.0,-0.6981317007977323
1666092113194656120,0.1,0.0,0.0,0.0,0.0,-0.6981317007977323
1666092113237739555,0.1,0.0,0.0,0.0,0.0,-0.8726646259971653
1666092113298589830,0.1,0.0,0.0,0.0,0.0,-0.8726646259971653
1666092113406055669,0.1,0.0,0.0,0.0,0.0,-0.8726646259971653
1666092113449416080,0.1,0.0,0.0,0.0,0.0,-0.8726646259971653
1666092113542235103,0.1,0.0,0.0,0.0,0.0,-0.8726646259971653
1666092113617501545,0.7999999999999999,0.0,0.0,0.0,0.0,0.17453292519943245
1666092113623585677,0.7999999999999999,0.0,0.0,0.0,0.0,0.17453292519943245
1666092113712253878,0.7999999999999999,0.0,0.0,0.0,0.0,0.3490658503988654
1666092113802850122,0.7999999999999999,0.0,0.0,0.0,0.0,0.3490658503988654
1666092113862733578,0.7999999999999999,0.0,0.0,0.0,0.0,0.5235987755982984
1666092114014245802,0.7999999999999999,0.0,0.0,0.0,0.0,0.5235987755982984
1666092114057509905,0.7999999999999999,0.0,0.0,0.0,0.0,0.5235987755982984
1666092114143528390,0.7999999999999999,0.0,0.0,0.0,0.0,0.6981317007977313
1666092114188061542,0.7999999999999999,0.0,0.0,0.0,0.0,0.6981317007977313
1666092114224696753,0.7999999999999999,0.0,0.0,0.0,0.0,0.6981317007977313
1666092114308194789,0.7961459755897522,0.0,0.0,0.0,0.0,0.8726646259971643
1666092114354025204,0.7833517789840698,0.0,0.0,0.0,0.0,0.8726646259971643
1666092114441972680,0.782339870929718,0.0,0.0,0.0,0.0,0.8726646259971643
1666092114527968990,0.7793700695037841,0.0,0.0,0.0,0.0,1.0471975511965972
1666092114602984610,0.7723739743232727,0.0,0.0,0.0,0.0,1.0471975511965972
1666092114648120893,0.7577556371688843,0.0,0.0,0.0,0.0,1.0471975511965972
1666092114741370118,0.7999999999999999,0.0,0.0,0.0,0.0,1.2217304763960302
1666092114833750173,0.7991722822189331,0.0,0.0,0.0,0.0,1.2217304763960302
1666092114839466779,0.79874587059021,0.0,0.0,0.0,0.0,1.2217304763960302
1666092114994371978,0.6935573220252991,0.0,0.0,0.0,0.0,1.2217304763960302
1666092115038267451,0.6757596731185912,0.0,0.0,0.0,0.0,1.2217304763960302
1666092115130902402,0.6578569412231444,0.0,0.0,0.0,0.0,1.2217304763960302
1666092115142786174,0.6388894319534302,0.0,0.0,0.0,0.0,1.2217304763960302
1666092115246877999,0.6170821785926819,0.0,0.0,0.0,0.0,1.2217304763960302
1666092115292019583,0.6915773153305054,0.0,0.0,0.0,0.0,1.2217304763960302
1666092115383349878,0.5690332055091858,0.0,0.0,0.0,0.0,1.2217304763960302
1666092115503883644,0.6397430300712585,0.0,0.0,0.0,0.0,1.2217304763960302
1666092115552838020,0.5048831701278687,0.0,0.0,0.0,0.0,1.2217304763960302
1666092115689013160,0.4760832786560058,0.0,0.0,0.0,0.0,1.2217304763960302
1666092115728978330,0.4456615746021271,0.0,0.0,0.0,0.0,1.2217304763960302
1666092115898725213,0.4154887497425079,0.0,0.0,0.0,0.0,1.2217304763960302
1666092115940736079,0.3882578611373901,0.0,0.0,0.0,0.0,1.2217304763960302
1666092116027976245,0.36500588059425354,0.0,0.0,0.0,0.0,1.2217304763960302
1666092116062253198,0.34715428948402405,0.0,0.0,0.0,0.0,1.2217304763960302
1666092116152251765,0.3293592035770416,0.0,0.0,0.0,0.0,1.2217304763960302
1666092116198746321,0.31887632608413696,0.0,0.0,0.0,0.0,1.2217304763960302
1666092116290871249,0.4399701356887817,0.0,0.0,0.0,0.0,1.2217304763960302
1666092116363031949,0.29785823822021484,0.0,0.0,0.0,0.0,1.0471975511965972
1666092116454712977,0.28890457749366755,0.0,0.0,0.0,0.0,1.0471975511965972
1666092116543752393,0.28803879022598267,0.0,0.0,0.0,0.0,1.0471975511965972
1666092116604060245,0.2843008339405059,0.0,0.0,0.0,0.0,1.0471975511965972
1666092116713902006,0.2831445634365082,0.0,0.0,0.0,0.0,0.8726646259971643
1666092116803558233,0.28394338488578796,0.0,0.0,0.0,0.0,0.8726646259971643
1666092116844795312,0.0,0.0,0.0,0.0,0.0,0.5943998016468219
1666092116860056767,0.0,0.0,0.0,0.0,0.0,0.5855110013711089
1666092116966961918,0.0,0.0,0.0,0.0,0.0,0.5509450589672215
1666092117053702371,0.0,0.0,0.0,0.0,0.0,0.4926398931686147
1666092117141394422,0.0,0.0,0.0,0.0,0.0,0.3922089949206451
1666092117223972229,0.0,0.0,0.0,0.0,0.0,0.3476389309982362
1666092117261497021,0.0,0.0,0.0,0.0,0.0,0.3490658503988654
1666092117349170456,0.0,0.0,0.0,0.0,0.0,0.304272787234827
1666092117395275298,0.0,0.0,0.0,0.0,0.0,0.26164952835380306
1666092117483535739,0.0,0.0,0.0,0.0,0.0,0.23333934176611298
1666092117601439300,0.0,0.0,0.0,0.0,0.0,0.17453292519943245
1666092117645460089,0.0,0.0,0.0,0.0,0.0,0.17453292519943245
1666092117732736537,0.0,0.0,0.0,0.0,0.0,0.17453292519943245
1666092117827503635,0.0,0.0,0.0,0.0,0.0,0.17453292519943245
1666092117907816946,0.0,0.0,0.0,0.0,0.0,0.17453292519943245
1666092118037650807,0.0,0.0,0.0,0.0,0.0,0.17453292519943245
1666092118099336634,0.0,0.0,0.0,0.0,0.0,0.17453292519943245
1666092118244505648,0.0,0.0,0.0,0.0,0.0,0.17453292519943245
1666092118329802545,0.0,0.0,0.0,0.0,0.0,0.17453292519943245
1666092118377105694,0.0,0.0,0.0,0.0,0.0,0.17453292519943245
1666092118426954585,0.0,0.0,0.0,0.0,0.0,0.17453292519943245
1666092118541090902,0.0,0.0,0.0,0.0,0.0,0.17453292519943245
1666092118632686946,0.0,0.0,0.0,0.0,0.0,0.17453292519943245
1666092118721253357,0.0,0.0,0.0,0.0,0.0,0.17453292519943245
1666092118799456619,0.0,0.0,0.0,0.0,0.0,0.17453292519943245
1666092118940811880,0.0,0.0,0.0,0.0,0.0,0.17453292519943245
1666092119102950890,0.0,0.0,0.0,0.0,0.0,0.17453292519943245
1666092119149263076,0.0,0.0,0.0,0.0,0.0,0.17453292519943245
1666092119268601965,0.0,0.0,0.0,0.0,0.0,0.17453292519943245
1666092119284606725,0.0,0.0,0.0,0.0,0.0,0.17453292519943245
1666092119412005083,0.0,0.0,0.0,0.0,0.0,0.17453292519943245
1666092119454937097,0.0,0.0,0.0,0.0,0.0,0.17453292519943245
1666092119491680159,0.0,0.0,0.0,0.0,0.0,0.17453292519943245
1666092119540989314,0.0,0.0,0.0,0.0,0.0,0.17453292519943245
1666092119665713245,0.0,0.0,0.0,0.0,0.0,0.17453292519943245
1666092119757984142,0.0,0.0,0.0,0.0,0.0,0.17453292519943245
1666092119798194730,0.0,0.0,0.0,0.0,0.0,0.17453292519943245
1666092119889994104,0.0,0.0,0.0,0.0,0.0,0.17453292519943245
1666092119926213336,0.0,0.0,0.0,0.0,0.0,0.17453292519943245
1666092120014154204,0.0,0.0,0.0,0.0,0.0,0.17453292519943245
1666092120078648591,0.0,0.0,0.0,0.0,0.0,0.17453292519943245
1666092120154927418,0.0,0.0,0.0,0.0,0.0,0.17453292519943245
1666092120161166354,0.0,0.0,0.0,0.0,0.0,0.17453292519943245
1666092120313388117,0.0,0.0,0.0,0.0,0.0,0.17453292519943245
1666092120359950363,0.0,0.0,0.0,0.0,0.0,0.17453292519943245
1666092120462160643,0.0,0.0,0.0,0.0,0.0,0.17453292519943245
1666092120580525876,0.0,0.0,0.0,0.0,0.0,-4.996003610813204e-16
1666092120620071218,0.0,0.0,0.0,0.0,0.0,-4.996003610813204e-16
1666092120771330813,0.0,0.0,0.0,0.0,0.0,-4.996003610813204e-16
1666092120790744834,0.0,0.0,0.0,0.0,0.0,-4.996003610813204e-16
1666092120878683350,0.0,0.0,0.0,0.0,0.0,-4.996003610813204e-16
1666092120965055743,0.0,0.0,0.0,0.0,0.0,-4.996003610813204e-16
1666092121005786309,0.0,0.0,0.0,0.0,0.0,-4.996003610813204e-16
1666092121050777483,0.0,0.0,0.0,0.0,0.0,-4.996003610813204e-16
1666092121097843977,0.0,0.0,0.0,0.0,0.0,-4.996003610813204e-16
1666092121141103122,0.0,0.0,0.0,0.0,0.0,-4.996003610813204e-16
1666092121268878693,0.0,0.0,0.0,0.0,0.0,-4.996003610813204e-16
1666092121313358168,0.0,0.0,0.0,0.0,0.0,-4.996003610813204e-16
1666092121445396652,0.0,0.0,0.0,0.0,0.0,-4.996003610813204e-16
1666092121478929034,0.0,0.0,0.0,0.0,0.0,-4.996003610813204e-16
1666092121547353750,0.0,0.0,0.0,0.0,0.0,-4.996003610813204e-16
1666092121561221356,0.0,0.0,0.0,0.0,0.0,-4.996003610813204e-16
1666092121651046761,0.0,0.0,0.0,0.0,0.0,-4.996003610813204e-16
1666092121781411174,0.0,0.0,0.0,0.0,0.0,-4.996003610813204e-16
1666092121868866769,0.0,0.0,0.0,0.0,0.0,-4.996003610813204e-16
1666092121948157923,0.0,0.0,0.0,0.0,0.0,-4.996003610813204e-16
1666092122025112744,0.0,0.0,0.0,0.0,0.0,-4.996003610813204e-16
1666092122081436885,0.0,0.0,0.0,0.0,0.0,-4.996003610813204e-16
1666092122125503809,0.0,0.0,0.0,0.0,0.0,-4.996003610813204e-16
1666092122181020689,0.0,0.0,0.0,0.0,0.0,-4.996003610813204e-16
1666092122269790571,0.0,0.0,0.0,0.0,0.0,0.17453292519943245
1666092122290275229,0.0,0.0,0.0,0.0,0.0,0.17453292519943245
1666092122421039255,0.0,0.0,0.0,0.0,0.0,0.17453292519943245
1666092122509348527,0.0,0.0,0.0,0.0,0.0,0.17453292519943245
1666092122521834402,0.0,0.0,0.0,0.0,0.0,0.17453292519943245
1666092122589063431,0.0,0.0,0.0,0.0,0.0,0.17453292519943245
1666092122678163302,0.0,0.0,0.0,0.0,0.0,0.17453292519943245
1666092122776665325,0.0,0.0,0.0,0.0,0.0,0.22107724170468085
1666092122886434930,0.0,0.0,0.0,0.0,0.0,0.22944467555697143
1666092122981246452,0.0,0.0,0.0,0.0,0.0,0.3376621744260303
1666092123077150809,0.0,0.0,0.0,0.0,0.0,0.468714423450672
1666092123143467570,0.0,0.0,0.0,0.0,0.0,0.5050539800032838
1666092123197975496,0.0,0.0,0.0,0.0,0.0,0.5032687323182313
1666092123248684579,0.4350663721561432,0.0,0.0,0.0,0.0,0.6981317007977313
1666092123372193477,0.3796869218349456,0.0,0.0,0.0,0.0,0.6981317007977313
1666092123466390696,0.43488264083862305,0.0,0.0,0.0,0.0,0.6981317007977313
1666092123551820332,0.538821280002594,0.0,0.0,0.0,0.0,0.5235987755982984
1666092123626919657,0.5148780345916748,0.0,0.0,0.0,0.0,0.5235987755982984
1666092123715578455,0.5372041463851929,0.0,0.0,0.0,0.0,0.5235987755982984
1666092123780098952,0.5782230496406555,0.0,0.0,0.0,0.0,0.3490658503988654
1666092123845966453,0.5804131627082824,0.0,0.0,0.0,0.0,0.3490658503988654
1666092123899030210,0.5796312689781188,0.0,0.0,0.0,0.0,0.3490658503988654
1666092124018642439,0.615622878074646,0.0,0.0,0.0,0.0,0.3490658503988654
1666092124109843648,0.6327173113822937,0.0,0.0,0.0,0.0,0.3490658503988654
1666092124158037996,0.6330016255378723,0.0,0.0,0.0,0.0,0.3490658503988654
1666092124206890309,0.6799916625022887,0.0,0.0,0.0,0.0,0.3490658503988654
1666092124319532008,0.6957687139511108,0.0,0.0,0.0,0.0,0.3490658503988654
1666092124458099337,0.7029238343238831,0.0,0.0,0.0,0.0,0.3490658503988654
1666092124546262690,0.7207143902778624,0.0,0.0,0.0,0.0,0.3490658503988654
1666092124573128395,0.7385135889053345,0.0,0.0,0.0,0.0,0.3490658503988654
1666092124619212559,0.7573157548904419,0.0,0.0,0.0,0.0,0.3490658503988654
1666092124751153177,0.7739216089248657,0.0,0.0,0.0,0.0,0.17453292519943245
1666092124870456386,0.7999999999999999,0.0,0.0,0.0,0.0,0.17453292519943245
1666092124923553089,0.7999999999999999,0.0,0.0,0.0,0.0,0.17453292519943245
1666092125901383448,0.19665722548961637,0.0,0.0,0.0,0.0,-1.7453292519943302
1666092125968767781,0.1732519268989563,0.0,0.0,0.0,0.0,-0.3097058832645416
1666092126033421242,0.17685535550117493,0.0,0.0,0.0,0.0,-0.29546433687210083
1666092126046760092,0.17685535550117493,0.0,0.0,0.0,0.0,-0.29589366912841797
1666092126196786678,0.17617729306221006,0.0,0.0,0.0,0.0,-0.3231072723865509
1666092126328225766,0.15812285244464874,0.0,0.0,0.0,0.0,-0.33300361037254333
1666092126364425729,0.14940387010574338,0.0,0.0,0.0,0.0,-0.3398776650428772
1666092126541096451,0.0,0.0,0.0,0.0,0.0,-1.7453292519943302
1666092126678045287,0.15567199885845184,0.0,0.0,0.0,0.0,-0.32272422313690186
1666092126709528840,0.15982826054096222,0.0,0.0,0.0,0.0,-0.31327900290489197
1666092126777720960,0.16235892474651337,0.0,0.0,0.0,0.0,-0.31945863366127014
1666092126796863800,0.16207461059093475,0.0,0.0,0.0,0.0,-0.32206618785858154
1666092126886115387,0.0,0.0,0.0,0.0,0.0,-1.7453292519943302
1666092126963709707,0.0,0.0,0.0,0.0,0.0,-1.7453292519943302
1666092127051537584,0.1666234284639358,0.0,0.0,0.0,0.0,-0.30368050932884216
1666092127143112069,0.16748347878456116,0.0,0.0,0.0,0.0,-0.2917347848415375
1666092127230295283,0.0,0.0,0.0,0.0,0.0,-1.7453292519943302
1666092127309318532,0.0,0.0,0.0,0.0,0.0,-1.5707963267948972
1666092127445227885,0.0,0.0,0.0,0.0,0.0,-1.5707963267948972
1666092127509786175,0.0,0.0,0.0,0.0,0.0,-1.5707963267948972
1666092127523177206,0.0,0.0,0.0,0.0,0.0,-1.5707963267948972
1666092127657924708,0.0,0.0,0.0,0.0,0.0,-1.5707963267948972
1666092127704689339,0.0,0.0,0.0,0.0,0.0,-1.5707963267948972
1666092127793830560,0.0,0.0,0.0,0.0,0.0,-1.5707963267948972
1666092127918372446,0.0,0.0,0.0,0.0,0.0,-1.3962634015954642
1666092127960965406,0.0,0.0,0.0,0.0,0.0,-1.3962634015954642
1666092128056759043,0.0,0.0,0.0,0.0,0.0,-1.3962634015954642
1666092128085800445,0.0,0.0,0.0,0.0,0.0,-1.3962634015954642
1666092128221670797,0.0,0.0,0.0,0.0,0.0,-1.2217304763960313
1666092128265383373,0.0,0.0,0.0,0.0,0.0,-1.2217304763960313
1666092128323665622,0.0,0.0,0.0,0.0,0.0,-1.113164255174196
1666092128430918269,0.0,0.0,0.0,0.0,0.0,-0.9475673021161082
1666092128502420357,0.0,0.0,0.0,0.0,0.0,-0.8726646259971653
1666092128576861705,0.0,0.0,0.0,0.0,0.0,-0.7745272210604354
1666092128610365948,0.0,0.0,0.0,0.0,0.0,-0.7740683654153773
1666092128733946089,0.0,0.0,0.0,0.0,0.0,-0.6981317007977323
1666092128821696448,0.0,0.0,0.0,0.0,0.0,-0.598570082998852
1666092128924172720,0.0,0.0,0.0,0.0,0.0,-0.5235987755982994
1666092129030969075,0.0,0.0,0.0,0.0,0.0,-0.46240114810083216
1666092129076916765,0.0,0.0,0.0,0.0,0.0,-0.39097575409080587
1666092129165779736,0.0,0.0,0.0,0.0,0.0,-0.26828537181428713
1666092129213093882,0.0,0.0,0.0,0.0,0.0,-0.17453292519943345
1666092129286460868,0.0,0.0,0.0,0.0,0.0,-0.17453292519943345
1666092129374242200,0.0,0.0,0.0,0.0,0.0,-4.996003610813204e-16
1666092129417281042,0.0,0.0,0.0,0.0,0.0,-4.996003610813204e-16
1666092129506289622,0.0,0.0,0.0,0.0,0.0,-4.996003610813204e-16
1666092129568520196,0.0,0.0,0.0,0.0,0.0,-4.996003610813204e-16
1666092129629364905,0.0,0.0,0.0,0.0,0.0,-4.996003610813204e-16
1666092129717341717,0.0,0.0,0.0,0.0,0.0,-4.996003610813204e-16
1666092129805877443,0.0,0.0,0.0,0.0,0.0,-4.996003610813204e-16
1666092129849830688,0.0,0.0,0.0,0.0,0.0,-4.996003610813204e-16
1666092129907305377,0.0,0.0,0.0,0.0,0.0,-4.996003610813204e-16
1666092129969977364,0.0,0.0,0.0,0.0,0.0,-4.996003610813204e-16
1666092130057092772,0.0,0.0,0.0,0.0,0.0,-4.996003610813204e-16
1666092130102583825,0.0,0.0,0.0,0.0,0.0,-4.996003610813204e-16
1666092130189284545,0.0,0.0,0.0,0.0,0.0,-4.996003610813204e-16
1666092130233426642,0.0,0.0,0.0,0.0,0.0,-4.996003610813204e-16
1666092130349707571,0.0,0.0,0.0,0.0,0.0,-4.996003610813204e-16
1666092130450458401,0.0,0.0,0.0,0.0,0.0,-4.996003610813204e-16
1666092130472759197,0.0,0.0,0.0,0.0,0.0,-4.996003610813204e-16
1666092130606093806,0.0,0.0,0.0,0.0,0.0,-4.996003610813204e-16
1666092130709655371,0.0,0.0,0.0,0.0,0.0,-4.996003610813204e-16
1666092130725274643,0.0,0.0,0.0,0.0,0.0,-4.996003610813204e-16
1666092130852594577,0.0,0.0,0.0,0.0,0.0,-4.996003610813204e-16
1666092130888668130,0.0,0.0,0.0,0.0,0.0,-4.996003610813204e-16
1666092130970471308,0.0,0.0,0.0,0.0,0.0,-4.996003610813204e-16
1666092131116682822,0.0,0.0,0.0,0.0,0.0,-0.17453292519943345
1666092131133586523,0.0,0.0,0.0,0.0,0.0,-0.17453292519943345
1666092131221655048,0.0,0.0,0.0,0.0,0.0,-0.17453292519943345
1666092131309263015,0.0,0.0,0.0,0.0,0.0,-0.17453292519943345
1666092131364701346,0.0,0.0,0.0,0.0,0.0,-0.17453292519943345
1666092131478428846,0.0,0.0,0.0,0.0,0.0,-0.17453292519943345
1666092131569340758,0.0,0.0,0.0,0.0,0.0,-0.17453292519943345
1666092131654193572,0.0,0.0,0.0,0.0,0.0,-0.17453292519943345
1666092131726682765,0.0,0.0,0.0,0.0,0.0,-0.17453292519943345
1666092131813012519,0.0,0.0,0.0,0.0,0.0,-0.17453292519943345
1666092131889053328,0.0,0.0,0.0,0.0,0.0,-0.17453292519943345
1666092131934353259,0.0,0.0,0.0,0.0,0.0,-0.17453292519943345
1666092132021017920,0.0,0.0,0.0,0.0,0.0,-0.17453292519943345
1666092132154028017,0.0,0.0,0.0,0.0,0.0,-0.17453292519943345
1666092132231086964,0.0,0.0,0.0,0.0,0.0,-0.17453292519943345
1666092132278829108,0.0,0.0,0.0,0.0,0.0,-0.23516994717613737
1666092132370750108,0.0,0.0,0.0,0.0,0.0,-0.2672372449846448
1666092132417211147,0.0,0.0,0.0,0.0,0.0,-0.36742281466744364
1666092132490582555,0.0,0.0,0.0,0.0,0.0,-0.3998904144229345
1666092132576973629,0.0,0.0,0.0,0.0,0.0,-0.4171684069241533
1666092132665990558,0.0,0.0,0.0,0.0,0.0,-0.43234131733386044
1666092132769361465,0.0,0.0,0.0,0.0,0.0,-0.3720451236574394
1666092132785800995,0.0,0.0,0.0,0.0,0.0,-0.36393813184632223
1666092132873408079,0.0,0.0,0.0,0.0,0.0,-0.17453292519943345
1666092132961819419,0.0,0.0,0.0,0.0,0.0,-4.996003610813204e-16
1666092133093578909,0.0,0.0,0.0,0.0,0.0,-4.996003610813204e-16
1666092133125871749,0.0,0.0,0.0,0.0,0.0,0.47149748115204043
1666092133229237515,0.0,0.0,0.0,0.0,0.0,1.0471975511965972
1666092133257720723,0.0,0.0,0.0,0.0,0.0,1.0471975511965972
1666092133346677537,0.0,0.0,0.0,0.0,0.0,1.2217304763960306
1666092133364149723,0.0,0.0,0.0,0.0,0.0,1.3962634015954631
1666092133488583961,0.0,0.0,0.0,0.0,0.0,1.5707963267948961
1666092133510166432,0.0,0.0,0.0,0.0,0.0,1.5707963267948961
1666092133602518886,0.0,0.0,0.0,0.0,0.0,1.919862177193762
1666092133668708257,0.0,0.0,0.0,0.0,0.0,1.919862177193762
1666092133784348965,0.0,0.0,0.0,0.0,0.0,1.919862177193762
1666092133809157402,0.0,0.0,0.0,0.0,0.0,1.919862177193762
1666092133897125112,0.0,0.0,0.0,0.0,0.0,1.919862177193762
1666092133963724567,0.0,0.0,0.0,0.0,0.0,1.919862177193762
1666092134086258829,0.0,0.0,0.0,0.0,0.0,1.919862177193762
1666092134110845109,0.0,0.0,0.0,0.0,0.0,1.919862177193762
1666092134158029424,0.0,0.0,0.0,0.0,0.0,1.919862177193762
1666092134242166706,0.0,0.0,0.0,0.0,0.0,1.919862177193762
1666092134288913666,0.0,0.0,0.0,0.0,0.0,1.745329251994329
1666092134453210881,0.0,0.0,0.0,0.0,0.0,1.745329251994329
1666092134535031572,0.0,0.0,0.0,0.0,0.0,1.745329251994329
1666092134589366740,0.0,0.0,0.0,0.0,0.0,1.745329251994329
1666092134633056387,0.0,0.0,0.0,0.0,0.0,1.745329251994329
1666092134753742783,0.0,0.0,0.0,0.0,0.0,1.5707963267948961
1666092134845747442,0.0,0.0,0.0,0.0,0.0,1.5707963267948961
1666092134933008370,0.0,0.0,0.0,0.0,0.0,1.3962634015954631
1666092134966251710,0.0,0.0,0.0,0.0,0.0,1.2217304763960306
1666092135053205142,0.0,0.0,0.0,0.0,0.0,1.2217304763960302
1666092135185411041,0.0,0.0,0.0,0.0,0.0,1.09340426984272
1666092135273210766,0.0,0.0,0.0,0.0,0.0,0.7602911887685334
1666092135335042927,0.0,0.0,0.0,0.0,0.0,0.605583690091884
1666092135353214751,0.0,0.0,0.0,0.0,0.0,0.5880924958391356
1666092135441660141,0.0,0.0,0.0,0.0,0.0,0.4520414302777859
1666092135530496627,0.0,0.0,0.0,0.0,0.0,0.31544463386204535
1666092135586765422,0.0,0.0,0.0,0.0,0.0,0.17453292519943245
1666092135697161185,0.0,0.0,0.0,0.0,0.0,-4.996003610813204e-16
1666092135788965482,0.0,0.0,0.0,0.0,0.0,-4.996003610813204e-16
1666092135847505636,0.0,0.0,0.0,0.0,0.0,-4.996003610813204e-16
1666092135909635256,0.0,0.0,0.0,0.0,0.0,-0.17453292519943345
1666092136047894321,0.0,0.0,0.0,0.0,0.0,-0.17453292519943345
1666092136139787545,0.0,0.0,0.0,0.0,0.0,-0.17453292519943345
1666092136147417334,0.0,0.0,0.0,0.0,0.0,-0.17453292519943345
1666092136209842981,0.0,0.0,0.0,0.0,0.0,-0.21805720439751278
1666092136253685786,0.0,0.0,0.0,0.0,0.0,-0.2284812608347548
1666092136386194756,0.0,0.0,0.0,0.0,0.0,-0.24355072595575128
1666092136487230626,0.0,0.0,0.0,0.0,0.0,-0.2393298067272108
1666092136553597065,0.0,0.0,0.0,0.0,0.0,-0.22893769584955292
1666092136641532504,0.0,0.0,0.0,0.0,0.0,-0.2206755923430875
1666092136729194009,0.0,0.0,0.0,0.0,0.0,-0.17453292519943345
1666092136807333700,0.0,0.0,0.0,0.0,0.0,-0.17453292519943345
1666092136918039285,0.0,0.0,0.0,0.0,0.0,-0.17453292519943345
1666092136938879771,0.0,0.0,0.0,0.0,0.0,-0.17453292519943345
1666092137025369041,0.0,0.0,0.0,0.0,0.0,-0.17453292519943345
1666092137114696779,0.0,0.0,0.0,0.0,0.0,-0.17453292519943345
1666092137128881679,0.0,0.0,0.0,0.0,0.0,-0.17453292519943345
1666092137237528048,0.0,0.0,0.0,0.0,0.0,-0.17453292519943345
1666092137296680731,0.0,0.0,0.0,0.0,0.0,-0.17453292519943345
1666092137373576849,0.0,0.0,0.0,0.0,0.0,-4.996003610813204e-16
1666092137447657551,0.0,0.0,0.0,0.0,0.0,-4.996003610813204e-16
1666092137581619116,0.0,0.0,0.0,0.0,0.0,-4.996003610813204e-16
1666092137625146720,0.0,0.0,0.0,0.0,0.0,-4.996003610813204e-16
1666092137725802465,0.0,0.0,0.0,0.0,0.0,-4.996003610813204e-16
1666092137727605026,0.0,0.0,0.0,0.0,0.0,-4.996003610813204e-16
1666092137889204540,0.0,0.0,0.0,0.0,0.0,-4.996003610813204e-16
1666092137978397270,0.0,0.0,0.0,0.0,0.0,-4.996003610813204e-16
1666092138009714539,0.0,0.0,0.0,0.0,0.0,-4.996003610813204e-16
1666092138054251343,0.0,0.0,0.0,0.0,0.0,-4.996003610813204e-16
1666092138128451126,0.0,0.0,0.0,0.0,0.0,-4.996003610813204e-16
1666092138174333614,0.0,0.0,0.0,0.0,0.0,-4.996003610813204e-16
1666092138310404439,0.0,0.0,0.0,0.0,0.0,-4.996003610813204e-16
1666092138353553786,0.0,0.0,0.0,0.0,0.0,-4.996003610813204e-16
1666092138434562013,0.0,0.0,0.0,0.0,0.0,-4.996003610813204e-16
1666092138521689239,0.0,0.0,0.0,0.0,0.0,-4.996003610813204e-16
1666092138611476405,0.0,0.0,0.0,0.0,0.0,-4.996003610813204e-16
1666092138653421187,0.0,0.0,0.0,0.0,0.0,-4.996003610813204e-16
1666092138714240872,0.0,0.0,0.0,0.0,0.0,-4.996003610813204e-16
1666092138813120093,0.0,0.0,0.0,0.0,0.0,-4.996003610813204e-16
1666092138901122974,0.0,0.0,0.0,0.0,0.0,-4.996003610813204e-16
1666092138947125651,0.0,0.0,0.0,0.0,0.0,-4.996003610813204e-16
1666092139032659929,0.0,0.0,0.0,0.0,0.0,-4.996003610813204e-16
1666092139113080348,0.0,0.0,0.0,0.0,0.0,-4.996003610813204e-16
1666092139225139924,0.0,0.0,0.0,0.0,0.0,-4.996003610813204e-16
1666092139249843622,0.0,0.0,0.0,0.0,0.0,-4.996003610813204e-16
1666092139308753735,0.0,0.0,0.0,0.0,0.0,-4.996003610813204e-16
1666092139422363691,0.0,0.0,0.0,0.0,0.0,-4.996003610813204e-16
1666092139509889099,0.0,0.0,0.0,0.0,0.0,-4.996003610813204e-16
1666092139604258479,0.0,0.0,0.0,0.0,0.0,-4.996003610813204e-16
1666092139674790851,0.0,0.0,0.0,0.0,0.0,-4.996003610813204e-16
1666092139716981541,0.0,0.0,0.0,0.0,0.0,-4.996003610813204e-16
1666092139809723546,0.0,0.0,0.0,0.0,0.0,-4.996003610813204e-16
1666092139898337370,0.0,0.0,0.0,0.0,0.0,-4.996003610813204e-16
1666092139910745323,0.0,0.0,0.0,0.0,0.0,-4.996003610813204e-16
1666092140017982152,0.0,0.0,0.0,0.0,0.0,-4.996003610813204e-16
1666092140112437860,0.0,0.0,0.0,0.0,0.0,0.17453292519943245
1666092140197072533,0.0,0.0,0.0,0.0,0.0,-4.996003610813204e-16
1666092140254909628,0.0,0.0,0.0,0.0,0.0,-4.996003610813204e-16
1666092140277431024,0.0,0.0,0.0,0.0,0.0,-4.996003610813204e-16
1666092140413760707,0.0,0.0,0.0,0.0,0.0,-4.996003610813204e-16
1666092140469995058,0.0,0.0,0.0,0.0,0.0,-4.996003610813204e-16
1666092140581352077,0.0,0.0,0.0,0.0,0.0,-4.996003610813204e-16
1666092140632271428,0.0,0.0,0.0,0.0,0.0,-4.996003610813204e-16
1666092140729437188,0.0,0.0,0.0,0.0,0.0,-4.996003610813204e-16
1666092140839254084,0.0,0.0,0.0,0.0,0.0,-4.996003610813204e-16
1666092141013594394,0.0,0.0,0.0,0.0,0.0,-4.996003610813204e-16
1666092141160398234,0.0,0.0,0.0,0.0,0.0,-4.996003610813204e-16
1666092141182137034,0.0,0.0,0.0,0.0,0.0,-4.996003610813204e-16
1666092141345076455,0.0,0.0,0.0,0.0,0.0,-4.996003610813204e-16
1666092141349104547,0.0,0.0,0.0,0.0,0.0,-4.996003610813204e-16
1666092141497521405,0.0,0.0,0.0,0.0,0.0,-4.996003610813204e-16
1666092141530612350,0.0,0.0,0.0,0.0,0.0,-4.996003610813204e-16
1666092141592944457,0.0,0.0,0.0,0.0,0.0,0.17453292519943245
