%time,field.linear.x,field.linear.y,field.linear.z,field.angular.x,field.angular.y,field.angular.z
1666092081314203569,0.015,0.0,0.0,0.0,0.0,-0.0314338981678556
1666092081363536523,0.03,0.0,0.0,0.0,0.0,-0.0628677963357112
1666092081414670721,0.045,0.0,0.0,0.0,0.0,-0.09507511042692243
1666092081463871056,0.06,0.0,0.0,0.0,0.0,-0.12728242451813365
1666092081513578925,0.075,0.0,0.0,0.0,0.0,-0.16097360744639141
1666092081563665230,0.09,0.0,0.0,0.0,0.0,-0.19466479037464918
1666092081614082303,0.105,0.0,0.0,0.0,0.0,-0.22945484210367695
1666092081665205546,0.12,0.0,0.0,0.0,0.0,-0.2643027847862949
1666092081713578011,0.135,0.0,0.0,0.0,0.0,-0.3057412713487205
1666092081763532782,0.15000000000000002,0.0,0.0,0.0,0.0,-0.3471797579111461
1666092081813808042,0.16500000000000004,0.0,0.0,0.0,0.0,-0.38393311884179465
1666092081863857540,0.18000000000000005,0.0,0.0,0.0,0.0,-0.4207783909478735
1666092081915132246,0.19500000000000006,0.0,0.0,0.0,0.0,-0.45762366305395236
1666092081963616096,0.21000000000000008,0.0,0.0,0.0,0.0,-0.4940410014849481
1666092082013515067,0.2250000000000001,0.0,0.0,0.0,0.0,-0.5326546858547022
1666092082063584116,0.2400000000000001,0.0,0.0,0.0,0.0,-0.5712683702244563
1666092082114070459,0.2550000000000001,0.0,0.0,0.0,0.0,-0.6098820545942104
1666092082164624984,0.27000000000000013,0.0,0.0,0.0,0.0,-0.649509484978384
1666092082214615012,0.28500000000000014,0.0,0.0,0.0,0.0,-0.6900078082977684
1666092082263926270,0.30000000000000016,0.0,0.0,0.0,0.0,-0.7306087045471352
1666092082313565055,0.31500000000000017,0.0,0.0,0.0,0.0,-0.8192298904359806
1666092082363675600,0.3300000000000002,0.0,0.0,0.0,0.0,-0.8571169296435774
1666092082413536196,0.3450000000000002,0.0,0.0,0.0,0.0,-0.8950039688511743
1666092082464410489,0.347117071587958,0.0,0.0,0.0,0.0,-0.9950039688511743
1666092082513721458,0.3482220470905304,0.0,0.0,0.0,0.0,-1.0471975511965983
1666092082563675299,0.3632220470905304,0.0,0.0,0.0,0.0,-1.0471975511965983
1666092082613639654,0.3782220470905304,0.0,0.0,0.0,0.0,-1.0471975511965983
1666092082664136125,0.39322204709053044,0.0,0.0,0.0,0.0,-1.0471975511965983
1666092082713575313,0.40822204709053045,0.0,0.0,0.0,0.0,-1.0471975511965983
1666092082764091655,0.42322204709053046,0.0,0.0,0.0,0.0,-1.0471975511965983
1666092082813737865,0.4382220470905305,0.0,0.0,0.0,0.0,-1.0471975511965983
1666092082863880337,0.4532220470905305,0.0,0.0,0.0,0.0,-1.0471975511965983
1666092082913496521,0.3600459396839142,0.0,0.0,0.0,0.0,-0.8726646259971653
1666092082964020166,0.3750459396839142,0.0,0.0,0.0,0.0,-0.8726646259971653
1666092083013496037,0.3900459396839142,0.0,0.0,0.0,0.0,-0.8726646259971653
1666092083063957579,0.4050459396839142,0.0,0.0,0.0,0.0,-0.8726646259971653
1666092083113603104,0.42004593968391424,0.0,0.0,0.0,0.0,-0.8726646259971653
1666092083165093382,0.43504593968391425,0.0,0.0,0.0,0.0,-0.8726646259971653
1666092083213587408,0.4340123236179352,0.0,0.0,0.0,0.0,-0.16979707777500153
1666092083264020695,0.4340123236179352,0.0,0.0,0.0,0.0,-0.16979707777500153
1666092083313694865,0.4225554168224334,0.0,0.0,0.0,0.0,-0.15536993741989136
1666092083364039313,0.4225554168224334,0.0,0.0,0.0,0.0,-0.15536993741989136
1666092083413655353,0.4225554168224334,0.0,0.0,0.0,0.0,-0.15536993741989136
1666092083463522405,0.3479897379875183,0.0,0.0,0.0,0.0,-0.016691256314516068
1666092083514707443,0.22968842793128313,0.0,0.0,0.0,0.0,-0.11669125631451607
1666092083563469419,0.07968842793128311,0.0,0.0,0.0,0.0,-0.21257393770974933
1666092083613590063,0.0,0.0,0.0,0.0,0.0,-0.22443146922596569
1666092083663512915,0.0,0.0,0.0,0.0,0.0,-0.22443146922596569
1666092083714220525,0.0,0.0,0.0,0.0,0.0,-0.22443146922596569
1666092083763766736,0.0,0.0,0.0,0.0,0.0,-0.17453292519943345
1666092083813515253,0.0,0.0,0.0,0.0,0.0,-0.17453292519943345
1666092083863931668,0.0,0.0,0.0,0.0,0.0,-0.17453292519943345
1666092083913623467,0.0,0.0,0.0,0.0,0.0,-0.17453292519943345
1666092083963859837,0.0,0.0,0.0,0.0,0.0,-4.996003610813204e-16
1666092084013774797,0.0,0.0,0.0,0.0,0.0,-4.996003610813204e-16
1666092084064402085,0.0,0.0,0.0,0.0,0.0,-4.996003610813204e-16
1666092084114064122,0.0,0.0,0.0,0.0,0.0,-4.996003610813204e-16
1666092084163571599,0.0,0.0,0.0,0.0,0.0,-4.996003610813204e-16
1666092084213749064,0.0,0.0,0.0,0.0,0.0,-4.996003610813204e-16
1666092084263858742,0.0,0.0,0.0,0.0,0.0,-4.996003610813204e-16
1666092084313933592,0.0,0.0,0.0,0.0,0.0,-4.996003610813204e-16
1666092084363623241,0.0,0.0,0.0,0.0,0.0,-4.996003610813204e-16
1666092084414085761,0.0,0.0,0.0,0.0,0.0,-4.996003610813204e-16
1666092084463755588,0.0,0.0,0.0,0.0,0.0,-0.1000000000000005
1666092084513589465,0.0,0.0,0.0,0.0,0.0,-0.17453292519943345
1666092084563591353,0.0,0.0,0.0,0.0,0.0,-0.17453292519943345
1666092084613809136,0.0,0.0,0.0,0.0,0.0,-0.17453292519943345
1666092084663625065,0.0,0.0,0.0,0.0,0.0,-0.17453292519943345
1666092084715124556,0.0,0.0,0.0,0.0,0.0,-0.21303434346962474
1666092084763602914,0.0,0.0,0.0,0.0,0.0,-0.21303434346962474
1666092084813658171,0.0,0.0,0.0,0.0,0.0,-0.22782707018589007
1666092084863640351,0.0,0.0,0.0,0.0,0.0,-0.22782707018589007
1666092084913452816,0.0,0.0,0.0,0.0,0.0,-0.26043842343038437
1666092084963615368,0.0,0.0,0.0,0.0,0.0,-0.2736017254211424
1666092085013638648,0.0,0.0,0.0,0.0,0.0,-0.28395019686356393
1666092085063644094,0.0,0.0,0.0,0.0,0.0,-0.33208977281272545
1666092085113625671,0.0,0.0,0.0,0.0,0.0,-0.3515970119608183
1666092085163467105,0.0,0.0,0.0,0.0,0.0,-0.3515970119608183
1666092085213822566,0.0,0.0,0.0,0.0,0.0,-0.3515970119608183
1666092085264215816,0.0,0.0,0.0,0.0,0.0,-0.3868094256409763
1666092085313692655,0.0,0.0,0.0,0.0,0.0,-0.4053585781497121
1666092085363824468,0.0,0.0,0.0,0.0,0.0,-0.45322056387308157
1666092085413559724,0.0,0.0,0.0,0.0,0.0,-0.4881220578669934
1666092085463540631,0.0,0.0,0.0,0.0,0.0,-0.4881220578669934
1666092085513752188,0.0,0.0,0.0,0.0,0.0,-0.5678988132964499
1666092085563618508,0.0,0.0,0.0,0.0,0.0,-0.5678988132964499
1666092085613738697,0.0,0.0,0.0,0.0,0.0,-0.5984525106546098
1666092085664064519,0.0,0.0,0.0,0.0,0.0,-0.5984525106546098
1666092085713862054,0.0,0.0,0.0,0.0,0.0,-0.6311941841494029
1666092085763545384,0.0,0.0,0.0,0.0,0.0,-0.6298159779349232
1666092085813663231,0.0,0.0,0.0,0.0,0.0,-0.6298159779349232
1666092085863610815,0.0,0.0,0.0,0.0,0.0,-0.6743862285110548
1666092085913505377,0.0,0.0,0.0,0.0,0.0,-0.6981317007977323
1666092085965262312,0.0,0.0,0.0,0.0,0.0,-0.6981317007977323
1666092086014091976,0.0,0.0,0.0,0.0,0.0,-0.6981317007977323
1666092086063486078,0.0,0.0,0.0,0.0,0.0,-0.700379173588808
1666092086113501102,0.015,0.0,0.0,0.0,0.0,-0.7067794193611725
1666092086163806756,0.03,0.0,0.0,0.0,0.0,-0.6879961490917424
1666092086213563360,0.045,0.0,0.0,0.0,0.0,-0.6692128788223124
1666092086264259993,0.06,0.0,0.0,0.0,0.0,-0.6391346318002769
1666092086313634695,0.075,0.0,0.0,0.0,0.0,-0.6090563847782413
1666092086363554350,0.09,0.0,0.0,0.0,0.0,-0.5789781377562058
1666092086414015953,0.105,0.0,0.0,0.0,0.0,-0.564512896579658
1666092086463544434,0.12,0.0,0.0,0.0,0.0,-0.5506060895579422
1666092086513771337,0.135,0.0,0.0,0.0,0.0,-0.5372355777974633
1666092086564082761,0.15000000000000002,0.0,0.0,0.0,0.0,-0.5238650660369845
1666092086613522205,0.16500000000000004,0.0,0.0,0.0,0.0,-0.5110737375475499
1666092086663551968,0.18000000000000005,0.0,0.0,0.0,0.0,-0.4982824090581154
1666092086714129889,0.19500000000000006,0.0,0.0,0.0,0.0,-0.48591867794902865
1666092086763702333,0.21000000000000008,0.0,0.0,0.0,0.0,-0.47392821589658607
1666092086813505796,0.2250000000000001,0.0,0.0,0.0,0.0,-0.4619377538441435
1666092086864547985,0.2400000000000001,0.0,0.0,0.0,0.0,-0.45041111146563784
1666092086913661718,0.2550000000000001,0.0,0.0,0.0,0.0,-0.4388844690871322
1666092086963792373,0.27000000000000013,0.0,0.0,0.0,0.0,-0.4278696270446476
1666092087013564991,0.28500000000000014,0.0,0.0,0.0,0.0,-0.416854785002163
1666092087064194499,0.30000000000000016,0.0,0.0,0.0,0.0,-0.40583994295967846
1666092087113630058,0.31500000000000017,0.0,0.0,0.0,0.0,-0.39550692311174107
1666092087163693924,0.3300000000000002,0.0,0.0,0.0,0.0,-0.3860074801619987
1666092087213941859,0.3450000000000002,0.0,0.0,0.0,0.0,-0.37785090455818443
1666092087263567864,0.3600000000000002,0.0,0.0,0.0,0.0,-0.3698345194339173
1666092087313454251,0.3750000000000002,0.0,0.0,0.0,0.0,-0.3688963087722032
1666092087363872218,0.39000000000000024,0.0,0.0,0.0,0.0,-0.3679580981104891
1666092087413833834,0.40500000000000025,0.0,0.0,0.0,0.0,-0.36701988744877495
1666092087464116313,0.42000000000000026,0.0,0.0,0.0,0.0,-0.3661502398780727
1666092087513553765,0.4350000000000003,0.0,0.0,0.0,0.0,-0.3652805923073705
1666092087564253023,0.4500000000000003,0.0,0.0,0.0,0.0,-0.36441094473666824
1666092087613644398,0.4650000000000003,0.0,0.0,0.0,0.0,-0.3636004398142487
1666092087663715249,0.4800000000000003,0.0,0.0,0.0,0.0,-0.3628031774705613
1666092087713512260,0.49500000000000033,0.0,0.0,0.0,0.0,-0.36200591512687386
1666092087763756745,0.5100000000000003,0.0,0.0,0.0,0.0,-0.3609410990295139
1666092087813535200,0.5250000000000004,0.0,0.0,0.0,0.0,-0.3598762829321539
1666092087863662004,0.5400000000000004,0.0,0.0,0.0,0.0,-0.3588114668347939
1666092087914125776,0.5550000000000004,0.0,0.0,0.0,0.0,-0.3579412790009555
1666092087964101586,0.5700000000000004,0.0,0.0,0.0,0.0,-0.3570710911671171
1666092088014239809,0.5850000000000004,0.0,0.0,0.0,0.0,-0.3138591841641998
1666092088064030827,0.6000000000000004,0.0,0.0,0.0,0.0,-0.27064727716128245
1666092088114135568,0.6150000000000004,0.0,0.0,0.0,0.0,-0.25567209332349594
1666092088163708405,0.6300000000000004,0.0,0.0,0.0,0.0,-0.21534405267442197
1666092088213563973,0.6340070962905883,0.0,0.0,0.0,0.0,-0.20457082986831665
1666092088263957358,0.6211951971054077,0.0,0.0,0.0,0.0,-0.20913822948932648
1666092088313744615,0.6211951971054077,0.0,0.0,0.0,0.0,-0.20913822948932648
1666092088363971891,0.6211951971054077,0.0,0.0,0.0,0.0,-0.20913822948932648
1666092088413968238,0.6009232401847839,0.0,0.0,0.0,0.0,-0.21146896481513977
1666092088463563160,0.5717390775680542,0.0,0.0,0.0,0.0,-0.21879056096076965
1666092088513511691,0.5717390775680542,0.0,0.0,0.0,0.0,-0.21879056096076965
1666092088566592791,0.5565180684996733,0.0,0.0,0.0,0.0,-0.31879056096076963
1666092088613598699,0.5528338551521301,0.0,0.0,0.0,0.0,-0.3490658503988664
1666092088663855671,0.5528338551521301,0.0,0.0,0.0,0.0,-0.3490658503988664
1666092088713525378,0.5445996522963296,0.0,0.0,0.0,0.0,-0.4490658503988664
1666092088763755667,0.5384624600410461,0.0,0.0,0.0,0.0,-0.5235987755982994
1666092088813590634,0.5292589508891832,0.0,0.0,0.0,0.0,-0.6235987755982993
1666092088863687975,0.5200554417373202,0.0,0.0,0.0,0.0,-0.7235987755982993
1666092088913542728,0.5056315927272848,0.0,0.0,0.0,0.0,-0.8235987755982993
1666092088963714201,0.3920081853866577,0.0,0.0,0.0,0.0,-0.8726646259971653
1666092089013530452,0.3920081853866577,0.0,0.0,0.0,0.0,-0.8726646259971653
1666092089064577936,0.40700818538665773,0.0,0.0,0.0,0.0,-0.8726646259971653
1666092089113555046,0.42200818538665774,0.0,0.0,0.0,0.0,-0.8726646259971653
1666092089163960150,0.43700818538665775,0.0,0.0,0.0,0.0,-0.9104423982511725
1666092089213477462,0.45200818538665777,0.0,0.0,0.0,0.0,-0.9482201705051796
1666092089263734790,0.4670081853866578,0.0,0.0,0.0,0.0,-0.9841970058162611
1666092089313934569,0.4820081853866578,0.0,0.0,0.0,0.0,-1.0201738411273427
1666092089363736851,0.4923768937587738,0.0,0.0,0.0,0.0,-0.8726646259971653
1666092089413530559,0.4923768937587738,0.0,0.0,0.0,0.0,-0.8726646259971653
1666092089463696743,0.4923768937587738,0.0,0.0,0.0,0.0,-0.8726646259971653
1666092089513820697,0.4936073124408722,0.0,0.0,0.0,0.0,-0.8726646259971653
1666092089563603221,0.4936073124408722,0.0,0.0,0.0,0.0,-0.8726646259971653
1666092089613608281,0.40411096811294556,0.0,0.0,0.0,0.0,-0.8726646259971653
1666092089663623847,0.40411096811294556,0.0,0.0,0.0,0.0,-0.8726646259971653
1666092089713466482,0.40411096811294556,0.0,0.0,0.0,0.0,-0.8726646259971653
1666092089763817550,0.40411096811294556,0.0,0.0,0.0,0.0,-0.8726646259971653
1666092089813879105,0.41911096811294557,0.0,0.0,0.0,0.0,-0.8449880464083313
1666092089863602276,0.4341109681129456,0.0,0.0,0.0,0.0,-0.8173114668194972
1666092089913918458,0.4188766777515411,0.0,0.0,0.0,0.0,-0.5235987755982994
1666092089964292390,0.4338766777515411,0.0,0.0,0.0,0.0,-0.5235987755982994
1666092090013607015,0.4488766777515411,0.0,0.0,0.0,0.0,-0.5235987755982994
1666092090063664707,0.4638766777515411,0.0,0.0,0.0,0.0,-0.5235987755982994
1666092090114026900,0.47887667775154114,0.0,0.0,0.0,0.0,-0.5235987755982994
1666092090164341882,0.48502185940742487,0.0,0.0,0.0,0.0,-0.3490658503988664
1666092090214024521,0.44721195101737976,0.0,0.0,0.0,0.0,-0.3490658503988664
1666092090264351661,0.44721195101737976,0.0,0.0,0.0,0.0,-0.3490658503988664
1666092090313844433,0.4622119510173798,0.0,0.0,0.0,0.0,-0.19646551694367462
1666092090364008687,0.4641546308994293,0.0,0.0,0.0,0.0,-0.17453292519943345
1666092090413604612,0.4641546308994293,0.0,0.0,0.0,0.0,-0.17453292519943345
1666092090463778615,0.47915463089942933,0.0,0.0,0.0,0.0,-0.07600436652292542
1666092090513827572,0.479377418756485,0.0,0.0,0.0,0.0,-0.06972116976976395
1666092090563695439,0.4748225808143616,0.0,0.0,0.0,0.0,-0.06002941355109215
1666092090615695048,0.4748225808143616,0.0,0.0,0.0,0.0,-0.06002941355109215
1666092090663447167,0.46274417638778687,0.0,0.0,0.0,0.0,-0.04671918973326683
1666092090713784021,0.45255520939826965,0.0,0.0,0.0,0.0,-0.04157017171382904
1666092090764093604,0.45255520939826965,0.0,0.0,0.0,0.0,-0.04157017171382904
1666092090813707447,0.4552847250457474,0.0,0.0,0.0,0.0,0.058429828286170965
1666092090863797982,0.43055000901222223,0.0,0.0,0.0,0.0,-0.03409131243824959
1666092090914688698,0.43055000901222223,0.0,0.0,0.0,0.0,-0.03409131243824959
1666092090963797944,0.4254409372806549,0.0,0.0,0.0,0.0,-0.03102824278175831
1666092091013500353,0.4254409372806549,0.0,0.0,0.0,0.0,-0.03102824278175831
1666092091063678854,0.42243868112564087,0.0,0.0,0.0,0.0,-0.02868122048676014
1666092091114375718,0.42243868112564087,0.0,0.0,0.0,0.0,-0.02868122048676014
1666092091163790238,0.414369523525238,0.0,0.0,0.0,0.0,-0.02639823779463768
1666092091213578957,0.41865655152349224,0.0,0.0,0.0,0.0,0.07360176220536233
1666092091263809895,0.419658213853836,0.0,0.0,0.0,0.0,0.09696672111749649
1666092091313459508,0.3817320205423852,0.0,0.0,0.0,0.0,-0.003033278882503515
1666092091363974377,0.373299092054367,0.0,0.0,0.0,0.0,-0.025364957749843597
1666092091413782905,0.373299092054367,0.0,0.0,0.0,0.0,-0.025364957749843597
1666092091464216408,0.223299092054367,0.0,0.0,0.0,0.0,0.05495852302097076
1666092091514008962,0.07329909205436697,0.0,0.0,0.0,0.0,0.13528200379178515
1666092091563806288,0.0,0.0,0.0,0.0,0.0,0.17453292519943245
1666092091614266793,0.0,0.0,0.0,0.0,0.0,0.17453292519943245
1666092091663921784,0.0,0.0,0.0,0.0,0.0,0.17453292519943245
1666092091713905240,0.0,0.0,0.0,0.0,0.0,0.17453292519943245
1666092091764030241,0.0,0.0,0.0,0.0,0.0,0.17453292519943245
1666092091813651944,0.0,0.0,0.0,0.0,0.0,0.17453292519943245
1666092091863769944,0.0,0.0,0.0,0.0,0.0,0.17453292519943245
1666092091913547663,0.0,0.0,0.0,0.0,0.0,0.17453292519943245
1666092091963742157,0.0,0.0,0.0,0.0,0.0,0.17453292519943245
1666092092014007178,0.0,0.0,0.0,0.0,0.0,0.17453292519943245
1666092092063649270,0.0,0.0,0.0,0.0,0.0,0.17453292519943245
1666092092113585651,0.0,0.0,0.0,0.0,0.0,0.17453292519943245
1666092092164616716,0.0,0.0,0.0,0.0,0.0,0.17453292519943245
1666092092213560053,0.0,0.0,0.0,0.0,0.0,0.17453292519943245
1666092092263940447,0.0,0.0,0.0,0.0,0.0,0.17453292519943245
1666092092313496733,0.0,0.0,0.0,0.0,0.0,0.17453292519943245
1666092092364102654,0.0,0.0,0.0,0.0,0.0,0.17453292519943245
1666092092414314567,0.015,0.0,0.0,0.0,0.0,0.1668264123714497
1666092092463868916,0.03,0.0,0.0,0.0,0.0,0.16471774522504115
1666092092513544750,0.045,0.0,0.0,0.0,0.0,0.16282161142408003
1666092092563882256,0.06,0.0,0.0,0.0,0.0,0.15634872351039486
1666092092613458573,0.075,0.0,0.0,0.0,0.0,0.1498758355967097
1666092092663704634,0.09,0.0,0.0,0.0,0.0,0.14340294768302453
1666092092714267626,0.105,0.0,0.0,0.0,0.0,0.13693005976933936
1666092092763881297,0.12,0.0,0.0,0.0,0.0,0.13106751874782732
1666092092813534986,0.135,0.0,0.0,0.0,0.0,0.12630911575094642
1666092092863744369,0.15000000000000002,0.0,0.0,0.0,0.0,0.12155071275406551
1666092092913792633,0.16500000000000004,0.0,0.0,0.0,0.0,0.11732100650440114
1666092092963778680,0.18000000000000005,0.0,0.0,0.0,0.0,0.11309130025473677
1666092093013925421,0.19500000000000006,0.0,0.0,0.0,0.0,0.11596055401079833
1666092093063726429,0.21000000000000008,0.0,0.0,0.0,0.0,0.11883715254651644
1666092093113527129,0.2250000000000001,0.0,0.0,0.0,0.0,0.12161154796063899
1666092093163611944,0.2400000000000001,0.0,0.0,0.0,0.0,0.12438594337476153
1666092093213745951,0.2550000000000001,0.0,0.0,0.0,0.0,0.1271237138291841
1666092093264035719,0.27000000000000013,0.0,0.0,0.0,0.0,0.1298614842836067
1666092093313512300,0.28500000000000014,0.0,0.0,0.0,0.0,0.13099205260216953
1666092093363575769,0.30000000000000016,0.0,0.0,0.0,0.0,0.13212262092073238
1666092093413712679,0.31500000000000017,0.0,0.0,0.0,0.0,0.1268763844277759
1666092093463663790,0.3300000000000002,0.0,0.0,0.0,0.0,0.12160920430063518
1666092093513547350,0.3450000000000002,0.0,0.0,0.0,0.0,0.11634202417349446
1666092093564397850,0.3600000000000002,0.0,0.0,0.0,0.0,0.1109704642422237
1666092093613862547,0.3750000000000002,0.0,0.0,0.0,0.0,0.10559890431095295
1666092093663719810,0.39000000000000024,0.0,0.0,0.0,0.0,0.10066289854430178
1666092093713467809,0.40500000000000025,0.0,0.0,0.0,0.0,0.1066252755049121
1666092093764156379,0.42000000000000026,0.0,0.0,0.0,0.0,0.10075701725176346
1666092093814038226,0.4350000000000003,0.0,0.0,0.0,0.0,0.09488875899861482
1666092093863804579,0.4500000000000003,0.0,0.0,0.0,0.0,0.09027834327757739
1666092093913834585,0.4650000000000003,0.0,0.0,0.0,0.0,0.08561052865882594
1666092093963623065,0.4800000000000003,0.0,0.0,0.0,0.0,0.0809427140400745
1666092094014156899,0.4943229854106903,0.0,0.0,0.0,0.0,0.08677060902118683
1666092094063807113,0.4943229854106903,0.0,0.0,0.0,0.0,0.08677060902118683
1666092094113803165,0.4943229854106903,0.0,0.0,0.0,0.0,0.08677060902118683
1666092094164156118,0.4927308261394501,0.0,0.0,0.0,0.0,0.09397081285715103
1666092094213813099,0.4927308261394501,0.0,0.0,0.0,0.0,0.09397081285715103
1666092094263666714,0.4853901267051697,0.0,0.0,0.0,0.0,0.09955491125583649
1666092094314202823,0.4853901267051697,0.0,0.0,0.0,0.0,0.09955491125583649
1666092094363776353,0.4645896255970001,0.0,0.0,0.0,0.0,0.10886075347661972
1666092094414583479,0.45164793729782104,0.0,0.0,0.0,0.0,0.11322001367807388
1666092094463663936,0.45164793729782104,0.0,0.0,0.0,0.0,0.11322001367807388
1666092094514138472,0.43704482913017273,0.0,0.0,0.0,0.0,0.17453292519943245
1666092094564385891,0.43704482913017273,0.0,0.0,0.0,0.0,0.17453292519943245
1666092094614073895,0.43704482913017273,0.0,0.0,0.0,0.0,0.17453292519943245
1666092094663762069,0.4153755009174347,0.0,0.0,0.0,0.0,0.17453292519943245
1666092094713648213,0.37789505720138544,0.0,0.0,0.0,0.0,0.17453292519943245
1666092094763907686,0.37789505720138544,0.0,0.0,0.0,0.0,0.17453292519943245
1666092094813526712,0.3685409765292696,0.0,0.0,0.0,0.0,0.27453292519943245
1666092094864227630,0.3555903136730194,0.0,0.0,0.0,0.0,0.3490658503988654
1666092094913515892,0.3555903136730194,0.0,0.0,0.0,0.0,0.3490658503988654
1666092094963796748,0.3705903136730194,0.0,0.0,0.0,0.0,0.3740644054862745
1666092095013505903,0.38559031367301944,0.0,0.0,0.0,0.0,0.3990629605736836
1666092095064066784,0.34265613555908203,0.0,0.0,0.0,0.0,0.3490658503988654
1666092095113669848,0.34265613555908203,0.0,0.0,0.0,0.0,0.3490658503988654
1666092095165031842,0.35765613555908204,0.0,0.0,0.0,0.0,0.37436260209197586
1666092095213584134,0.37265613555908206,0.0,0.0,0.0,0.0,0.399417861720614
1666092095263759323,0.3636939352595397,0.0,0.0,0.0,0.0,0.499417861720614
1666092095313513095,0.3547317349599973,0.0,0.0,0.0,0.0,0.599417861720614
1666092095365428064,0.36973173495999734,0.0,0.0,0.0,0.0,0.6736293795974997
1666092095413665429,0.38473173495999735,0.0,0.0,0.0,0.0,0.7478408974743853
1666092095463936442,0.34090159638463485,0.0,0.0,0.0,0.0,0.8478408974743853
1666092095513841587,0.33316662907600403,0.0,0.0,0.0,0.0,0.8726646259971643
1666092095563623454,0.33316662907600403,0.0,0.0,0.0,0.0,0.8726646259971643
1666092095613564249,0.34816662907600404,0.0,0.0,0.0,0.0,0.8726646259971643
1666092095663560495,0.358076274394989,0.0,0.0,0.0,0.0,0.8726646259971643
1666092095713597638,0.358076274394989,0.0,0.0,0.0,0.0,0.8726646259971643
1666092095763804742,0.36527529358863825,0.0,0.0,0.0,0.0,0.8726646259971643
1666092095813453626,0.38027529358863826,0.0,0.0,0.0,0.0,0.8726646259971643
1666092095863528502,0.3804822266101837,0.0,0.0,0.0,0.0,0.8726646259971643
1666092095913591677,0.3804822266101837,0.0,0.0,0.0,0.0,0.8726646259971643
1666092095963733431,0.39548222661018373,0.0,0.0,0.0,0.0,0.8726646259971643
1666092096013582430,0.41048222661018374,0.0,0.0,0.0,0.0,0.7754462651730994
1666092096063750770,0.4224112331867218,0.0,0.0,0.0,0.0,0.6981317007977313
1666092096113541398,0.4358968138694763,0.0,0.0,0.0,0.0,0.6981317007977313
1666092096163680158,0.4358968138694763,0.0,0.0,0.0,0.0,0.6981317007977313
1666092096213562071,0.4358968138694763,0.0,0.0,0.0,0.0,0.6981317007977313
1666092096263542377,0.45089681386947633,0.0,0.0,0.0,0.0,0.2325016616504768
1666092096313553739,0.45276424288749695,0.0,0.0,0.0,0.0,0.17453292519943245
1666092096363589801,0.46776424288749696,0.0,0.0,0.0,0.0,0.09344685575066347
1666092096413611808,0.4736002683639526,0.0,0.0,0.0,0.0,0.06189883127808571
1666092096463872813,0.4886002683639526,0.0,0.0,0.0,0.0,0.12207603441833222
1666092096513982072,0.5036002683639526,0.0,0.0,0.0,0.0,0.1835663990461936
1666092096563897411,0.5186002683639526,0.0,0.0,0.0,0.0,0.2450567636740549
1666092096614100388,0.5145973798862603,0.0,0.0,0.0,0.0,0.3450567636740549
1666092096663521624,0.5295973798862603,0.0,0.0,0.0,0.0,0.34777919863832973
1666092096713650232,0.5366865396499634,0.0,0.0,0.0,0.0,0.3490658503988654
1666092096763846281,0.5366865396499634,0.0,0.0,0.0,0.0,0.3490658503988654
1666092096814383243,0.5474034547805786,0.0,0.0,0.0,0.0,0.3490658503988654
1666092096863696811,0.5471912622451782,0.0,0.0,0.0,0.0,0.17453292519943245
1666092096913476547,0.5440704226493835,0.0,0.0,0.0,0.0,0.17453292519943245
1666092096964460457,0.5349224209785461,0.0,0.0,0.0,0.0,0.17453292519943245
1666092097013750532,0.5349224209785461,0.0,0.0,0.0,0.0,0.17453292519943245
1666092097064488064,0.5251003503799438,0.0,0.0,0.0,0.0,0.17453292519943245
1666092097113507596,0.5251003503799438,0.0,0.0,0.0,0.0,0.17453292519943245
1666092097164485809,0.5251003503799438,0.0,0.0,0.0,0.0,0.17453292519943245
1666092097213751539,0.5082130150155999,0.0,0.0,0.0,0.0,0.07453292519943244
1666092097263622780,0.4956263899803161,0.0,0.0,0.0,0.0,-4.996003610813204e-16
1666092097313700328,0.4978290796279907,0.0,0.0,0.0,0.0,-4.996003610813204e-16
1666092097363520431,0.4978290796279907,0.0,0.0,0.0,0.0,-4.996003610813204e-16
1666092097413757763,0.4978290796279907,0.0,0.0,0.0,0.0,-4.996003610813204e-16
1666092097464056093,0.48770394921302795,0.0,0.0,0.0,0.0,-0.06403182446956635
1666092097513498759,0.48770394921302795,0.0,0.0,0.0,0.0,-0.06403182446956635
1666092097563567453,0.4649283587932586,0.0,0.0,0.0,0.0,-0.07284548133611679
1666092097613488436,0.4649283587932586,0.0,0.0,0.0,0.0,-0.07284548133611679
1666092097663478696,0.4649283587932586,0.0,0.0,0.0,0.0,-0.07284548133611679
1666092097713531965,0.4429953396320343,0.0,0.0,0.0,0.0,-0.07676632702350616
1666092097763622156,0.4429953396320343,0.0,0.0,0.0,0.0,-0.07676632702350616
1666092097813578307,0.4045877456665039,0.0,0.0,0.0,0.0,-0.08373117446899414
1666092097864117568,0.40465879440307617,0.0,0.0,0.0,0.0,-0.08378352969884872
1666092097913715976,0.25465879440307615,0.0,0.0,0.0,0.0,-0.05272642769426741
1666092097963830734,0.10465879440307613,0.0,0.0,0.0,0.0,-0.021669325689686093
1666092098013971528,0.0,0.0,0.0,0.0,0.0,-4.996003610813204e-16
1666092098063529114,0.0,0.0,0.0,0.0,0.0,-4.996003610813204e-16
1666092098114081477,0.0,0.0,0.0,0.0,0.0,-4.996003610813204e-16
1666092098163512816,0.0,0.0,0.0,0.0,0.0,-0.1000000000000005
1666092098214327851,0.0,0.0,0.0,0.0,0.0,-0.17453292519943345
1666092098263910396,0.0,0.0,0.0,0.0,0.0,-0.17453292519943345
1666092098313813786,0.0,0.0,0.0,0.0,0.0,-0.17453292519943345
1666092098363645684,0.0,0.0,0.0,0.0,0.0,-0.17453292519943345
1666092098413620931,0.0,0.0,0.0,0.0,0.0,-0.17453292519943345
1666092098463749980,0.0,0.0,0.0,0.0,0.0,-0.17453292519943345
1666092098514062300,0.0,0.0,0.0,0.0,0.0,-0.17453292519943345
1666092098563719119,0.0,0.0,0.0,0.0,0.0,-0.17453292519943345
1666092098613633235,0.015,0.0,0.0,0.0,0.0,-0.1719870940269553
1666092098663671919,0.03,0.0,0.0,0.0,0.0,-0.16944126285447716
1666092098715169347,0.045,0.0,0.0,0.0,0.0,-0.16689543168199902
1666092098763645082,0.06,0.0,0.0,0.0,0.0,-0.1649449386505932
1666092098813553593,0.075,0.0,0.0,0.0,0.0,-0.16299444561918738
1666092098863671391,0.09,0.0,0.0,0.0,0.0,-0.16126190228666915
1666092098914082622,0.105,0.0,0.0,0.0,0.0,-0.1595293589541509
1666092098963532426,0.12,0.0,0.0,0.0,0.0,-0.15804338326382217
1666092099014046906,0.135,0.0,0.0,0.0,0.0,-0.1567435336391741
1666092099063737986,0.15000000000000002,0.0,0.0,0.0,0.0,-0.15561609889147565
1666092099114380656,0.16500000000000004,0.0,0.0,0.0,0.0,-0.1544886641437772
1666092099163708375,0.18000000000000005,0.0,0.0,0.0,0.0,-0.1536040094344897
1666092099213808288,0.19500000000000006,0.0,0.0,0.0,0.0,-0.14872588450339164
1666092099263600442,0.21000000000000008,0.0,0.0,0.0,0.0,-0.14384775957229357
1666092099313578705,0.2250000000000001,0.0,0.0,0.0,0.0,-0.13942488945878315
1666092099364081788,0.2400000000000001,0.0,0.0,0.0,0.0,-0.13500201934527273
1666092099413467308,0.2550000000000001,0.0,0.0,0.0,0.0,-0.13569691284685687
1666092099466860944,0.27000000000000013,0.0,0.0,0.0,0.0,-0.136391806348441
1666092099513772142,0.28500000000000014,0.0,0.0,0.0,0.0,-0.1328915585039718
1666092099563543097,0.30000000000000016,0.0,0.0,0.0,0.0,-0.1293913106595026
1666092099613731716,0.31500000000000017,0.0,0.0,0.0,0.0,-0.12620138238014464
1666092099663946969,0.3300000000000002,0.0,0.0,0.0,0.0,-0.12321875240888581
1666092099713568664,0.3450000000000002,0.0,0.0,0.0,0.0,-0.12529611753190986
1666092099763551347,0.3600000000000002,0.0,0.0,0.0,0.0,-0.12737348265493392
1666092099813664443,0.3750000000000002,0.0,0.0,0.0,0.0,-0.12945084777795796
1666092099863969071,0.39000000000000024,0.0,0.0,0.0,0.0,-0.13160419932173145
1666092099913480338,0.40500000000000025,0.0,0.0,0.0,0.0,-0.13375755086550495
1666092099963687579,0.42000000000000026,0.0,0.0,0.0,0.0,-0.1293790806139065
1666092100013491859,0.4350000000000003,0.0,0.0,0.0,0.0,-0.13314667752070908
1666092100063853830,0.4500000000000003,0.0,0.0,0.0,0.0,-0.1369142744275117
1666092100113556384,0.4650000000000003,0.0,0.0,0.0,0.0,-0.15249212747192067
1666092100163525631,0.4800000000000003,0.0,0.0,0.0,0.0,-0.16806998051632965
1666092100214749892,0.49500000000000033,0.0,0.0,0.0,0.0,-0.1683957462689372
1666092100263644226,0.5100000000000003,0.0,0.0,0.0,0.0,-0.16872398928499
1666092100313506136,0.5250000000000004,0.0,0.0,0.0,0.0,-0.1690522323010428
1666092100363980395,0.5400000000000004,0.0,0.0,0.0,0.0,-0.16935053131241623
1666092100413790944,0.5550000000000004,0.0,0.0,0.0,0.0,-0.16964883032378966
1666092100463796607,0.5700000000000004,0.0,0.0,0.0,0.0,-0.16981872421950675
1666092100513475270,0.5850000000000004,0.0,0.0,0.0,0.0,-0.16998861811522384
1666092100563624272,0.6000000000000004,0.0,0.0,0.0,0.0,-0.17077264937357525
1666092100614956071,0.6090744733810425,0.0,0.0,0.0,0.0,-0.1712469607591629
1666092100664116571,0.529157817363739,0.0,0.0,0.0,0.0,-0.0769495740532875
1666092100717138199,0.5290156602859497,0.0,0.0,0.0,0.0,-0.17453292519943345
1666092100763514212,0.5440156602859497,0.0,0.0,0.0,0.0,-0.1752012430596034
1666092100813479158,0.5031827688217163,0.0,0.0,0.0,0.0,-0.08135857433080673
1666092100864261216,0.48552519083023066,0.0,0.0,0.0,0.0,-0.08394050598144531
1666092100913510842,0.48552519083023066,0.0,0.0,0.0,0.0,-0.08394050598144531
1666092100963585619,0.48552519083023066,0.0,0.0,0.0,0.0,-0.08394050598144531
1666092101013658588,0.46384856104850763,0.0,0.0,0.0,0.0,-0.0855584517121315
1666092101063552831,0.46384856104850763,0.0,0.0,0.0,0.0,-0.0855584517121315
1666092101113675651,0.4780147601457848,0.0,0.0,0.0,0.0,-0.1855584517121315
1666092101164003425,0.4784441590309143,0.0,0.0,0.0,0.0,-0.18858960270881653
1666092101214091045,0.448036253452301,0.0,0.0,0.0,0.0,-0.19056285917758942
1666092101263608965,0.448036253452301,0.0,0.0,0.0,0.0,-0.19056285917758942
1666092101314197425,0.448036253452301,0.0,0.0,0.0,0.0,-0.19056285917758942
1666092101363499270,0.42203760147094727,0.0,0.0,0.0,0.0,-0.19034524261951447
1666092101413508196,0.2800954282283783,0.0,0.0,0.0,0.0,-0.08717355132102966
1666092101463640390,0.2800954282283783,0.0,0.0,0.0,0.0,-0.08717355132102966
1666092101513664769,0.23901466636518737,0.0,0.0,0.0,0.0,-0.18717355132102967
1666092101563443212,0.19793390450199644,0.0,0.0,0.0,0.0,-0.2871735513210297
1666092101613681986,0.16144242147261012,0.0,0.0,0.0,0.0,-0.3871735513210297
1666092101663569029,0.12495093844322383,0.0,0.0,0.0,0.0,-0.4871735513210297
1666092101713681369,0.08845945541383754,0.0,0.0,0.0,0.0,-0.5871735513210297
1666092101763675644,0.06482513666473973,0.0,0.0,0.0,0.0,-0.6871735513210296
1666092101814075562,0.04681935463711252,0.0,0.0,0.0,0.0,-0.7871735513210296
1666092101863483979,0.02881357260948532,0.0,0.0,0.0,0.0,-0.8871735513210296
1666092101913522939,0.010807790581858118,0.0,0.0,0.0,0.0,-0.9871735513210296
1666092101963656739,0.0,0.0,0.0,0.0,0.0,-1.0752163651747875
1666092102013528924,0.0,0.0,0.0,0.0,0.0,-1.116551185244009
1666092102063576639,0.0,0.0,0.0,0.0,0.0,-1.1194987635132927
1666092102113491826,0.0,0.0,0.0,0.0,0.0,-1.1194987635132927
1666092102164250452,0.0,0.0,0.0,0.0,0.0,-1.1257785348264209
1666092102213582938,0.0,0.0,0.0,0.0,0.0,-1.1257785348264209
1666092102263554429,0.0,0.0,0.0,0.0,0.0,-1.1170326405391453
1666092102313485632,0.0,0.0,0.0,0.0,0.0,-1.1170326405391453
1666092102364333728,0.0,0.0,0.0,0.0,0.0,-1.0616379314225777
1666092102413506377,0.0,0.0,0.0,0.0,0.0,-1.0616379314225777
1666092102463549365,0.0,0.0,0.0,0.0,0.0,-1.0616379314225777
1666092102513557147,0.0,0.0,0.0,0.0,0.0,-1.0616379314225777
1666092102563567653,0.015,0.0,0.0,0.0,0.0,-1.0289294772413964
1666092102613886370,0.03,0.0,0.0,0.0,0.0,-0.9962210230602151
1666092102663620134,0.045,0.0,0.0,0.0,0.0,-0.970483828126344
1666092102713524216,0.06,0.0,0.0,0.0,0.0,-0.944746633192473
1666092102763461703,0.075,0.0,0.0,0.0,0.0,-0.9088223510343434
1666092102813912396,0.09,0.0,0.0,0.0,0.0,-0.8882914807385491
1666092102863519945,0.105,0.0,0.0,0.0,0.0,-0.8694209898022988
1666092102913802539,0.12,0.0,0.0,0.0,0.0,-0.8504824692929545
1666092102963715510,0.135,0.0,0.0,0.0,0.0,-0.8315439487836102
1666092103014617793,0.15000000000000002,0.0,0.0,0.0,0.0,-0.8126054282742659
1666092103063618554,0.16500000000000004,0.0,0.0,0.0,0.0,-0.7955074422010653
1666092103113462104,0.18000000000000005,0.0,0.0,0.0,0.0,-0.7804279790532873
1666092103163577508,0.19500000000000006,0.0,0.0,0.0,0.0,-0.7653485159055093
1666092103213649892,0.21000000000000008,0.0,0.0,0.0,0.0,-0.7502690527577314
1666092103263737374,0.2250000000000001,0.0,0.0,0.0,0.0,-0.7357229977248853
1666092103314358570,0.2400000000000001,0.0,0.0,0.0,0.0,-0.7211769426920391
1666092103364282134,0.1,0.0,0.0,0.0,0.0,-0.5235987755982994
1666092103414136933,0.1,0.0,0.0,0.0,0.0,-0.5235987755982994
1666092103464100270,0.1,0.0,0.0,0.0,0.0,-0.3490658503988664
1666092103513656600,0.1,0.0,0.0,0.0,0.0,-0.3490658503988664
1666092103563596014,0.1,0.0,0.0,0.0,0.0,-0.3490658503988664
1666092103613530872,0.1,0.0,0.0,0.0,0.0,-0.3490658503988664
1666092103663486936,0.1,0.0,0.0,0.0,0.0,-0.17453292519943345
1666092103713606013,0.1,0.0,0.0,0.0,0.0,-0.17453292519943345
1666092103764345709,0.1,0.0,0.0,0.0,0.0,-0.17453292519943345
1666092103813666318,0.1,0.0,0.0,0.0,0.0,-0.018903404474258423
1666092103863486033,0.1,0.0,0.0,0.0,0.0,-0.018903404474258423
1666092103914039877,0.1,0.0,0.0,0.0,0.0,-0.018903404474258423
1666092103964427486,0.1,0.0,0.0,0.0,0.0,-4.996003610813204e-16
1666092104013915957,0.1,0.0,0.0,0.0,0.0,0.005371768958866596
1666092104063587096,0.1,0.0,0.0,0.0,0.0,0.0072357808239758015
1666092104113782623,0.1,0.0,0.0,0.0,0.0,0.10723578082397581
1666092104163461788,0.1,0.0,0.0,0.0,0.0,0.17453292519943245
1666092104213622840,0.1,0.0,0.0,0.0,0.0,0.17453292519943245
1666092104263819569,0.1,0.0,0.0,0.0,0.0,0.17453292519943245
1666092104313606251,0.1,0.0,0.0,0.0,0.0,0.17453292519943245
1666092104363617449,0.1,0.0,0.0,0.0,0.0,0.17453292519943245
1666092104414041644,0.1,0.0,0.0,0.0,0.0,0.27453292519943245
1666092104463545348,0.1,0.0,0.0,0.0,0.0,0.3490658503988654
1666092104513680693,0.1,0.0,0.0,0.0,0.0,0.3490658503988654
1666092104564388411,0.1,0.0,0.0,0.0,0.0,0.3490658503988654
1666092104613838867,0.1,0.0,0.0,0.0,0.0,0.3490658503988654
1666092104664477755,0.1,0.0,0.0,0.0,0.0,0.3490658503988654
1666092104715245815,0.1,0.0,0.0,0.0,0.0,0.3490658503988654
1666092104763416915,0.1,0.0,0.0,0.0,0.0,0.3490658503988654
1666092104814002822,0.1,0.0,0.0,0.0,0.0,0.3490658503988654
1666092104863528369,0.1,0.0,0.0,0.0,0.0,0.3490658503988654
1666092104914697200,0.1,0.0,0.0,0.0,0.0,0.3490658503988654
1666092104963529104,0.1,0.0,0.0,0.0,0.0,0.3490658503988654
1666092105013561491,0.1,0.0,0.0,0.0,0.0,0.3490658503988654
1666092105063619973,0.1,0.0,0.0,0.0,0.0,0.3490658503988654
1666092105114000617,0.1,0.0,0.0,0.0,0.0,0.3490658503988654
1666092105163873564,0.1,0.0,0.0,0.0,0.0,0.3490658503988654
1666092105213791332,0.1,0.0,0.0,0.0,0.0,0.3490658503988654
1666092105263418270,0.1,0.0,0.0,0.0,0.0,0.3490658503988654
1666092105314118453,0.1,0.0,0.0,0.0,0.0,0.3490658503988654
1666092105363643630,0.1,0.0,0.0,0.0,0.0,0.3490658503988654
1666092105413556777,0.1,0.0,0.0,0.0,0.0,0.3490658503988654
1666092105463725150,0.1,0.0,0.0,0.0,0.0,0.3490658503988654
1666092105518778585,0.1,0.0,0.0,0.0,0.0,0.3490658503988654
1666092105563586631,0.1,0.0,0.0,0.0,0.0,0.3490658503988654
1666092105614563834,0.1,0.0,0.0,0.0,0.0,0.3490658503988654
1666092105664163686,0.1,0.0,0.0,0.0,0.0,0.3490658503988654
1666092105713489695,0.1,0.0,0.0,0.0,0.0,0.3490658503988654
1666092105763597030,0.1,0.0,0.0,0.0,0.0,0.3490658503988654
1666092105813482771,0.1,0.0,0.0,0.0,0.0,0.3490658503988654
1666092105863687588,0.1,0.0,0.0,0.0,0.0,0.4490658503988654
1666092105916015823,0.1,0.0,0.0,0.0,0.0,0.5235987755982984
1666092105964069005,0.1,0.0,0.0,0.0,0.0,0.5235987755982984
1666092106014043289,0.1,0.0,0.0,0.0,0.0,0.5235987755982984
1666092106063673477,0.1,0.0,0.0,0.0,0.0,0.5235987755982984
1666092106113653676,0.1,0.0,0.0,0.0,0.0,0.5235987755982984
1666092106163717448,0.1,0.0,0.0,0.0,0.0,0.5235987755982984
1666092106213834447,0.1,0.0,0.0,0.0,0.0,0.5235987755982984
1666092106263809584,0.1,0.0,0.0,0.0,0.0,0.5235987755982984
1666092106314064448,0.1,0.0,0.0,0.0,0.0,0.5235987755982984
1666092106363546006,0.1,0.0,0.0,0.0,0.0,0.5235987755982984
1666092106413660083,0.1,0.0,0.0,0.0,0.0,0.5235987755982984
1666092106463797935,0.1,0.0,0.0,0.0,0.0,0.5235987755982984
1666092106513723467,0.1,0.0,0.0,0.0,0.0,0.5235987755982984
1666092106563594623,0.1,0.0,0.0,0.0,0.0,0.5235987755982984
1666092106614023741,0.1,0.0,0.0,0.0,0.0,0.5235987755982984
1666092106663564718,0.1,0.0,0.0,0.0,0.0,0.5235987755982984
1666092106713821492,0.1,0.0,0.0,0.0,0.0,0.5235987755982984
1666092106764257409,0.1,0.0,0.0,0.0,0.0,0.5235987755982984
1666092106814374632,0.1,0.0,0.0,0.0,0.0,0.5235987755982984
1666092106863940298,0.1,0.0,0.0,0.0,0.0,0.5235987755982984
1666092106913843819,0.1,0.0,0.0,0.0,0.0,0.5235987755982984
1666092106964100091,0.1,0.0,0.0,0.0,0.0,0.5235987755982984
1666092107014897696,0.1,0.0,0.0,0.0,0.0,0.5235987755982984
1666092107063475606,0.1,0.0,0.0,0.0,0.0,0.5235987755982984
1666092107116947575,0.1,0.0,0.0,0.0,0.0,0.5235987755982984
1666092107163673127,0.1,0.0,0.0,0.0,0.0,0.5235987755982984
1666092107214448365,0.1,0.0,0.0,0.0,0.0,0.5235987755982984
1666092107263962297,0.1,0.0,0.0,0.0,0.0,0.5235987755982984
1666092107313791178,0.1,0.0,0.0,0.0,0.0,0.5235987755982984
1666092107363584855,0.1,0.0,0.0,0.0,0.0,0.3490658503988654
1666092107414190872,0.1,0.0,0.0,0.0,0.0,0.3490658503988654
1666092107463756275,0.1,0.0,0.0,0.0,0.0,0.3490658503988654
1666092107513839865,0.1,0.0,0.0,0.0,0.0,0.3490658503988654
1666092107563520622,0.1,0.0,0.0,0.0,0.0,0.3490658503988654
1666092107615598016,0.1,0.0,0.0,0.0,0.0,0.3490658503988654
1666092107663947912,0.1,0.0,0.0,0.0,0.0,0.3490658503988654
1666092107713793910,0.1,0.0,0.0,0.0,0.0,0.3490658503988654
1666092107763504158,0.1,0.0,0.0,0.0,0.0,0.3490658503988654
1666092107814286416,0.1,0.0,0.0,0.0,0.0,0.3490658503988654
1666092107864191078,0.1,0.0,0.0,0.0,0.0,0.3490658503988654
1666092107913989109,0.1,0.0,0.0,0.0,0.0,0.3490658503988654
1666092107963496125,0.1,0.0,0.0,0.0,0.0,0.3490658503988654
1666092108014653268,0.1,0.0,0.0,0.0,0.0,0.3490658503988654
1666092108063787733,0.1,0.0,0.0,0.0,0.0,0.3490658503988654
1666092108113587880,0.1,0.0,0.0,0.0,0.0,0.3490658503988654
1666092108164043897,0.1,0.0,0.0,0.0,0.0,0.4490658503988654
1666092108214019030,0.1,0.0,0.0,0.0,0.0,0.5490658503988654
1666092108264012020,0.1,0.0,0.0,0.0,0.0,0.6490658503988653
1666092108313805915,0.1,0.0,0.0,0.0,0.0,0.6981317007977313
1666092108363878708,0.1,0.0,0.0,0.0,0.0,0.6981317007977313
1666092108413705972,0.1,0.0,0.0,0.0,0.0,0.6981317007977313
1666092108463711742,0.1,0.0,0.0,0.0,0.0,0.7981317007977313
1666092108513918512,0.1,0.0,0.0,0.0,0.0,0.8726646259971643
1666092108563618165,0.1,0.0,0.0,0.0,0.0,0.8726646259971643
1666092108617324387,0.1,0.0,0.0,0.0,0.0,0.9726646259971643
1666092108663748398,0.1,0.0,0.0,0.0,0.0,1.0471975511965972
1666092108714481220,0.1,0.0,0.0,0.0,0.0,0.8726646259971643
1666092108763693224,0.1,0.0,0.0,0.0,0.0,0.9726646259971643
1666092108813819146,0.1,0.0,0.0,0.0,0.0,1.0471975511965972
1666092108863868928,0.1,0.0,0.0,0.0,0.0,1.0471975511965972
1666092108913977234,0.1,0.0,0.0,0.0,0.0,1.1471975511965973
1666092108963914249,0.1,0.0,0.0,0.0,0.0,0.17453292519943245
1666092109013537554,0.1,0.0,0.0,0.0,0.0,0.17453292519943245
1666092109063525459,0.115,0.0,0.0,0.0,0.0,0.17182708509587083
1666092109113962430,0.13,0.0,0.0,0.0,0.0,0.1691212449923092
1666092109163611199,0.14500000000000002,0.0,0.0,0.0,0.0,0.16691369368632364
1666092109214388167,0.16000000000000003,0.0,0.0,0.0,0.0,0.16130581916455133
1666092109263515429,0.17500000000000004,0.0,0.0,0.0,0.0,0.15569794464277903
1666092109313854029,0.19000000000000006,0.0,0.0,0.0,0.0,0.148851448707299
1666092109363722434,0.20500000000000007,0.0,0.0,0.0,0.0,0.14200778521385243
1666092109413722894,0.22000000000000008,0.0,0.0,0.0,0.0,0.13516412172040587
1666092109463583199,0.2350000000000001,0.0,0.0,0.0,0.0,0.1263383419901904
1666092109513818656,0.2500000000000001,0.0,0.0,0.0,0.0,0.11751256225997492
1666092109563573607,0.2650000000000001,0.0,0.0,0.0,0.0,0.10868678252975944
1666092109613919090,0.28000000000000014,0.0,0.0,0.0,0.0,0.09585259655979797
1666092109663540631,0.29500000000000015,0.0,0.0,0.0,0.0,0.0830184105898365
1666092109713952650,0.31000000000000016,0.0,0.0,0.0,0.0,0.07018422461987503
1666092109764205089,0.3250000000000002,0.0,0.0,0.0,0.0,0.05735003864991355
1666092109813844805,0.3400000000000002,0.0,0.0,0.0,0.0,0.044515852679952075
1666092109863731762,0.3550000000000002,0.0,0.0,0.0,0.0,0.0316816667099906
1666092109913606156,0.3700000000000002,0.0,0.0,0.0,0.0,0.01884748074002912
1666092109963778964,0.38500000000000023,0.0,0.0,0.0,0.0,0.006013294770067642
1666092110013536638,0.40000000000000024,0.0,0.0,0.0,0.0,-0.006820891199893837
1666092110063593039,0.41500000000000026,0.0,0.0,0.0,0.0,-0.019655077169855317
1666092110114153483,0.43000000000000027,0.0,0.0,0.0,0.0,-0.0324892631398168
1666092110163910421,0.4450000000000003,0.0,0.0,0.0,0.0,-0.045323449109778285
1666092110213603292,0.4600000000000003,0.0,0.0,0.0,0.0,-0.05815763507973977
1666092110263601947,0.4750000000000003,0.0,0.0,0.0,0.0,-0.07099182104970125
1666092110317590337,0.4900000000000003,0.0,0.0,0.0,0.0,-0.08382600701966274
1666092110363659660,0.5050000000000003,0.0,0.0,0.0,0.0,-0.09666019298962422
1666092110413969707,0.5200000000000004,0.0,0.0,0.0,0.0,-0.1094943789595857
1666092110463819859,0.5350000000000004,0.0,0.0,0.0,0.0,-0.12232856492954719
1666092110514005485,0.5500000000000004,0.0,0.0,0.0,0.0,-0.1351627508995087
1666092110563834022,0.5650000000000004,0.0,0.0,0.0,0.0,-0.14799693686947019
1666092110615959478,0.5800000000000004,0.0,0.0,0.0,0.0,-0.16083112283943168
1666092110663524977,0.5950000000000004,0.0,0.0,0.0,0.0,-0.17366530880939318
1666092110713883492,0.6100000000000004,0.0,0.0,0.0,0.0,-0.18649949477935468
1666092110764651215,0.6250000000000004,0.0,0.0,0.0,0.0,-0.19933368074931618
1666092110813869427,0.6400000000000005,0.0,0.0,0.0,0.0,-0.21216786671927768
1666092110863578541,0.6550000000000005,0.0,0.0,0.0,0.0,-0.22500205268923917
1666092110914174814,0.6700000000000005,0.0,0.0,0.0,0.0,-0.23783623865920064
1666092110963673101,0.6850000000000005,0.0,0.0,0.0,0.0,-0.2506704246291621
1666092111013860858,0.7000000000000005,0.0,0.0,0.0,0.0,-0.2635046105991236
1666092111063758951,0.7150000000000005,0.0,0.0,0.0,0.0,-0.2763387965690851
1666092111115133002,0.7300000000000005,0.0,0.0,0.0,0.0,-0.2891729825390466
1666092111163452530,0.7450000000000006,0.0,0.0,0.0,0.0,-0.3020071685090081
1666092111214021441,0.7600000000000006,0.0,0.0,0.0,0.0,-0.3148413544789696
1666092111263431198,0.7750000000000006,0.0,0.0,0.0,0.0,-0.3276755404489311
1666092111314161931,0.7900000000000006,0.0,0.0,0.0,0.0,-0.3405097264188926
1666092111363528377,0.7999999999999999,0.0,0.0,0.0,0.0,-0.3490658503988664
1666092111413814403,0.7999999999999999,0.0,0.0,0.0,0.0,-0.3490658503988664
1666092111463538727,0.7999999999999999,0.0,0.0,0.0,0.0,-0.3490658503988664
1666092111513635583,0.7999999999999999,0.0,0.0,0.0,0.0,-0.3490658503988664
1666092111563510795,0.7999999999999999,0.0,0.0,0.0,0.0,-0.3490658503988664
1666092111613918035,0.7999999999999999,0.0,0.0,0.0,0.0,-0.3490658503988664
1666092111663651425,0.7999999999999999,0.0,0.0,0.0,0.0,-0.3490658503988664
1666092111713840666,0.7999999999999999,0.0,0.0,0.0,0.0,-0.3490658503988664
1666092111763962770,0.7999999999999999,0.0,0.0,0.0,0.0,-0.3490658503988664
1666092111814367913,0.7999999999999999,0.0,0.0,0.0,0.0,-0.3490658503988664
1666092111863612169,0.7999999999999999,0.0,0.0,0.0,0.0,-0.3490658503988664
1666092111913552717,0.7999999999999999,0.0,0.0,0.0,0.0,-0.4490658503988664
1666092111963593295,0.7999999999999999,0.0,0.0,0.0,0.0,-0.5235987755982994
1666092112013936867,0.6499999999999999,0.0,0.0,0.0,0.0,-0.4487989505128281
1666092112064107629,0.4999999999999999,0.0,0.0,0.0,0.0,-0.3739991254273568
1666092112115301720,0.34999999999999987,0.0,0.0,0.0,0.0,-0.2991993003418855
1666092112163928502,0.19999999999999984,0.0,0.0,0.0,0.0,-0.22439947525641424
1666092112214313120,0.1,0.0,0.0,0.0,0.0,-0.17453292519943345
1666092112263512604,0.1,0.0,0.0,0.0,0.0,-0.17453292519943345
1666092112314410012,0.1,0.0,0.0,0.0,0.0,-0.17453292519943345
1666092112363580701,0.1,0.0,0.0,0.0,0.0,-0.17453292519943345
1666092112414024128,0.1,0.0,0.0,0.0,0.0,-0.17453292519943345
1666092112463592752,0.1,0.0,0.0,0.0,0.0,-0.17453292519943345
1666092112513732074,0.1,0.0,0.0,0.0,0.0,-0.17453292519943345
1666092112563769937,0.1,0.0,0.0,0.0,0.0,-0.17453292519943345
1666092112614043504,0.1,0.0,0.0,0.0,0.0,-0.17453292519943345
1666092112664492612,0.1,0.0,0.0,0.0,0.0,-0.17453292519943345
1666092112713521670,0.1,0.0,0.0,0.0,0.0,-0.17453292519943345
1666092112764651744,0.1,0.0,0.0,0.0,0.0,-0.07425437122583389
1666092112814018256,0.1,0.0,0.0,0.0,0.0,-0.06698344647884369
1666092112863575837,0.1,0.0,0.0,0.0,0.0,-0.1669834464788437
1666092112914277501,0.1,0.0,0.0,0.0,0.0,-0.17453292519943345
1666092112963914516,0.1,0.0,0.0,0.0,0.0,-0.27453292519943345
1666092113013509174,0.1,0.0,0.0,0.0,0.0,-0.3745329251994335
1666092113063830428,0.1,0.0,0.0,0.0,0.0,-0.47453292519943346
1666092113113777492,0.1,0.0,0.0,0.0,0.0,-0.5745329251994334
1666092113164076218,0.1,0.0,0.0,0.0,0.0,-0.6745329251994334
1666092113214011259,0.1,0.0,0.0,0.0,0.0,-0.6981317007977323
1666092113266210772,0.1,0.0,0.0,0.0,0.0,-0.7981317007977323
1666092113313604601,0.1,0.0,0.0,0.0,0.0,-0.8726646259971653
1666092113363754477,0.1,0.0,0.0,0.0,0.0,-0.8726646259971653
1666092113413575755,0.1,0.0,0.0,0.0,0.0,-0.8726646259971653
1666092113464062086,0.1,0.0,0.0,0.0,0.0,-0.8726646259971653
1666092113513453257,0.1,0.0,0.0,0.0,0.0,-0.8726646259971653
1666092113563752239,0.1,0.0,0.0,0.0,0.0,-0.8726646259971653
1666092113614080055,0.1,0.0,0.0,0.0,0.0,-0.8726646259971653
1666092113663504385,0.115,0.0,0.0,0.0,0.0,-0.8502246784715239
1666092113713814833,0.13,0.0,0.0,0.0,0.0,-0.8239628420729023
1666092113763507389,0.14500000000000002,0.0,0.0,0.0,0.0,-0.7977010056742806
1666092113814366069,0.16000000000000003,0.0,0.0,0.0,0.0,-0.7714391692756589
1666092113863488578,0.17500000000000004,0.0,0.0,0.0,0.0,-0.7410867174426755
1666092113913640584,0.19000000000000006,0.0,0.0,0.0,0.0,-0.7107342656096921
1666092113963645133,0.20500000000000007,0.0,0.0,0.0,0.0,-0.6803818137767087
1666092114013545973,0.22000000000000008,0.0,0.0,0.0,0.0,-0.6500293619437253
1666092114064046707,0.2350000000000001,0.0,0.0,0.0,0.0,-0.6196769101107419
1666092114113589129,0.2500000000000001,0.0,0.0,0.0,0.0,-0.5893244582777585
1666092114163980375,0.2650000000000001,0.0,0.0,0.0,0.0,-0.5542120175756997
1666092114213955771,0.28000000000000014,0.0,0.0,0.0,0.0,-0.5190995768736408
1666092114263493202,0.29500000000000015,0.0,0.0,0.0,0.0,-0.483987136171582
1666092114313570693,0.31000000000000016,0.0,0.0,0.0,0.0,-0.44338065138721666
1666092114363580306,0.3250000000000002,0.0,0.0,0.0,0.0,-0.40167661638150887
1666092114413452350,0.3400000000000002,0.0,0.0,0.0,0.0,-0.359972581375801
1666092114463676776,0.3550000000000002,0.0,0.0,0.0,0.0,-0.31817314314805817
1666092114514197715,0.3700000000000002,0.0,0.0,0.0,0.0,-0.2763737049203153
1666092114563651109,0.38500000000000023,0.0,0.0,0.0,0.0,-0.22787585341441724
1666092114613932028,0.40000000000000024,0.0,0.0,0.0,0.0,-0.17850211553598133
1666092114663538393,0.41500000000000026,0.0,0.0,0.0,0.0,-0.1271109057524454
1666092114714057528,0.43000000000000027,0.0,0.0,0.0,0.0,-0.07571969596890948
1666092114763806507,0.4450000000000003,0.0,0.0,0.0,0.0,-0.023120364656817285
1666092114813747047,0.4600000000000003,0.0,0.0,0.0,0.0,0.029478966655274913
1666092114865375194,0.4750000000000003,0.0,0.0,0.0,0.0,0.08227303500790681
1666092114914227836,0.4900000000000003,0.0,0.0,0.0,0.0,0.1350671033605387
1666092114964524771,0.5050000000000003,0.0,0.0,0.0,0.0,0.18786117171317063
1666092115013580686,0.5200000000000004,0.0,0.0,0.0,0.0,0.2701069280893785
1666092115063589688,0.5350000000000004,0.0,0.0,0.0,0.0,0.36175037429596946
1666092115116561425,0.5500000000000004,0.0,0.0,0.0,0.0,0.45339382050256044
1666092115163616856,0.561569073435663,0.0,0.0,0.0,0.0,0.5533938205025605
1666092115215491524,0.5731381468713256,0.0,0.0,0.0,0.0,0.6533938205025605
1666092115264140372,0.5808701893615769,0.0,0.0,0.0,0.0,0.7533938205025604
1666092115313543021,0.5958701893615769,0.0,0.0,0.0,0.0,0.8168499871848545
1666092115364589150,0.6108701893615769,0.0,0.0,0.0,0.0,0.8803061538671485
1666092115413559006,0.5986165269562419,0.0,0.0,0.0,0.0,0.9803061538671485
1666092115463591764,0.586362864550907,0.0,0.0,0.0,0.0,1.0803061538671486
1666092115513730801,0.601362864550907,0.0,0.0,0.0,0.0,1.1200468481354051
1666092115563684096,0.5064806341728254,0.0,0.0,0.0,0.0,1.2200468481354052
1666092115613546828,0.5048831701278687,0.0,0.0,0.0,0.0,1.2217304763960302
1666092115663734887,0.5048831701278687,0.0,0.0,0.0,0.0,1.2217304763960302
1666092115715365834,0.4760832786560058,0.0,0.0,0.0,0.0,1.2217304763960302
1666092115763679479,0.4456615746021271,0.0,0.0,0.0,0.0,1.2217304763960302
1666092115813727023,0.4456615746021271,0.0,0.0,0.0,0.0,1.2217304763960302
1666092115864457636,0.4456615746021271,0.0,0.0,0.0,0.0,1.2217304763960302
1666092115913704604,0.4154887497425079,0.0,0.0,0.0,0.0,1.2217304763960302
1666092115963746204,0.3882578611373901,0.0,0.0,0.0,0.0,1.2217304763960302
1666092116013958832,0.3882578611373901,0.0,0.0,0.0,0.0,1.2217304763960302
1666092116063777028,0.34715428948402405,0.0,0.0,0.0,0.0,1.2217304763960302
1666092116113655352,0.34715428948402405,0.0,0.0,0.0,0.0,1.2217304763960302
1666092116163884723,0.3293592035770416,0.0,0.0,0.0,0.0,1.2217304763960302
1666092116213744359,0.31887632608413696,0.0,0.0,0.0,0.0,1.2217304763960302
1666092116263619877,0.31887632608413696,0.0,0.0,0.0,0.0,1.2217304763960302
1666092116313917744,0.333876326084137,0.0,0.0,0.0,0.0,1.2217304763960302
1666092116363480989,0.29785823822021484,0.0,0.0,0.0,0.0,1.0471975511965972
1666092116413599650,0.29785823822021484,0.0,0.0,0.0,0.0,1.0471975511965972
1666092116463673577,0.28890457749366755,0.0,0.0,0.0,0.0,1.0471975511965972
1666092116513686168,0.28890457749366755,0.0,0.0,0.0,0.0,1.0471975511965972
1666092116564393125,0.28803879022598267,0.0,0.0,0.0,0.0,1.0471975511965972
1666092116614072972,0.2843008339405059,0.0,0.0,0.0,0.0,1.0471975511965972
1666092116663497226,0.2843008339405059,0.0,0.0,0.0,0.0,1.0471975511965972
1666092116713943105,0.2831445634365082,0.0,0.0,0.0,0.0,0.8726646259971643
1666092116764067724,0.2831445634365082,0.0,0.0,0.0,0.0,0.8726646259971643
1666092116813879463,0.28394338488578796,0.0,0.0,0.0,0.0,0.8726646259971643
1666092116863731884,0.13394338488578794,0.0,0.0,0.0,0.0,0.7209687387651592
1666092116913489221,0.0,0.0,0.0,0.0,0.0,0.5855110013711089
1666092116963646084,0.0,0.0,0.0,0.0,0.0,0.5855110013711089
1666092117015112937,0.0,0.0,0.0,0.0,0.0,0.5509450589672215
1666092117063563484,0.0,0.0,0.0,0.0,0.0,0.4926398931686147
1666092117114048309,0.0,0.0,0.0,0.0,0.0,0.4926398931686147
1666092117163673750,0.0,0.0,0.0,0.0,0.0,0.3922089949206451
1666092117213504271,0.0,0.0,0.0,0.0,0.0,0.3922089949206451
1666092117263721229,0.0,0.0,0.0,0.0,0.0,0.3490658503988654
1666092117314139651,0.0,0.0,0.0,0.0,0.0,0.3490658503988654
1666092117363662268,0.0,0.0,0.0,0.0,0.0,0.304272787234827
1666092117413699743,0.0,0.0,0.0,0.0,0.0,0.26164952835380306
1666092117463598250,0.0,0.0,0.0,0.0,0.0,0.26164952835380306
1666092117514449979,0.0,0.0,0.0,0.0,0.0,0.23333934176611298
1666092117563680807,0.0,0.0,0.0,0.0,0.0,0.23333934176611298
1666092117614012934,0.0,0.0,0.0,0.0,0.0,0.17453292519943245
1666092117663708569,0.0,0.0,0.0,0.0,0.0,0.17453292519943245
1666092117713563211,0.0,0.0,0.0,0.0,0.0,0.17453292519943245
1666092117764982765,0.0,0.0,0.0,0.0,0.0,0.17453292519943245
1666092117813720379,0.0,0.0,0.0,0.0,0.0,0.17453292519943245
1666092117863628868,0.0,0.0,0.0,0.0,0.0,0.17453292519943245
1666092117913579499,0.0,0.0,0.0,0.0,0.0,0.17453292519943245
1666092117964128996,0.0,0.0,0.0,0.0,0.0,0.17453292519943245
1666092118013471357,0.0,0.0,0.0,0.0,0.0,0.17453292519943245
1666092118063675460,0.0,0.0,0.0,0.0,0.0,0.17453292519943245
1666092118113622218,0.0,0.0,0.0,0.0,0.0,0.17453292519943245
1666092118163823873,0.0,0.0,0.0,0.0,0.0,0.17453292519943245
1666092118213642767,0.0,0.0,0.0,0.0,0.0,0.17453292519943245
1666092118264028043,0.0,0.0,0.0,0.0,0.0,0.17453292519943245
1666092118313538799,0.0,0.0,0.0,0.0,0.0,0.17453292519943245
1666092118363934466,0.0,0.0,0.0,0.0,0.0,0.17453292519943245
1666092118413480174,0.0,0.0,0.0,0.0,0.0,0.17453292519943245
1666092118463882178,0.0,0.0,0.0,0.0,0.0,0.17453292519943245
1666092118513474637,0.0,0.0,0.0,0.0,0.0,0.17453292519943245
1666092118563785447,0.0,0.0,0.0,0.0,0.0,0.17453292519943245
1666092118613507659,0.0,0.0,0.0,0.0,0.0,0.17453292519943245
1666092118663965907,0.0,0.0,0.0,0.0,0.0,0.17453292519943245
1666092118713723516,0.0,0.0,0.0,0.0,0.0,0.17453292519943245
1666092118764158221,0.0,0.0,0.0,0.0,0.0,0.17453292519943245
1666092118813609409,0.0,0.0,0.0,0.0,0.0,0.17453292519943245
1666092118863596419,0.0,0.0,0.0,0.0,0.0,0.17453292519943245
1666092118913522873,0.0,0.0,0.0,0.0,0.0,0.17453292519943245
1666092118963838565,0.0,0.0,0.0,0.0,0.0,0.17453292519943245
1666092119013544623,0.0,0.0,0.0,0.0,0.0,0.17453292519943245
1666092119063523931,0.0,0.0,0.0,0.0,0.0,0.17453292519943245
1666092119113447201,0.0,0.0,0.0,0.0,0.0,0.17453292519943245
1666092119163952213,0.0,0.0,0.0,0.0,0.0,0.17453292519943245
1666092119213465649,0.0,0.0,0.0,0.0,0.0,0.17453292519943245
1666092119263555827,0.0,0.0,0.0,0.0,0.0,0.17453292519943245
1666092119314176422,0.0,0.0,0.0,0.0,0.0,0.17453292519943245
1666092119363548467,0.0,0.0,0.0,0.0,0.0,0.17453292519943245
1666092119413467040,0.0,0.0,0.0,0.0,0.0,0.17453292519943245
1666092119463786080,0.0,0.0,0.0,0.0,0.0,0.17453292519943245
1666092119514094660,0.0,0.0,0.0,0.0,0.0,0.17453292519943245
1666092119563662422,0.0,0.0,0.0,0.0,0.0,0.17453292519943245
1666092119613527030,0.0,0.0,0.0,0.0,0.0,0.17453292519943245
1666092119664034796,0.0,0.0,0.0,0.0,0.0,0.17453292519943245
1666092119713563407,0.0,0.0,0.0,0.0,0.0,0.17453292519943245
1666092119763656480,0.0,0.0,0.0,0.0,0.0,0.17453292519943245
1666092119814614310,0.0,0.0,0.0,0.0,0.0,0.17453292519943245
1666092119863736920,0.0,0.0,0.0,0.0,0.0,0.17453292519943245
1666092119913635129,0.0,0.0,0.0,0.0,0.0,0.17453292519943245
1666092119963977291,0.0,0.0,0.0,0.0,0.0,0.17453292519943245
1666092120014140829,0.0,0.0,0.0,0.0,0.0,0.17453292519943245
1666092120063745157,0.0,0.0,0.0,0.0,0.0,0.17453292519943245
1666092120113931665,0.0,0.0,0.0,0.0,0.0,0.17453292519943245
1666092120163500810,0.0,0.0,0.0,0.0,0.0,0.17453292519943245
1666092120213588826,0.0,0.0,0.0,0.0,0.0,0.17453292519943245
1666092120263982523,0.0,0.0,0.0,0.0,0.0,0.17453292519943245
1666092120313503456,0.0,0.0,0.0,0.0,0.0,0.17453292519943245
1666092120363764304,0.0,0.0,0.0,0.0,0.0,0.17453292519943245
1666092120413641257,0.0,0.0,0.0,0.0,0.0,0.17453292519943245
1666092120463521329,0.0,0.0,0.0,0.0,0.0,0.17453292519943245
1666092120513492807,0.0,0.0,0.0,0.0,0.0,0.17453292519943245
1666092120563488028,0.0,0.0,0.0,0.0,0.0,0.17453292519943245
1666092120613505820,0.0,0.0,0.0,0.0,0.0,0.07453292519943244
1666092120663554127,0.0,0.0,0.0,0.0,0.0,-4.996003610813204e-16
1666092120713542889,0.0,0.0,0.0,0.0,0.0,-4.996003610813204e-16
1666092120763653527,0.0,0.0,0.0,0.0,0.0,-4.996003610813204e-16
1666092120813911467,0.0,0.0,0.0,0.0,0.0,-4.996003610813204e-16
1666092120863594718,0.0,0.0,0.0,0.0,0.0,-4.996003610813204e-16
1666092120913858608,0.0,0.0,0.0,0.0,0.0,-4.996003610813204e-16
1666092120963479886,0.0,0.0,0.0,0.0,0.0,-4.996003610813204e-16
1666092121013923198,0.0,0.0,0.0,0.0,0.0,-4.996003610813204e-16
1666092121064175806,0.0,0.0,0.0,0.0,0.0,-4.996003610813204e-16
1666092121113924341,0.0,0.0,0.0,0.0,0.0,-4.996003610813204e-16
1666092121164833583,0.0,0.0,0.0,0.0,0.0,-4.996003610813204e-16
1666092121213654148,0.0,0.0,0.0,0.0,0.0,-4.996003610813204e-16
1666092121263494684,0.0,0.0,0.0,0.0,0.0,-4.996003610813204e-16
1666092121313493999,0.0,0.0,0.0,0.0,0.0,-4.996003610813204e-16
1666092121363719670,0.0,0.0,0.0,0.0,0.0,-4.996003610813204e-16
1666092121413738732,0.0,0.0,0.0,0.0,0.0,-4.996003610813204e-16
1666092121463653830,0.0,0.0,0.0,0.0,0.0,-4.996003610813204e-16
1666092121513932773,0.0,0.0,0.0,0.0,0.0,-4.996003610813204e-16
1666092121563837530,0.0,0.0,0.0,0.0,0.0,-4.996003610813204e-16
1666092121613680438,0.0,0.0,0.0,0.0,0.0,-4.996003610813204e-16
1666092121664075613,0.0,0.0,0.0,0.0,0.0,-4.996003610813204e-16
1666092121713969446,0.0,0.0,0.0,0.0,0.0,-4.996003610813204e-16
1666092121763671456,0.0,0.0,0.0,0.0,0.0,-4.996003610813204e-16
1666092121813507978,0.0,0.0,0.0,0.0,0.0,-4.996003610813204e-16
1666092121863848929,0.0,0.0,0.0,0.0,0.0,-4.996003610813204e-16
1666092121914447227,0.0,0.0,0.0,0.0,0.0,-4.996003610813204e-16
1666092121963972858,0.0,0.0,0.0,0.0,0.0,-4.996003610813204e-16
1666092122013504876,0.0,0.0,0.0,0.0,0.0,-4.996003610813204e-16
1666092122065338818,0.0,0.0,0.0,0.0,0.0,-4.996003610813204e-16
1666092122113575796,0.0,0.0,0.0,0.0,0.0,-4.996003610813204e-16
1666092122163522836,0.0,0.0,0.0,0.0,0.0,-4.996003610813204e-16
1666092122214244560,0.0,0.0,0.0,0.0,0.0,-4.996003610813204e-16
1666092122263873404,0.0,0.0,0.0,0.0,0.0,-4.996003610813204e-16
1666092122314471682,0.0,0.0,0.0,0.0,0.0,0.0999999999999995
1666092122365261737,0.0,0.0,0.0,0.0,0.0,0.17453292519943245
1666092122413900607,0.0,0.0,0.0,0.0,0.0,0.17453292519943245
1666092122464107073,0.0,0.0,0.0,0.0,0.0,0.17453292519943245
1666092122513473122,0.0,0.0,0.0,0.0,0.0,0.17453292519943245
1666092122563859763,0.0,0.0,0.0,0.0,0.0,0.17453292519943245
1666092122613892216,0.0,0.0,0.0,0.0,0.0,0.17453292519943245
1666092122663751182,0.0,0.0,0.0,0.0,0.0,0.17453292519943245
1666092122714250551,0.0,0.0,0.0,0.0,0.0,0.17453292519943245
1666092122763951800,0.0,0.0,0.0,0.0,0.0,0.17453292519943245
1666092122814245216,0.0,0.0,0.0,0.0,0.0,0.22107724170468085
1666092122863723134,0.0,0.0,0.0,0.0,0.0,0.22107724170468085
1666092122913558876,0.0,0.0,0.0,0.0,0.0,0.22944467555697143
1666092122963953134,0.0,0.0,0.0,0.0,0.0,0.22944467555697143
1666092123014205133,0.0,0.0,0.0,0.0,0.0,0.32944467555697143
1666092123063924772,0.0,0.0,0.0,0.0,0.0,0.3376621744260303
1666092123113994041,0.0,0.0,0.0,0.0,0.0,0.4376621744260303
1666092123164235472,0.0,0.0,0.0,0.0,0.0,0.5050539800032838
1666092123214283222,0.0,0.0,0.0,0.0,0.0,0.5032687323182313
1666092123263836183,0.015,0.0,0.0,0.0,0.0,0.5099871199350602
1666092123313583870,0.03,0.0,0.0,0.0,0.0,0.516705507551889
1666092123364506457,0.045,0.0,0.0,0.0,0.0,0.5234238951687179
1666092123413511086,0.06,0.0,0.0,0.0,0.0,0.5312539504038238
1666092123464066796,0.075,0.0,0.0,0.0,0.0,0.5390840056389298
1666092123513544031,0.09,0.0,0.0,0.0,0.0,0.5457131540241441
1666092123564398851,0.105,0.0,0.0,0.0,0.0,0.544974072141962
1666092123613690186,0.12,0.0,0.0,0.0,0.0,0.54423499025978
1666092123664055917,0.135,0.0,0.0,0.0,0.0,0.5434510944924645
1666092123713634745,0.15000000000000002,0.0,0.0,0.0,0.0,0.5426671987251491
1666092123763579882,0.16500000000000004,0.0,0.0,0.0,0.0,0.5419285022272603
1666092123814976550,0.18000000000000005,0.0,0.0,0.0,0.0,0.5349275864266009
1666092123864321329,0.19500000000000006,0.0,0.0,0.0,0.0,0.5279649630663714
1666092123913644541,0.21000000000000008,0.0,0.0,0.0,0.0,0.5209881858086565
1666092123963658950,0.2250000000000001,0.0,0.0,0.0,0.0,0.5140114085509415
1666092124013565533,0.2400000000000001,0.0,0.0,0.0,0.0,0.5070346312932266
1666092124063830990,0.2550000000000001,0.0,0.0,0.0,0.0,0.5007263581508634
1666092124113461425,0.27000000000000013,0.0,0.0,0.0,0.0,0.4947035798779939
1666092124163732733,0.28500000000000014,0.0,0.0,0.0,0.0,0.48868551883226174
1666092124214245352,0.30000000000000016,0.0,0.0,0.0,0.0,0.4833833941918744
1666092124263605900,0.31500000000000017,0.0,0.0,0.0,0.0,0.4780812695514871
1666092124314097278,0.3300000000000002,0.0,0.0,0.0,0.0,0.4727791449110998
1666092124363602692,0.3450000000000002,0.0,0.0,0.0,0.0,0.46770572187926673
1666092124413682701,0.3600000000000002,0.0,0.0,0.0,0.0,0.4626322988474337
1666092124466692473,0.3750000000000002,0.0,0.0,0.0,0.0,0.4576647330027114
1666092124513981238,0.39000000000000024,0.0,0.0,0.0,0.0,0.4526971671579891
1666092124563660539,0.40500000000000025,0.0,0.0,0.0,0.0,0.4479968281431648
1666092124613499296,0.42000000000000026,0.0,0.0,0.0,0.0,0.44354734027961124
1666092124663856862,0.4350000000000003,0.0,0.0,0.0,0.0,0.43934586932053465
1666092124713953156,0.4500000000000003,0.0,0.0,0.0,0.0,0.4351443983614581
1666092124764475174,0.4650000000000003,0.0,0.0,0.0,0.0,0.4230761324918071
1666092124813894132,0.4800000000000003,0.0,0.0,0.0,0.0,0.4110078666221561
1666092124863758123,0.49500000000000033,0.0,0.0,0.0,0.0,0.3989396007525051
1666092124913501844,0.5100000000000003,0.0,0.0,0.0,0.0,0.3879032068728458
1666092124964357654,0.5250000000000004,0.0,0.0,0.0,0.0,0.3768668129931865
1666092125013729253,0.5400000000000004,0.0,0.0,0.0,0.0,0.36583041911352715
1666092125064401141,0.5550000000000004,0.0,0.0,0.0,0.0,0.3547940252338678
1666092125114083120,0.40500000000000036,0.0,0.0,0.0,0.0,0.2589037481436333
