%time,field.x,field.y,field.z
1663672740789129244,1.4860773086547852,0.2802833616733551,0.0
1663672740849287173,1.4843578338623047,0.2841351628303528,0.0
1663672740869378657,1.481635570526123,0.2876105308532715,0.0
1663672740929921124,1.480282187461853,0.29105815291404724,0.0
1663672740989554118,1.4783170223236084,0.2936423122882843,0.0
1663672741047153834,1.476259708404541,0.29577282071113586,0.0
1663672741098907625,1.479860544204712,0.3005829453468323,0.0
1663672741148027802,1.4818930625915527,0.3050594627857208,0.0
1663672741210928835,1.4870097637176514,0.31110867857933044,0.0
1663672741263108972,1.4916688203811646,0.3167177140712738,0.0
1663672741319556352,1.4960681200027466,0.321866512298584,0.0
1663672741379380706,1.5045801401138306,0.3286438584327698,0.0
1663672741429522194,1.5122581720352173,0.3348846733570099,0.0
1663672741478549364,1.51675546169281,0.33912649750709534,0.0
1663672741538557231,1.5211892127990723,0.34284311532974243,0.0
1663672741588687085,1.520452857017517,0.3446918725967407,0.0
1663672741638589619,1.5196914672851562,0.34605109691619873,0.0
1663672741698548194,1.5162781476974487,0.343610942363739,0.0
1663672741748567172,1.511889100074768,0.34063175320625305,0.0
1663672741798525748,1.5072293281555176,0.337533563375473,0.0
1663672741848566443,1.503861665725708,0.3342203199863434,0.0
1663672741898539814,1.4997848272323608,0.3308866322040558,0.0
1663672741948540268,1.4957921504974365,0.3276183009147644,0.0
1663672742000211749,1.4936853647232056,0.3222396969795227,0.0
1663672742049255339,1.4915391206741333,0.3168506324291229,0.0
1663672742099295760,1.4896043539047241,0.3117254078388214,0.0
1663672742149474212,1.4873393774032593,0.30623191595077515,0.0
1663672742209506792,1.4855077266693115,0.30120527744293213,0.0
1663672742268592697,1.4840353727340698,0.29657262563705444,0.0
1663672742318721173,1.4806084632873535,0.2921525835990906,0.0
1663672742368563807,1.477372169494629,0.2881763279438019,0.0
1663672742429054113,1.4743322134017944,0.2845764458179474,0.0
1663672742488079848,1.4740653038024902,0.27994686365127563,0.0
1663672742534818040,1.4730883836746216,0.2750391662120819,0.0
1663672742581883523,1.4737977981567383,0.2709079384803772,0.0
1663672742631635744,1.47406804561615,0.2670303285121918,0.0
1663672742690854621,1.4773133993148804,0.2636474668979645,0.0
1663672742748566956,1.4776369333267212,0.2588004171848297,0.0
1663672742784024082,1.478257656097412,0.2544727027416229,0.0
1663672742840384809,1.4790092706680298,0.2505880296230316,0.0
1663672742898817292,1.479037880897522,0.2472430318593979,0.0
1663672742948747208,1.4792131185531616,0.24450497329235077,0.0
1663672743010028765,1.480178952217102,0.24277426302433014,0.0
1663672743068623734,1.4845266342163086,0.24090608954429626,0.0
1663672743118644300,1.48912513256073,0.23941226303577423,0.0
1663672743179570657,1.49156653881073,0.23606599867343903,0.0
1663672743234226035,1.4944097995758057,0.23391684889793396,0.0
1663672743285803595,1.4970366954803467,0.23200258612632751,0.0
1663672743338587897,1.4998737573623657,0.23053617775440216,0.0
1663672743388564110,1.5025420188903809,0.2292933613061905,0.0
1663672743448533956,1.505006194114685,0.22826413810253143,0.0
1663672743498597463,1.51351797580719,0.22590456902980804,0.0
1663672743549488292,1.5208884477615356,0.22372876107692719,0.0
1663672743599385204,1.5269757509231567,0.22198908030986786,0.0
1663672743659943152,1.530224323272705,0.22139061987400055,0.0
1663672743710069620,1.5295764207839966,0.22005406022071838,0.0
1663672743760245373,1.5287805795669556,0.21889746189117432,0.0
1663672743810133976,1.5269452333450317,0.21713483333587646,0.0
1663672743872358504,1.5252424478530884,0.21563668549060822,0.0
1663672743929821983,1.5225484371185303,0.21325193345546722,0.0
1663672743979383668,1.5199886560440063,0.21076622605323792,0.0
1663672744038858065,1.5173622369766235,0.20852893590927124,0.0
1663672744088547591,1.5129135847091675,0.20319460332393646,0.0
1663672744139238297,1.5080797672271729,0.19785185158252716,0.0
1663672744197844072,1.5025988817214966,0.19130399823188782,0.0
1663672744247818134,1.4965225458145142,0.18469376862049103,0.0
1663672744297830804,1.4900604486465454,0.17814110219478607,0.0
1663672744347870956,1.4791027307510376,0.1697024554014206,0.0
1663672744388697299,1.4663012027740479,0.16129709780216217,0.0
1663672744447859819,1.4527645111083984,0.15311875939369202,0.0
1663672744507939338,1.4400475025177002,0.1446990668773651,0.0
1663672744567934323,1.4275543689727783,0.13667592406272888,0.0
1663672744617801612,1.4154472351074219,0.12909968197345734,0.0
1663672744667787487,1.4095923900604248,0.12156953662633896,0.0
1663672744718043848,1.4032963514328003,0.11441405117511749,0.0
1663672744777826153,1.397275447845459,0.10777075588703156,0.0
1663672744837884854,1.3969693183898926,0.10462730377912521,0.0
1663672744848622476,1.3953526020050049,0.10175836086273193,0.0
1663672744899005981,1.3901835680007935,0.09869708120822906,0.0
1663672744959109232,1.3856003284454346,0.09600596129894257,0.0
1663672745008105798,1.3796712160110474,0.0937824547290802,0.0
1663672745048734139,1.3746920824050903,0.0920419842004776,0.0
1663672745108658085,1.3703160285949707,0.09063627570867538,0.0
1663672745160828776,1.3662749528884888,0.08899140357971191,0.0
1663672745211633018,1.3626874685287476,0.08759043365716934,0.0
1663672745259650979,1.3595293760299683,0.0864325761795044,0.0
1663672745319031230,1.355373740196228,0.0834970623254776,0.0
1663672745369084774,1.3527188301086426,0.0810152217745781,0.0
1663672745420088588,1.3507192134857178,0.07886241376399994,0.0
1663672745474141781,1.3486886024475098,0.07702081650495529,0.0
1663672745535157605,1.3436834812164307,0.07797092199325562,0.0
1663672745586263009,1.338929295539856,0.07874725759029388,0.0
1663672745638008554,1.3371531963348389,0.07726031541824341,0.0
1663672745689495442,1.335771083831787,0.07607542723417282,0.0
1663672745748430445,1.3348442316055298,0.07518737763166428,0.0
1663672745809674028,1.3349249362945557,0.07460663467645645,0.0
1663672745861056160,1.3356977701187134,0.07429344952106476,0.0
1663672745909776803,1.336840033531189,0.07419858127832413,0.0
1663672745969143293,1.341267466545105,0.077733114361763,0.0
1663672746021832236,1.3441766500473022,0.08057110756635666,0.0
1663672746077805871,1.3463486433029175,0.08295387774705887,0.0
1663672746127838980,1.3482341766357422,0.0855596736073494,0.0
1663672746174150671,1.3498039245605469,0.08792334049940109,0.0
1663672746230391920,1.3522902727127075,0.08970785140991211,0.0
1663672746286640553,1.3548450469970703,0.09126128256320953,0.0
1663672746348894487,1.3572427034378052,0.09264849126338959,0.0
1663672746398988505,1.3622549772262573,0.09443604946136475,0.0
1663672746459636714,1.366845965385437,0.09612534940242767,0.0
1663672746510904829,1.3664360046386719,0.09535898268222809,0.0
1663672746559964788,1.3671563863754272,0.09477537870407104,0.0
1663672746617843119,1.3681294918060303,0.09425131976604462,0.0
1663672746667908093,1.3654301166534424,0.09419950097799301,0.0
1663672746722031444,1.3629250526428223,0.09426922351121902,0.0
1663672746769049915,1.3603399991989136,0.09434816241264343,0.0
1663672746823314541,1.3568848371505737,0.09493046253919601,0.0
1663672746880441870,1.3533976078033447,0.09557079523801804,0.0
1663672746938813394,1.3610690832138062,0.09831727296113968,0.0
1663672746989581930,1.3671138286590576,0.10124585777521133,0.0
1663672747038750354,1.3724421262741089,0.10429511964321136,0.0
1663672747088893367,1.378491759300232,0.10884808003902435,0.0
1663672747148758310,1.3849891424179077,0.11336733400821686,0.0
1663672747209402887,1.391358733177185,0.11773796379566193,0.0
1663672747268437124,1.4112628698349,0.13484641909599304,0.0
1663672747319925117,1.4254095554351807,0.14909440279006958,0.0
1663672747379484379,1.4372475147247314,0.16097989678382874,0.0
1663672747428668517,1.4499099254608154,0.1722279042005539,0.0
1663672747477781959,1.4609010219573975,0.1820141226053238,0.0
1663672747527857814,1.4712471961975098,0.19135020673274994,0.0
1663672747568125336,1.4804245233535767,0.19954387843608856,0.0
1663672747628167293,1.4960575103759766,0.20685279369354248,0.0
1663672747678651542,1.5095407962799072,0.2131500542163849,0.0
1663672747728797487,1.5209602117538452,0.21884244680404663,0.0
1663672747779408051,1.5263452529907227,0.22509506344795227,0.0
1663672747842479547,1.5308213233947754,0.23072172701358795,0.0
1663672747896725389,1.5342068672180176,0.23556216061115265,0.0
1663672747938769776,1.5369527339935303,0.23985186219215393,0.0
1663672747997872952,1.5391632318496704,0.24362093210220337,0.0
1663672748049163479,1.5446887016296387,0.2477312535047531,0.0
1663672748108287892,1.5481038093566895,0.2516740560531616,0.0
1663672748168011685,1.5499714612960815,0.2559848129749298,0.0
1663672748209190658,1.550452470779419,0.25976455211639404,0.0
1663672748268618115,1.5466727018356323,0.26165735721588135,0.0
1663672748328769502,1.5437290668487549,0.26304081082344055,0.0
1663672748377908626,1.5407052040100098,0.26409101486206055,0.0
1663672748437861855,1.5376977920532227,0.26483413577079773,0.0
1663672748487892937,1.5335654020309448,0.266259104013443,0.0
1663672748548089753,1.530091404914856,0.2678071856498718,0.0
1663672748597916556,1.5265581607818604,0.269108384847641,0.0
1663672748657893532,1.5231345891952515,0.269167959690094,0.0
1663672748717854029,1.519152045249939,0.2698071002960205,0.0
1663672748767911064,1.5153228044509888,0.2702004611492157,0.0
1663672748817822203,1.5098901987075806,0.27226293087005615,0.0
1663672748877881827,1.5046392679214478,0.274150013923645,0.0
1663672748927933844,1.4996287822723389,0.27580809593200684,0.0
1663672748987843440,1.4940762519836426,0.2773037552833557,0.0
1663672748997390809,1.4924813508987427,0.278401643037796,0.0
1663672749046525665,1.4908769130706787,0.27933159470558167,0.0
1663672749111187279,1.4886388778686523,0.2804192304611206,0.0
1663672749168711767,1.4869043827056885,0.28422343730926514,0.0
1663672749217803297,1.484078049659729,0.28767287731170654,0.0
1663672749267852845,1.4825901985168457,0.29106608033180237,0.0
1663672749318901198,1.4804760217666626,0.2936178147792816,0.0
1663672749368661298,1.4782577753067017,0.2957252264022827,0.0
1663672749428909863,1.481707215309143,0.3005231022834778,0.0
1663672749478976762,1.4836089611053467,0.3049991726875305,0.0
1663672749537890860,1.48542320728302,0.30910441279411316,0.0
1663672749588479111,1.4903669357299805,0.31479448080062866,0.0
1663672749639264448,1.4948493242263794,0.32002395391464233,0.0
1663672749697842910,1.5035065412521362,0.3269120752811432,0.0
1663672749728578230,1.5112601518630981,0.3332696259021759,0.0
1663672749787918892,1.5183345079421997,0.3390606939792633,0.0
1663672749847846907,1.5222538709640503,0.3428594172000885,0.0
1663672749907949932,1.5261565446853638,0.3461551368236542,0.0
1663672749958047463,1.5279498100280762,0.3483182191848755,0.0
1663672750007848388,1.5266177654266357,0.34945768117904663,0.0
1663672750057836361,1.5252948999404907,0.35018351674079895,0.0
1663672750107993465,1.5238815546035767,0.35055258870124817,0.0
1663672750161523511,1.5200083255767822,0.3474324941635132,0.0
1663672750209360229,1.5152913331985474,0.34391701221466064,0.0
1663672750269834520,1.5112617015838623,0.3401643931865692,0.0
1663672750336128864,1.5082491636276245,0.33412086963653564,0.0
1663672750383133500,1.5050514936447144,0.32804346084594727,0.0
1663672750433702410,1.5020289421081543,0.32215702533721924,0.0
1663672750493414467,1.4986639022827148,0.31583884358406067,0.0
1663672750548901468,1.4957410097122192,0.3099380433559418,0.0
1663672750609897904,1.4894962310791016,0.30401989817619324,0.0
1663672750661741906,1.485185980796814,0.2988554835319519,0.0
1663672750718636318,1.4811118841171265,0.29408472776412964,0.0
1663672750777800983,1.4799351692199707,0.28830084204673767,0.0
1663672750822877955,1.4780913591384888,0.2822873890399933,0.0
1663672750869893270,1.4765888452529907,0.2767360806465149,0.0
1663672750929260149,1.4767974615097046,0.2720835208892822,0.0
1663672750972657716,1.476548433303833,0.26774153113365173,0.0
1663672751021791488,1.476491093635559,0.2621236741542816,0.0
1663672751079102460,1.4767976999282837,0.2571153938770294,0.0
1663672751140180079,1.4772828817367554,0.2526261806488037,0.0
1663672751197327326,1.4770822525024414,0.24874499440193176,0.0
1663672751259591663,1.4770698547363281,0.24552969634532928,0.0
1663672751317865854,1.4778825044631958,0.24337437748908997,0.0
1663672751377807999,1.482102632522583,0.24112622439861298,0.0
1663672751427805276,1.486589789390564,0.23929253220558167,0.0
1663672751487857603,1.4907915592193604,0.23785212635993958,0.0
1663672751537869424,1.4928741455078125,0.2344723492860794,0.0
1663672751568921683,1.4948850870132446,0.23152370750904083,0.0
1663672751631640752,1.4976359605789185,0.22983157634735107,0.0
1663672751688899340,1.5002394914627075,0.22838251292705536,0.0
1663672751749063395,1.5088260173797607,0.2256426066160202,0.0
1663672751782206434,1.5163754224777222,0.2231387048959732,0.0
1663672751839288269,1.5227025747299194,0.22112125158309937,0.0
1663672751888155367,1.526223063468933,0.22029784321784973,0.0
1663672751947882022,1.525825023651123,0.21878363192081451,0.0
1663672751999063300,1.5242103338241577,0.2167314887046814,0.0
1663672752047805229,1.5226835012435913,0.214979350566864,0.0
1663672752108063674,1.5201040506362915,0.2123512178659439,0.0
1663672752162507177,1.5177057981491089,0.20962707698345184,0.0
1663672752210688046,1.5152111053466797,0.20719550549983978,0.0
1663672752270695409,1.5106661319732666,0.20148880779743195,0.0
1663672752336263243,1.5056982040405273,0.19578349590301514,0.0
1663672752388924950,1.5000511407852173,0.18883909285068512,0.0
1663672752437838866,1.4937903881072998,0.1818637251853943,0.0
1663672752487844970,1.4821670055389404,0.173013836145401,0.0
1663672752538427466,1.4691715240478516,0.16409119963645935,0.0
1663672752587940828,1.455361247062683,0.1553979516029358,0.0
1663672752637833577,1.4423353672027588,0.14647319912910461,0.0
1663672752694252042,1.4295179843902588,0.13797123730182648,0.0
1663672752747809322,1.4170911312103271,0.12995262444019318,0.0
1663672752808851512,1.4110288619995117,0.12201156467199326,0.0
1663672752861663096,1.4045261144638062,0.11448615044355392,0.0
1663672752918525949,1.398314356803894,0.10751647502183914,0.0
1663672752969071539,1.3978347778320312,0.10417986661195755,0.0
1663672753029274962,1.3960553407669067,0.10114897042512894,0.0
1663672753088897603,1.3907057046890259,0.09794856607913971,0.0
1663672753148970240,1.3839645385742188,0.09524031728506088,0.0
1663672753188532860,1.378338098526001,0.09309682250022888,0.0
1663672753248947220,1.373411774635315,0.09135229885578156,0.0
1663672753308131197,1.3688851594924927,0.0894041657447815,0.0
1663672753359353287,1.3648662567138672,0.08774861693382263,0.0
1663672753417836760,1.3613313436508179,0.08637935668230057,0.0
1663672753467836830,1.3568832874298096,0.083162322640419,0.0
1663672753527830541,1.3540103435516357,0.0804438441991806,0.0
1663672753577926335,1.3518351316452026,0.07809603214263916,0.0
1663672753627782296,1.3496358394622803,0.07609842717647552,0.0
1663672753668953577,1.3475042581558228,0.07439185678958893,0.0
1663672753723729213,1.3424980640411377,0.07589410990476608,0.0
1663672753780896261,1.3378010988235474,0.07709914445877075,0.0
1663672753834885459,1.3361847400665283,0.07571995258331299,0.0
1663672753890352493,1.334977149963379,0.0746576189994812,0.0
1663672753938630023,1.3342297077178955,0.07390211522579193,0.0
1663672753999062278,1.334513545036316,0.07346030324697495,0.0
1663672754047823527,1.3354893922805786,0.07328520715236664,0.0
1663672754099294356,1.3368184566497803,0.07332426309585571,0.0
1663672754159364310,1.3414936065673828,0.07715646177530289,0.0
1663672754210400391,1.3445334434509277,0.08019533008337021,0.0
