%time,field.x,field.y,field.z
1666091715326947594,0.0,0.0,0.0
1666091715379030904,0.0,0.0,0.0
1666091715514076349,0.0,0.0,0.0
1666091715593393840,0.0,0.0,0.0
1666091715593521156,0.0,0.0,0.0
1666091715713320551,0.0,0.0,0.0
1666091715795405958,0.0,0.0,0.0
1666091715795633799,0.0,0.0,0.0
1666091715861557726,0.0,0.0,0.0
1666091715923853701,0.0,0.0,0.0
1666091716053336608,0.0,0.0,0.0
1666091716116589651,0.0,0.0,0.0
1666091716206845257,0.0,0.0,0.0
1666091716207647206,0.0,0.0,0.0
1666091716316456388,0.0,0.0,0.0
1666091716316508296,0.0,0.0,0.0
1666091716376971495,0.0,0.0,0.0
1666091716479925539,0.0,0.0,0.0
1666091716567251216,0.0,0.0,0.0
1666091716567525001,0.0,0.0,0.0
1666091716639160457,0.0,0.0,0.0
1666091716704269578,0.0,0.0,0.0
1666091716770840399,0.0,0.0,0.0
1666091716885376486,0.0,0.0,0.0
1666091716970335658,0.0,0.0,0.0
1666091716970587531,0.0,0.0,0.0
1666091717046707872,0.0,0.0,0.0
1666091717112177538,0.0,0.0,0.0
1666091717199942495,0.0,0.0,0.0
1666091717267996173,0.0,0.0,0.0
1666091717386470112,0.0,0.0,0.0
1666091717472322172,0.0,0.0,0.0
1666091717472394288,0.0,0.0,0.0
1666091717537851236,0.0,0.0,0.0
1666091717602419698,0.0,0.0,0.0
1666091717719973381,0.0,0.0,0.0
1666091717757186176,0.8585895895957947,-0.6986337900161743,0.0
1666091717817310280,0.8216897249221802,-0.7503483891487122,0.0
1666091717888795070,0.7999218106269836,-0.7882941961288452,0.0
1666091717987153790,0.7956675887107849,-0.8173947930335999,0.0
1666091718045163223,0.7784315347671509,-0.8588031530380249,0.0
1666091718193340063,0.7779082655906677,-0.8414690494537354,0.0
1666091718194425479,0.7718405723571777,-0.8262723684310913,0.0
1666091718280033648,0.767573356628418,-0.8178045153617859,0.0
1666091718341782518,0.7752900719642639,-0.8137901425361633,0.0
1666091718459901087,0.7585940361022949,-0.8214331865310669,0.0
1666091718554241046,0.7569066286087036,-0.8200236558914185,0.0
1666091718555843640,0.7554066181182861,-0.8163201808929443,0.0
1666091718657603276,0.7471247911453247,-0.8267948031425476,0.0
1666091718722296480,0.7499310970306396,-0.8120155334472656,0.0
1666091718790644543,0.7468497157096863,-0.7955343723297119,0.0
1666091718891299982,0.7524539828300476,-0.7783451080322266,0.0
1666091718959191241,0.7541674971580505,-0.7613717913627625,0.0
1666091719061102265,0.7531753778457642,-0.7362292408943176,0.0
1666091719139956135,0.7528722882270813,-0.7013620734214783,0.0
1666091719267176017,0.757747232913971,-0.6639934182167053,0.0
1666091719312585415,0.7692925930023193,-0.6262023448944092,0.0
1666091719365915933,0.7690201997756958,-0.5797223448753357,0.0
1666091719431585681,0.780107319355011,-0.5286648273468018,0.0
1666091719536167655,0.789510190486908,-0.4812059998512268,0.0
1666091719600086366,0.796057939529419,-0.4286554455757141,0.0
1666091719707749004,0.7990125417709351,-0.37862712144851685,0.0
1666091719729442661,0.8070488572120667,-0.3285696804523468,0.0
1666091719803254136,0.8097337484359741,-0.2883581817150116,0.0
1666091719929216547,0.8195123672485352,-0.2459118813276291,0.0
1666091720013552180,0.8276244401931763,-0.20884662866592407,0.0
1666091720053019887,0.8352991938591003,-0.16785646975040436,0.0
1666091720117287969,0.8433870077133179,-0.1352919340133667,0.0
1666091720195513666,0.8458420634269714,-0.1108788549900055,0.0
1666091720242902671,0.8487071394920349,-0.09186413139104843,0.0
1666091720303618579,0.8495779037475586,-0.08115902543067932,0.0
1666091720368313704,0.8550217151641846,-0.07418882846832275,0.0
1666091720470642598,0.8562706708908081,-0.06874030083417892,0.0
1666091720532516680,0.8618955016136169,-0.06118639558553696,0.0
1666091720617723378,0.8662883043289185,-0.059269532561302185,0.0
1666091720661455417,0.8709492683410645,-0.057980190962553024,0.0
1666091720769389196,0.8730536103248596,-0.06142106652259827,0.0
1666091720800043588,0.8720646500587463,-0.06851526349782944,0.0
1666091720907037282,0.8711512684822083,-0.0822610929608345,0.0
1666091720976515228,0.8720938563346863,-0.09402670711278915,0.0
1666091721038016637,0.8713182210922241,-0.10808369517326355,0.0
1666091721142011738,0.8671711087226868,-0.11689694970846176,0.0
1666091721224996613,0.8612431883811951,-0.12738746404647827,0.0
1666091721272462169,0.8525822758674622,-0.13039474189281464,0.0
1666091721365268078,0.842742383480072,-0.13730314373970032,0.0
1666091721407819097,0.8153589367866516,-0.14065560698509216,0.0
1666091721497235728,0.7897170782089233,-0.14021769165992737,0.0
1666091721620361130,0.7655314803123474,-0.14480268955230713,0.0
1666091721666920550,0.7341806292533875,-0.15123656392097473,0.0
1666091721776346311,0.7048259973526001,-0.1617184728384018,0.0
1666091721820346017,0.67464679479599,-0.1799093335866928,0.0
1666091721920815808,0.6454142332077026,-0.1883290410041809,0.0
1666091721999140107,0.6110314726829529,-0.19968192279338837,0.0
1666091722066858557,0.5834494829177856,-0.20314277708530426,0.0
1666091722186691684,0.5589550733566284,-0.2096298187971115,0.0
1666091722240598375,0.5395265221595764,-0.2091071605682373,0.0
1666091722301081734,0.5195140838623047,-0.21173663437366486,0.0
1666091722380017549,0.5026184916496277,-0.21037188172340393,0.0
1666091722480712454,0.4895564019680023,-0.20839695632457733,0.0
1666091722539343590,0.48066526651382446,-0.2029663473367691,0.0
1666091722626086387,0.4724465608596802,-0.19478349387645721,0.0
1666091722677527783,0.4696888029575348,-0.1883707195520401,0.0
1666091722769085484,0.46804964542388916,-0.1817428469657898,0.0
1666091722815287209,0.46325209736824036,-0.17594559490680695,0.0
1666091722903033666,0.4627254009246826,-0.1702539473772049,0.0
1666091722976497494,0.46489888429641724,-0.16491827368736267,0.0
1666091723042896081,0.46914178133010864,-0.15942783653736115,0.0
1666091723105424428,0.47504502534866333,-0.1539108008146286,0.0
1666091723148495613,0.4822152853012085,-0.14890074729919434,0.0
1666091723238837764,0.4898671507835388,-0.1441313624382019,0.0
1666091723302028164,0.49742814898490906,-0.13955646753311157,0.0
1666091723343661536,0.5072613954544067,-0.1349751353263855,0.0
1666091723439871854,0.5175665020942688,-0.1334100067615509,0.0
1666091723469148527,0.5287266969680786,-0.13303448259830475,0.0
1666091723541646573,0.5407618880271912,-0.1332322210073471,0.0
1666091723597968213,0.550590991973877,-0.13096489012241364,0.0
1666091723704783794,0.5624264478683472,-0.1305815428495407,0.0
1666091723782086336,0.5822060704231262,-0.13718831539154053,0.0
1666091723897266421,0.6063960790634155,-0.14308005571365356,0.0
1666091723898495086,0.6294279098510742,-0.14906463027000427,0.0
1666091723990381598,0.647503137588501,-0.1553528606891632,0.0
1666091724092653111,0.6611098051071167,-0.16344398260116577,0.0
1666091724192416715,0.6739570498466492,-0.16868209838867188,0.0
1666091724287784370,0.6863894462585449,-0.1768428087234497,0.0
1666091724378434186,0.6984075903892517,-0.18810923397541046,0.0
1666091724511574437,0.7084393501281738,-0.19944685697555542,0.0
1666091724592893545,0.7218779921531677,-0.2176123559474945,0.0
1666091724713003014,0.7354262471199036,-0.23604021966457367,0.0
1666091724817431111,0.7466327548027039,-0.25477761030197144,0.0
1666091724889907300,0.7586915493011475,-0.2738853991031647,0.0
1666091724891245653,0.766037106513977,-0.290986031293869,0.0
1666091724985865490,0.7656213045120239,-0.3056375980377197,0.0
1666091725059295499,0.76482754945755,-0.31740257143974304,0.0
1666091725132825949,0.7650617957115173,-0.3263503909111023,0.0
1666091725219754319,0.7756138443946838,-0.3401854932308197,0.0
1666091725290440587,0.7956750988960266,-0.35171931982040405,0.0
1666091725414271071,0.810920000076294,-0.356391042470932,0.0
1666091725486687760,0.8256479501724243,-0.36331304907798767,0.0
1666091725515764755,0.835140585899353,-0.3659489154815674,0.0
1666091725630768241,0.8500621318817139,-0.36922702193260193,0.0
1666091725632742075,0.8574100136756897,-0.36853739619255066,0.0
1666091725732328588,0.8736830353736877,-0.3676384687423706,0.0
1666091725813510009,0.9007522463798523,-0.3667699098587036,0.0
1666091725910147252,0.9282635450363159,-0.36728817224502563,0.0
1666091725964178942,0.9572024345397949,-0.37164250016212463,0.0
1666091726031275770,0.9942526817321777,-0.377394437789917,0.0
1666091726094732292,1.025039792060852,-0.38045915961265564,0.0
1666091726164193601,1.0572803020477295,-0.37862303853034973,0.0
1666091726273211491,1.0823137760162354,-0.35904964804649353,0.0
1666091726340564306,1.1080306768417358,-0.3452548384666443,0.0
1666091726413251028,1.132709264755249,-0.32786402106285095,0.0
1666091726530695473,1.1525747776031494,-0.32189396023750305,0.0
1666091726568127528,1.1688227653503418,-0.31606999039649963,0.0
1666091726634111413,1.1918548345565796,-0.3100298345088959,0.0
1666091726753576895,1.206038475036621,-0.2999805808067322,0.0
1666091726848017284,1.2103642225265503,-0.2951618432998657,0.0
1666091726892376317,1.22809898853302,-0.29102781414985657,0.0
1666091726939865445,1.2371469736099243,-0.28716179728507996,0.0
1666091727022357804,1.2461323738098145,-0.2848218083381653,0.0
1666091727159631444,1.2561286687850952,-0.28671085834503174,0.0
1666091727230017564,1.2479946613311768,-0.2829626202583313,0.0
1666091727308460682,1.2358295917510986,-0.2776356637477875,0.0
1666091727318310593,1.2220019102096558,-0.2717626094818115,0.0
1666091727384649320,1.20664644241333,-0.2640790343284607,0.0
1666091727509653668,1.1932294368743896,-0.2569676339626312,0.0
1666091727589752150,1.1825021505355835,-0.25017571449279785,0.0
1666091727637483007,1.1868027448654175,-0.24986909329891205,0.0
1666091727701736400,1.1903142929077148,-0.24416910111904144,0.0
1666091727781272135,1.1929768323898315,-0.24063652753829956,0.0
1666091727878493719,1.1986240148544312,-0.2427440583705902,0.0
1666091727969120211,1.204337477684021,-0.2469642609357834,0.0
1666091728033916733,1.211775302886963,-0.2551717460155487,0.0
1666091728081028864,1.2202311754226685,-0.2635258734226227,0.0
1666091728157410021,1.2282146215438843,-0.2734777331352234,0.0
1666091728205791030,1.2346497774124146,-0.28565797209739685,0.0
1666091728302739418,1.2294139862060547,-0.2939867377281189,0.0
1666091728344940776,1.228183627128601,-0.30704811215400696,0.0
1666091728440001753,1.2201716899871826,-0.318657249212265,0.0
1666091728474144804,1.203894853591919,-0.32833003997802734,0.0
1666091728536881805,1.1784615516662598,-0.33471038937568665,0.0
1666091728608328269,1.1515092849731445,-0.34316208958625793,0.0
1666091728724898091,1.1351161003112793,-0.3557761609554291,0.0
1666091728765122090,1.1214708089828491,-0.3706079125404358,0.0
1666091728885711920,1.1025733947753906,-0.38207903504371643,0.0
1666091728894804012,1.0888620615005493,-0.39620646834373474,0.0
1666091729035241785,1.0603008270263672,-0.4090159833431244,0.0
1666091729105287775,1.0298447608947754,-0.42302405834198,0.0
1666091729225075792,0.9996230006217957,-0.4353971779346466,0.0
1666091729304403367,0.9694910049438477,-0.44615617394447327,0.0
1666091729392223889,0.9401853680610657,-0.45493283867836,0.0
1666091729394184405,0.9126486778259277,-0.46005308628082275,0.0
1666091729466586321,0.883999764919281,-0.4658556878566742,0.0
1666091729570324745,0.8572519421577454,-0.4705151319503784,0.0
1666091729662370369,0.8364598155021667,-0.47792577743530273,0.0
1666091729735976786,0.8148858547210693,-0.4810705780982971,0.0
1666091729737280267,0.7979165315628052,-0.4850411117076874,0.0
1666091729804345624,0.8160849213600159,-0.47093677520751953,0.0
1666091729877730741,0.8310948014259338,-0.45646026730537415,0.0
1666091730007977564,0.8506761789321899,-0.44101646542549133,0.0
1666091730086018486,0.8580301403999329,-0.4431774914264679,0.0
1666091730124641584,0.8906620740890503,-0.4249376654624939,0.0
1666091730182499484,0.9221439361572266,-0.4004213213920593,0.0
1666091730274287027,0.9519657492637634,-0.37727391719818115,0.0
1666091730344334309,0.9649235010147095,-0.3664100468158722,0.0
1666091730408461749,0.982119083404541,-0.3526080846786499,0.0
1666091730493910931,1.0188828706741333,-0.3271442651748657,0.0
1666091730572957773,1.0541644096374512,-0.2989603579044342,0.0
1666091730616291168,1.0895427465438843,-0.2665098309516907,0.0
1666091730693981284,1.124548077583313,-0.23640397191047668,0.0
1666091730782473666,1.1719824075698853,-0.19862699508666992,0.0
1666091730854016761,1.2178013324737549,-0.1550070345401764,0.0
1666091730974447559,1.2602026462554932,-0.1147860512137413,0.0
1666091731016653621,1.296425223350525,-0.07439439743757248,0.0
1666091731050058451,1.325190544128418,-0.030130362138152122,0.0
1666091731141974093,1.3488738536834717,0.015140818431973457,0.0
1666091731248073108,1.359927773475647,0.04787330701947212,0.0
1666091731249609039,1.377952218055725,0.09169694036245346,0.0
1666091731312607096,1.3902498483657837,0.13391050696372986,0.0
1666091731392769529,1.3902684450149536,0.18355616927146912,0.0
1666091731527045704,1.3900113105773926,0.23504623770713806,0.0
1666091731590557336,1.3768178224563599,0.27908363938331604,0.0
1666091731684487611,1.3682923316955566,0.33981114625930786,0.0
1666091731799664898,1.3507554531097412,0.40490394830703735,0.0
1666091731868907455,1.3316537141799927,0.4609515070915222,0.0
1666091732001483830,1.3056776523590088,0.515460193157196,0.0
1666091732044149849,1.28411865234375,0.5762074589729309,0.0
1666091732170734027,1.2567989826202393,0.6241688132286072,0.0
1666091732172839486,1.2233576774597168,0.6651405692100525,0.0
1666091732273146092,1.1863576173782349,0.6984233856201172,0.0
1666091732401175581,1.1509836912155151,0.7260875105857849,0.0
1666091732448172463,1.1100634336471558,0.7486066818237305,0.0
1666091732571502769,1.0746194124221802,0.764297604560852,0.0
1666091732573066811,1.041900634765625,0.7741984128952026,0.0
1666091732671178415,1.0079995393753052,0.7786871194839478,0.0
1666091732755857209,0.977989673614502,0.7860515713691711,0.0
1666091732909620854,0.9557152986526489,0.79830002784729,0.0
1666091732940506576,0.9338191151618958,0.8079810738563538,0.0
1666091733007015355,0.9152381420135498,0.8123196363449097,0.0
1666091733089376025,0.8973086476325989,0.8082000017166138,0.0
1666091733219924888,0.872890293598175,0.7960672378540039,0.0
1666091733295461747,0.8532170057296753,0.7796829342842102,0.0
1666091733372478059,0.8358522057533264,0.7649143934249878,0.0
1666091733467496104,0.8209280371665955,0.7525476217269897,0.0
1666091733479156314,0.8044617176055908,0.7398419380187988,0.0
1666091733603358825,0.7910714745521545,0.7269704937934875,0.0
1666091733689119964,0.7783480882644653,0.7137605547904968,0.0
1666091733729546248,0.7708271145820618,0.6956564784049988,0.0
1666091733785618833,0.7643717527389526,0.6833431124687195,0.0
1666091733857345536,0.7611516714096069,0.6651361584663391,0.0
1666091734013633927,0.7541177868843079,0.6504078507423401,0.0
1666091734060377390,0.7463141679763794,0.640550434589386,0.0
1666091734113540845,0.7491433620452881,0.6371246576309204,0.0
1666091734189109291,0.7639346718788147,0.6117073893547058,0.0
1666091734318005854,0.7667864561080933,0.5964401364326477,0.0
1666091734371086186,0.7731078863143921,0.5787212252616882,0.0
1666091734443160569,0.7904634475708008,0.5618389248847961,0.0
1666091734532231031,0.8275214433670044,0.5241258144378662,0.0
1666091734605134069,0.8475649356842041,0.5016605854034424,0.0
1666091734651635840,0.8857317566871643,0.45767876505851746,0.0
1666091734747066868,0.914101243019104,0.41752415895462036,0.0
1666091734785880420,0.9466041326522827,0.388597697019577,0.0
1666091734853921754,0.9718001484870911,0.3742049038410187,0.0
1666091734922363486,1.016818642616272,0.35942113399505615,0.0
1666091734991324405,1.0594162940979004,0.34156709909439087,0.0
1666091735106535164,1.0967206954956055,0.3227652907371521,0.0
1666091735199699129,1.1310393810272217,0.30292657017707825,0.0
1666091735253224379,1.1628319025039673,0.28607097268104553,0.0
1666091735352291214,1.191344141960144,0.2659907937049866,0.0
1666091735421760659,1.223044991493225,0.23998460173606873,0.0
1666091735462912900,1.2434921264648438,0.21250556409358978,0.0
1666091735544429136,1.2700386047363281,0.17377473413944244,0.0
1666091735652772099,1.2869516611099243,0.14257466793060303,0.0
1666091735704769466,1.3054533004760742,0.11356537789106369,0.0
1666091735807293084,1.3207178115844727,0.08118018507957458,0.0
1666091735848355736,1.339369535446167,0.055127039551734924,0.0
1666091735896333933,1.3513628244400024,0.02841362915933132,0.0
1666091735962803319,1.354251503944397,-0.0012029469944536686,0.0
1666091736091805305,1.3539197444915771,-0.03225449472665787,0.0
1666091736144930699,1.341897964477539,-0.06586183607578278,0.0
1666091736204911810,1.3277909755706787,-0.10134222358465195,0.0
1666091736290246521,1.3234102725982666,-0.13116230070590973,0.0
1666091736326011357,1.3248779773712158,-0.14814060926437378,0.0
1666091736383413645,1.3263027667999268,-0.1672990471124649,0.0
1666091736452256386,1.323085069656372,-0.1837678849697113,0.0
1666091736578655859,1.3183984756469727,-0.20095402002334595,0.0
1666091736648518728,1.3043588399887085,-0.2123502939939499,0.0
1666091736716008408,1.2917993068695068,-0.2232145369052887,0.0
1666091736784482323,1.2790703773498535,-0.23509325087070465,0.0
1666091736851598043,1.2728335857391357,-0.24353919923305511,0.0
1666091736887118552,1.2623802423477173,-0.25376302003860474,0.0
1666091736996782980,1.251560091972351,-0.26349061727523804,0.0
1666091737019245567,1.2418036460876465,-0.2703477442264557,0.0
1666091737096684393,1.2304610013961792,-0.27293431758880615,0.0
1666091737217824922,1.2173784971237183,-0.2752530574798584,0.0
1666091737294254118,1.2057501077651978,-0.2766629755496979,0.0
1666091737372847449,1.189876914024353,-0.27601149678230286,0.0
1666091737452102001,1.1766544580459595,-0.2757363021373749,0.0
1666091737519749360,1.1593705415725708,-0.2822116017341614,0.0
1666091737593361131,1.1374132633209229,-0.2885628938674927,0.0
1666091737662550504,1.1193469762802124,-0.29736363887786865,0.0
1666091737714167604,1.109603762626648,-0.30775317549705505,0.0
1666091737789879605,1.101712942123413,-0.3222310245037079,0.0
1666091737877342960,1.0945732593536377,-0.3150172531604767,0.0
1666091737950708121,1.0835157632827759,-0.30708351731300354,0.0
1666091738020758769,1.0504040718078613,-0.31035521626472473,0.0
1666091738088276561,1.0194783210754395,-0.3165851831436157,0.0
1666091738184420122,0.9886131286621094,-0.3209863007068634,0.0
1666091738233433409,0.958946704864502,-0.3328837752342224,0.0
1666091738325168275,0.9222239851951599,-0.3616483807563782,0.0
1666091738370813669,0.8849593997001648,-0.3851645290851593,0.0
1666091738456075180,0.8526326417922974,-0.4065883159637451,0.0
1666091738523390149,0.8259960412979126,-0.42220544815063477,0.0
1666091738594729329,0.7981123328208923,-0.43717896938323975,0.0
1666091738638214602,0.7722288370132446,-0.45326751470565796,0.0
1666091738726806461,0.7490247488021851,-0.47003495693206787,0.0
1666091738792711534,0.7269387245178223,-0.484220415353775,0.0
1666091738842972087,0.7093104720115662,-0.4933972656726837,0.0
1666091738960952186,0.6972606778144836,-0.5048794746398926,0.0
1666091739004631063,0.690177857875824,-0.5120415091514587,0.0
1666091739081192104,0.7086156606674194,-0.5011422038078308,0.0
1666091739146414524,0.7064446210861206,-0.5046198964118958,0.0
1666091739238014938,0.7174946665763855,-0.505153477191925,0.0
1666091739239896525,0.7264663577079773,-0.4939826726913452,0.0
1666091739367552764,0.7395504713058472,-0.47778791189193726,0.0
1666091739451334901,0.7574683427810669,-0.46366262435913086,0.0
1666091739453215237,0.7991209030151367,-0.4492170512676239,0.0
1666091739610620996,0.8474286794662476,-0.4237360656261444,0.0
1666091739611958188,0.8918691277503967,-0.40178418159484863,0.0
1666091739710298936,0.9561655521392822,-0.35146912932395935,0.0
1666091739802499572,0.992082417011261,-0.3267686069011688,0.0
1666091739886318104,1.0255513191223145,-0.30033713579177856,0.0
1666091739976070997,1.0654425621032715,-0.2689407467842102,0.0
1666091740073606537,1.1079926490783691,-0.23731151223182678,0.0
1666091740179195130,1.1367032527923584,-0.20488059520721436,0.0
1666091740276993172,1.1695787906646729,-0.1687742918729782,0.0
1666091740363900477,1.202168345451355,-0.13380485773086548,0.0
1666091740457345223,1.23739492893219,-0.09943021833896637,0.0
1666091740536574783,1.2680869102478027,-0.06380448490381241,0.0
1666091740610603172,1.2915034294128418,-0.027694500982761383,0.0
1666091740716529963,1.3077908754348755,0.006525324657559395,0.0
1666091740817766523,1.3120557069778442,0.03199557587504387,0.0
1666091740908214929,1.3147462606430054,0.05489977076649666,0.0
1666091741051691450,1.3133941888809204,0.07657495141029358,0.0
1666091741053052507,1.3084132671356201,0.09449991583824158,0.0
1666091741131370958,1.3046311140060425,0.10877078771591187,0.0
1666091741243539638,1.301446795463562,0.12116193771362305,0.0
1666091741288557136,1.2984405755996704,0.1356755942106247,0.0
1666091741414094979,1.2978922128677368,0.1469614952802658,0.0
1666091741415351847,1.2927340269088745,0.14879575371742249,0.0
1666091741524648862,1.287785291671753,0.15260697901248932,0.0
1666091741607212499,1.2750262022018433,0.14819806814193726,0.0
1666091741754639277,1.2629915475845337,0.14685264229774475,0.0
1666091741785649710,1.2492598295211792,0.14477857947349548,0.0
1666091741855845509,1.2305341958999634,0.14185363054275513,0.0
1666091741945449784,1.2073081731796265,0.1424383819103241,0.0
1666091742072084351,1.1821653842926025,0.14058351516723633,0.0
1666091742121129995,1.153333306312561,0.1364133358001709,0.0
1666091742213694487,1.1432580947875977,0.13072139024734497,0.0
1666091742282500236,1.1158353090286255,0.12089990824460983,0.0
1666091742358693322,1.0852291584014893,0.11143911629915237,0.0
1666091742398716984,1.062846064567566,0.10209101438522339,0.0
1666091742460348870,1.0361303091049194,0.09030307084321976,0.0
1666091742529318512,1.011000633239746,0.06037060171365738,0.0
1666091742594110998,0.985689640045166,0.041818682104349136,0.0
1666091742677701112,0.9634915590286255,0.02968401461839676,0.0
1666091742798509734,0.9408814907073975,0.026637408882379532,0.0
1666091742847737016,0.9264282584190369,0.01710686832666397,0.0
1666091742940332714,0.9085017442703247,0.0098652895539999,0.0
1666091742982077052,0.8989791870117188,0.008937107399106026,0.0
1666091743044739014,0.8901900053024292,0.005331980064511299,0.0
1666091743120377428,0.8860794305801392,0.0045051719062030315,0.0
1666091743164085942,0.896594762802124,0.003343287156894803,0.0
1666091743228807592,0.9101529717445374,3.327289596199989e-05,0.0
1666091743287901424,0.9248942732810974,-0.004507894162088633,0.0
1666091743356236744,0.9428982734680176,-0.00942324660718441,0.0
1666091743422378055,0.9617987871170044,-0.015266748145222664,0.0
1666091743527325743,0.9753625988960266,-0.02382718399167061,0.0
1666091743616555661,0.9945400357246399,-0.03330754116177559,0.0
1666091743668634149,1.0047696828842163,-0.04268946126103401,0.0
1666091743759325996,1.0180690288543701,-0.05275604873895645,0.0
1666091743800959934,1.0215692520141602,-0.06408350169658661,0.0
1666091743861761109,1.0263150930404663,-0.074801005423069,0.0
1666091743933035234,1.0293500423431396,-0.08732550591230392,0.0
1666091744016263083,1.0422942638397217,-0.10243487358093262,0.0
1666091744117274411,1.0529162883758545,-0.11736460775136948,0.0
1666091744202865529,1.0584869384765625,-0.13065625727176666,0.0
1666091744267413254,1.0629419088363647,-0.14402838051319122,0.0
1666091744316978412,1.0709128379821777,-0.15677329897880554,0.0
1666091744383527067,1.0730832815170288,-0.1680418998003006,0.0
1666091744484512180,1.0743595361709595,-0.1797323226928711,0.0
1666091744612679690,1.0722728967666626,-0.19058123230934143,0.0
1666091744644626745,1.0786181688308716,-0.20612581074237823,0.0
1666091744750294038,1.080744743347168,-0.2217641919851303,0.0
1666091744813721441,1.09187912940979,-0.23838204145431519,0.0
1666091744899215440,1.084438681602478,-0.25323736667633057,0.0
1666091744938006394,1.0873463153839111,-0.2719988226890564,0.0
1666091745000262099,1.078679084777832,-0.2930751442909241,0.0
1666091745138718587,1.0660606622695923,-0.3123345673084259,0.0
1666091745201965908,1.0503727197647095,-0.3306792974472046,0.0
1666091745285106064,1.0342187881469727,-0.3461877405643463,0.0
1666091745320727531,1.013577938079834,-0.36294737458229065,0.0
1666091745438419574,0.991306722164154,-0.37852373719215393,0.0
1666091745455482984,0.9647166728973389,-0.3949816823005676,0.0
1666091745582713271,0.9362696409225464,-0.4093957543373108,0.0
1666091745667054664,0.9060389399528503,-0.42628055810928345,0.0
1666091745762836877,0.8681021928787231,-0.44017940759658813,0.0
1666091745878895452,0.8338398337364197,-0.4546048641204834,0.0
1666091745880109060,0.7989199161529541,-0.47422918677330017,0.0
1666091745989124458,0.7684820294380188,-0.49320000410079956,0.0
1666091746042167940,0.7336063385009766,-0.5104675889015198,0.0
1666091746116334323,0.7058362364768982,-0.5235931277275085,0.0
1666091746195516219,0.6851657032966614,-0.5339310169219971,0.0
1666091746311638988,0.669329822063446,-0.5478468537330627,0.0
1666091746402710053,0.6696925163269043,-0.5478506088256836,0.0
1666091746425534440,0.6753148436546326,-0.5457115769386292,0.0
1666091746544891370,0.6764043569564819,-0.5396695733070374,0.0
1666091746592157902,0.6935710310935974,-0.52786785364151,0.0
1666091746658363411,0.7154312133789062,-0.5196822285652161,0.0
1666091746724734107,0.7452656030654907,-0.5069891214370728,0.0
1666091746855353634,0.7802258133888245,-0.49871188402175903,0.0
1666091746866165675,0.819601833820343,-0.49200868606567383,0.0
1666091746941605488,0.8440646529197693,-0.49566543102264404,0.0
1666091747002860768,0.8787872195243835,-0.48286059498786926,0.0
1666091747091492798,0.9155384302139282,-0.4659477174282074,0.0
1666091747209587671,0.9614091515541077,-0.43778756260871887,0.0
1666091747317870468,0.9964717626571655,-0.4193642735481262,0.0
1666091747401558867,1.0322223901748657,-0.39828330278396606,0.0
1666091747447186780,1.0578557252883911,-0.3883706331253052,0.0
1666091747519573639,1.0833345651626587,-0.37426885962486267,0.0
1666091747630252220,1.1074693202972412,-0.3569220304489136,0.0
1666091747696918871,1.1244511604309082,-0.3380659818649292,0.0
1666091747775338468,1.1324411630630493,-0.31820404529571533,0.0
1666091747847780626,1.1508901119232178,-0.28458982706069946,0.0
1666091747995763854,1.1603031158447266,-0.24860772490501404,0.0
1666091747997222178,1.1731735467910767,-0.21763794124126434,0.0
1666091748126171678,1.1788043975830078,-0.18593089282512665,0.0
1666091748212967307,1.1846842765808105,-0.15937289595603943,0.0
1666091748303817661,1.1878266334533691,-0.1356809139251709,0.0
1666091748305804133,1.1889653205871582,-0.10659036785364151,0.0
1666091748456133687,1.1862237453460693,-0.0822203978896141,0.0
1666091748559613030,1.1836227178573608,-0.05761142075061798,0.0
1666091748561885666,1.178184151649475,-0.03433811664581299,0.0
1666091748672209474,1.1646968126296997,-0.014354574494063854,0.0
1666091748760219597,1.1584290266036987,0.007462963927537203,0.0
1666091748808128265,1.153817892074585,0.027184419333934784,0.0
1666091748927633689,1.1464824676513672,0.041197147220373154,0.0
1666091748929132484,1.147341012954712,0.04999924451112747,0.0
1666091749015325315,1.141676425933838,0.05380222201347351,0.0
1666091749123241572,1.1400498151779175,0.05553325265645981,0.0
1666091749199467036,1.143487572669983,0.05729260295629501,0.0
1666091749282605304,1.1429842710494995,0.05846294015645981,0.0
1666091749322991394,1.14094877243042,0.05806779861450195,0.0
1666091749384278314,1.1400196552276611,0.057224709540605545,0.0
1666091749497544985,1.1390302181243896,0.057379353791475296,0.0
1666091749540546827,1.139329433441162,0.05526858940720558,0.0
1666091749593844906,1.1435893774032593,0.0514148473739624,0.0
1666091749657977951,1.1526110172271729,0.05023953318595886,0.0
1666091749774118155,1.1635510921478271,0.057524923235177994,0.0
1666091749880203249,1.1778448820114136,0.06463002413511276,0.0
1666091749923551902,1.1911100149154663,0.07147986441850662,0.0
1666091749988919689,1.2007405757904053,0.08146462589502335,0.0
1666091750052442811,1.2069103717803955,0.09276425838470459,0.0
1666091750132234496,1.2150143384933472,0.10108290612697601,0.0
1666091750208415940,1.2189861536026,0.11509465426206589,0.0
1666091750281150798,1.2201530933380127,0.13563412427902222,0.0
1666091750397779894,1.2293392419815063,0.14831139147281647,0.0
1666091750432901619,1.2391119003295898,0.15987637639045715,0.0
1666091750517216426,1.2526015043258667,0.17182916402816772,0.0
1666091750584128827,1.265539526939392,0.18381556868553162,0.0
1666091750684437037,1.2790292501449585,0.19441412389278412,0.0
1666091750764305173,1.2963505983352661,0.20791061222553253,0.0
1666091750823412235,1.31024169921875,0.22218218445777893,0.0
1666091750871089613,1.3263890743255615,0.23569953441619873,0.0
1666091750961793207,1.343118667602539,0.2464963048696518,0.0
1666091751009415608,1.3592997789382935,0.2552805244922638,0.0
1666091751088337609,1.3767247200012207,0.2605290114879608,0.0
1666091751152895491,1.3900649547576904,0.26659339666366577,0.0
1666091751234322974,1.4003859758377075,0.27318593859672546,0.0
1666091751288111257,1.4064693450927734,0.2807650566101074,0.0
1666091751374804795,1.4102975130081177,0.2869049310684204,0.0
1666091751425013385,1.4136446714401245,0.29341790080070496,0.0
1666091751515458696,1.4326086044311523,0.30176323652267456,0.0
1666091751604507080,1.4441052675247192,0.30195245146751404,0.0
1666091751683779607,1.459609031677246,0.30268681049346924,0.0
1666091751697135849,1.4836004972457886,0.2800796329975128,0.0
1666091751825604628,1.5116678476333618,0.24237385392189026,0.0
1666091751909742792,1.5316333770751953,0.19194932281970978,0.0
1666091752025646797,1.5535435676574707,0.12321195006370544,0.0
1666091752078673146,1.5699506998062134,0.05401753634214401,0.0
1666091752198575347,1.5719256401062012,-0.01883796975016594,0.0
1666091752201222249,1.5899827480316162,-0.0811653882265091,0.0
1666091752269433833,1.5919363498687744,-0.16165462136268616,0.0
1666091752363229497,1.6040410995483398,-0.23334646224975586,0.0
1666091752444621469,1.6086307764053345,-0.3060096502304077,0.0
1666091752495082415,1.5828324556350708,-0.3863185942173004,0.0
1666091752539741665,1.5617938041687012,-0.4446350336074829,0.0
1666091752627754657,1.5518604516983032,-0.5091420412063599,0.0
1666091752677786650,1.5428061485290527,-0.5723520517349243,0.0
1666091752768110390,1.5290849208831787,-0.6328439712524414,0.0
1666091752806955020,1.5082192420959473,-0.686447024345398,0.0
1666091752885105623,1.472145676612854,-0.7334328293800354,0.0
1666091752976201260,1.4497549533843994,-0.7768179178237915,0.0
1666091752978028693,1.4245108366012573,-0.8164982199668884,0.0
1666091753053813815,1.4032483100891113,-0.8729162216186523,0.0
1666091753127520178,1.3708614110946655,-0.9028751850128174,0.0
1666091753203527472,1.345955491065979,-0.9249492883682251,0.0
1666091753268389032,1.3206448554992676,-0.9642291069030762,0.0
1666091753388543629,1.2885822057724,-0.9652262926101685,0.0
1666091753410793081,1.2635185718536377,-0.9939287304878235,0.0
1666091753530011805,1.2453701496124268,-1.0234357118606567,0.0
1666091753532132805,1.2327220439910889,-1.0501315593719482,0.0
1666091753631290457,1.2228484153747559,-1.0723803043365479,0.0
1666091753728934981,1.2093288898468018,-1.088114619255066,0.0
1666091753810628645,1.1925392150878906,-1.0979748964309692,0.0
1666091753812167081,1.176276683807373,-1.1044334173202515,0.0
1666091753922540020,1.1592172384262085,-1.1059342622756958,0.0
1666091753924154383,1.1410876512527466,-1.1074367761611938,0.0
1666091754029980628,1.1244651079177856,-1.1071158647537231,0.0
1666091754145164658,1.0997051000595093,-1.1029058694839478,0.0
1666091754229655163,1.074906826019287,-1.0981180667877197,0.0
1666091754339211359,1.047925353050232,-1.0966047048568726,0.0
1666091754450011235,1.0235235691070557,-1.0650346279144287,0.0
1666091754523615898,0.9929487109184265,-1.036054015159607,0.0
1666091754598579525,0.9706164002418518,-1.0021389722824097,0.0
1666091754694905676,0.9490776062011719,-0.9662508964538574,0.0
1666091754784594656,0.9345516562461853,-0.8973115682601929,0.0
1666091754899462773,0.916562557220459,-0.8262391090393066,0.0
1666091754993927030,0.9013822674751282,-0.7358496189117432,0.0
1666091755113742703,0.888613760471344,-0.6421013474464417,0.0
1666091755199661662,0.8726732134819031,-0.5514283180236816,0.0
1666091755312184423,0.8704040050506592,-0.4432297646999359,0.0
1666091755366628315,0.8801868557929993,-0.3413667380809784,0.0
1666091755493981467,0.9232692718505859,-0.21561768651008606,0.0
1666091755535643237,0.9374695420265198,-0.1252567172050476,0.0
1666091755662294008,0.9264512658119202,-0.03832907974720001,0.0
1666091755663531249,0.9316034317016602,0.04460225999355316,0.0
1666091755758475662,0.9402259588241577,0.12849925458431244,0.0
1666091755851978114,0.9514045119285583,0.2012348622083664,0.0
1666091755923522846,0.9577215313911438,0.263542115688324,0.0
1666091756031448489,0.9809778332710266,0.29868996143341064,0.0
1666091756081430449,0.9929031729698181,0.3266826272010803,0.0
1666091756149588102,1.0063066482543945,0.34984418749809265,0.0
1666091756294848693,1.013535737991333,0.38198983669281006,0.0
1666091756296465426,1.0182383060455322,0.393739253282547,0.0
1666091756396349466,1.0201398134231567,0.4054079055786133,0.0
1666091756469770807,1.0263679027557373,0.4172341525554657,0.0
1666091756547922948,1.035711407661438,0.4280574321746826,0.0
1666091756672584265,1.041867971420288,0.43526992201805115,0.0
1666091756709756242,1.0489870309829712,0.43773138523101807,0.0
1666091756828952632,1.0569286346435547,0.43970775604248047,0.0
1666091756830333658,1.0665072202682495,0.4401493966579437,0.0
1666091756927392735,1.0751936435699463,0.43872225284576416,0.0
1666091756999239467,1.0762557983398438,0.43602120876312256,0.0
1666091757107952124,1.0776408910751343,0.4324575960636139,0.0
1666091757190807659,1.084233045578003,0.43023133277893066,0.0
1666091757263783377,1.0952813625335693,0.4284619092941284,0.0
1666091757359895253,1.1027400493621826,0.4246581196784973,0.0
1666091757361521508,1.10914146900177,0.42242056131362915,0.0
1666091757438204200,1.1134800910949707,0.41794729232788086,0.0
1666091757564480439,1.114750862121582,0.4142739474773407,0.0
1666091757599660373,1.1173518896102905,0.4087305963039398,0.0
1666091757682287458,1.1173471212387085,0.40112218260765076,0.0
1666091757732073172,1.1163911819458008,0.3927643597126007,0.0
1666091757825169413,1.111769437789917,0.39002060890197754,0.0
1666091757892237264,1.1033062934875488,0.3808687925338745,0.0
1666091757940311299,1.0934293270111084,0.37203919887542725,0.0
1666091758008114968,1.0793814659118652,0.362014502286911,0.0
1666091758057808019,1.0646882057189941,0.35088884830474854,0.0
1666091758161536063,1.0483163595199585,0.33667588233947754,0.0
1666091758163260005,1.0328019857406616,0.32247069478034973,0.0
1666091758279009824,1.0168664455413818,0.3073764443397522,0.0
1666091758339153183,1.0026249885559082,0.29900360107421875,0.0
1666091758402315323,0.9869642853736877,0.2889678478240967,0.0
1666091758494448787,0.9675365090370178,0.2805248200893402,0.0
1666091758536097638,0.9488966464996338,0.25929969549179077,0.0
1666091758573421549,0.9340919256210327,0.23827332258224487,0.0
1666091758675436425,0.9123495221138,0.22727848589420319,0.0
1666091758734007986,0.8964107632637024,0.21597769856452942,0.0
1666091758827205450,0.8782426714897156,0.20418138802051544,0.0
1666091758833877219,0.860215425491333,0.19463689625263214,0.0
1666091758952478996,0.8433516621589661,0.1828179955482483,0.0
1666091759005390150,0.8290553092956543,0.1706952601671219,0.0
1666091759156543037,0.8317123055458069,0.1496313512325287,0.0
1666091759192583868,0.8342733383178711,0.1314958781003952,0.0
1666091759269142569,0.834404706954956,0.11750930547714233,0.0
1666091759312069913,0.8328136205673218,0.10615166276693344,0.0
1666091759389951224,0.8239191770553589,0.09897762537002563,0.0
1666091759465887850,0.8205980658531189,0.09404471516609192,0.0
1666091759477533832,0.8284583687782288,0.09025584161281586,0.0
1666091759551787817,0.8274442553520203,0.08741460740566254,0.0
1666091759660678272,0.8365978598594666,0.0843895748257637,0.0
1666091759724534279,0.8300345540046692,0.0843329057097435,0.0
1666091759777959796,0.8398173451423645,0.0833863615989685,0.0
1666091759839554501,0.8465821146965027,0.08132269233465195,0.0
1666091759971889161,0.852684497833252,0.07967469841241837,0.0
1666091760043836659,0.8506112098693848,0.07996922731399536,0.0
1666091760146264074,0.8487260341644287,0.08150159567594528,0.0
1666091760209882458,0.8452702164649963,0.08366167545318604,0.0
1666091760273089440,0.8555764555931091,0.08407379686832428,0.0
1666091760362786274,0.8635351657867432,0.08643503487110138,0.0
1666091760393644874,0.8623112440109253,0.08936791867017746,0.0
1666091760501442752,0.8689513206481934,0.09078160673379898,0.0
1666091760554396191,0.8703989386558533,0.09458044171333313,0.0
1666091760628623201,0.8702871203422546,0.0978967696428299,0.0
1666091760683905480,0.8757789731025696,0.09852521866559982,0.0
1666091760795031724,0.8720274567604065,0.09939823299646378,0.0
1666091760796475541,0.8692720532417297,0.10329553484916687,0.0
1666091760884607140,0.8670318722724915,0.10676656663417816,0.0
1666091760979242712,0.8708563446998596,0.10822822153568268,0.0
1666091761037819014,0.8685885667800903,0.1116054430603981,0.0
1666091761157754395,0.8676593899726868,0.11451342701911926,0.0
1666091761210607294,0.8646932244300842,0.11744559556245804,0.0
1666091761277509546,0.8689998388290405,0.12186942994594574,0.0
1666091761378674341,0.8655147552490234,0.12390801310539246,0.0
1666091761478339458,0.8616028428077698,0.12525619566440582,0.0
1666091761524345297,0.8670533299446106,0.11836039274930954,0.0
1666091761568053132,0.8711727261543274,0.11304684728384018,0.0
1666091761668195876,0.8679956197738647,0.11552409827709198,0.0
1666091761731002567,0.8655482530593872,0.11782193928956985,0.0
1666091761837159514,0.8631445169448853,0.11996195465326309,0.0
1666091761895351519,0.8720317482948303,0.11242623627185822,0.0
1666091761966578948,0.8802594542503357,0.1096513494849205,0.0
1666091762064966274,0.8791345357894897,0.11184727400541306,0.0
1666091762193328934,0.8753989934921265,0.11388803273439407,0.0
1666091762264153266,0.870000422000885,0.11591198295354843,0.0
1666091762265526861,0.8693655133247375,0.11782198399305344,0.0
1666091762371520983,0.867828905582428,0.11944188922643661,0.0
1666091762373229476,0.8635542988777161,0.12086048722267151,0.0
1666091762515076804,0.8665691614151001,0.12351673096418381,0.0
1666091762556265776,0.8719991445541382,0.11653357744216919,0.0
1666091762610698841,0.8731679320335388,0.1108614131808281,0.0
1666091762684186529,0.8797938823699951,0.10758757591247559,0.0
1666091762781642672,0.878980278968811,0.10956418514251709,0.0
1666091762879227188,0.8765243887901306,0.1121019795536995,0.0
1666091762963411604,0.8750980496406555,0.11412803828716278,0.0
1666091763035097609,0.8700254559516907,0.11651064455509186,0.0
1666091763120479256,0.8697865009307861,0.11873450130224228,0.0
1666091763188552287,0.86733478307724,0.12120137363672256,0.0
1666091763308142716,0.8626784682273865,0.12278081476688385,0.0
1666091763344327185,0.8629077076911926,0.1216885969042778,0.0
1666091763403951615,0.8620972037315369,0.12359684705734253,0.0
1666091763490997760,0.8569672703742981,0.12247035652399063,0.0
1666091763634247413,0.8508970141410828,0.12341444194316864,0.0
1666091763635559987,0.8554973602294922,0.12695153057575226,0.0
1666091763715354567,0.850341260433197,0.1280190497636795,0.0
1666091763807922999,0.8518751859664917,0.1295597404241562,0.0
1666091763869604019,0.8522667288780212,0.13065028190612793,0.0
1666091763939623893,0.8517144322395325,0.13143599033355713,0.0
1666091764069123768,0.8549302816390991,0.1329200118780136,0.0
1666091764165702153,0.852840006351471,0.13299740850925446,0.0
1666091764167362598,0.8497971892356873,0.13295093178749084,0.0
1666091764229432657,0.8487679362297058,0.13278482854366302,0.0
1666091764301341191,0.8519452214241028,0.1336434781551361,0.0
1666091764438554366,0.8529518246650696,0.13364249467849731,0.0
1666091764475179470,0.8520311713218689,0.13316383957862854,0.0
1666091764571675684,0.8481411933898926,0.1324179619550705,0.0
1666091764573200845,0.8476912379264832,0.13167555630207062,0.0
1666091764682437221,0.8558986186981201,0.11938926577568054,0.0
1666091764784591640,0.8652220368385315,0.11169957369565964,0.0
1666091764786033256,0.8760078549385071,0.10642553865909576,0.0
1666091764854520886,0.8802292943000793,0.10571403056383133,0.0
1666091764954320409,0.8888179659843445,0.10208161175251007,0.0
1666091765049561624,0.8923134803771973,0.102558434009552,0.0
1666091765061158615,0.893078625202179,0.10332915931940079,0.0
1666091765140312623,0.8954485058784485,0.09958640486001968,0.0
1666091765244924098,0.8993164896965027,0.10069220513105392,0.0
1666091765359929864,0.9020383358001709,0.10302594304084778,0.0
1666091765400663299,0.9059178829193115,0.10451245307922363,0.0
1666091765451217006,0.9095802307128906,0.10668300837278366,0.0
1666091765530189509,0.91129469871521,0.10906413197517395,0.0
1666091765651483140,0.9098302721977234,0.11184753477573395,0.0
1666091765711301468,0.9063076376914978,0.11311310529708862,0.0
1666091765811519997,0.9014108180999756,0.11454205960035324,0.0
1666091765899672407,0.8962411880493164,0.11522296816110611,0.0
1666091765946551686,0.8954852819442749,0.11683998256921768,0.0
1666091766033840070,0.892754316329956,0.117435984313488,0.0
1666091766069252465,0.8886318802833557,0.11794152855873108,0.0
1666091766146544913,0.8889098763465881,0.12024080753326416,0.0
1666091766214143369,0.8857940435409546,0.1211714893579483,0.0
1666091766265150082,0.8830116391181946,0.12314765900373459,0.0
1666091766314959226,0.8812751770019531,0.1272650510072708,0.0
1666091766375376744,0.8803361654281616,0.13247385621070862,0.0
1666091766441575061,0.8810557126998901,0.1362953782081604,0.0
1666091766505290732,0.8822681307792664,0.13846023380756378,0.0
1666091766575237656,0.8774834275245667,0.1402388960123062,0.0
1666091766702031763,0.8742737174034119,0.14161111414432526,0.0
1666091766757525123,0.8774010539054871,0.1438305675983429,0.0
1666091766832714400,0.8808093070983887,0.14488865435123444,0.0
1666091766882514846,0.8802592158317566,0.14127998054027557,0.0
1666091766968845639,0.8816841840744019,0.13920709490776062,0.0
1666091767012524310,0.8789991736412048,0.13675720989704132,0.0
1666091767117834328,0.8747793436050415,0.13370175659656525,0.0
1666091767147447393,0.8725571632385254,0.13263960182666779,0.0
1666091767213398725,0.86911541223526,0.12938779592514038,0.0
