%time,field.linear.x,field.linear.y,field.linear.z,field.angular.x,field.angular.y,field.angular.z
1666091704751108873,0.0,0.0,0.0,0.0,0.0,0.0
1666091704771377814,0.0,0.0,0.0,0.0,0.0,0.0
1666091704791197433,0.0,0.0,0.0,0.0,0.0,0.0
1666091704811148776,0.0,0.0,0.0,0.0,0.0,0.0
1666091704830101042,0.0,0.0,0.0,0.0,0.0,0.0
1666091704850052474,0.0,0.0,0.0,0.0,0.0,0.0
1666091704870048630,0.0,0.0,0.0,0.0,0.0,0.0
1666091704890081384,0.0,0.0,0.0,0.0,0.0,0.0
1666091704911053684,0.0,0.0,0.0,0.0,0.0,0.0
1666091704952019734,0.0,0.0,0.0,0.0,0.0,0.0
1666091704952026877,0.0,0.0,0.0,0.0,0.0,0.0
1666091705000033669,0.0,0.0,0.0,0.0,0.0,0.0
1666091705000048462,0.0,0.0,0.0,0.0,0.0,0.0
1666091705044044119,0.0,0.0,0.0,0.0,0.0,0.0
1666091705044055361,0.0,0.0,0.0,0.0,0.0,0.0
1666091705088034257,0.0,0.0,0.0,0.0,0.0,0.0
1666091705088042467,0.0,0.0,0.0,0.0,0.0,0.0
1666091705132026235,0.0,0.0,0.0,0.0,0.0,0.0
1666091705132039464,0.0,0.0,0.0,0.0,0.0,0.0
1666091705132050258,0.0,0.0,0.0,0.0,0.0,0.0
1666091705176024766,0.0,0.0,0.0,0.0,0.0,0.0
1666091705176035214,0.0,0.0,0.0,0.0,0.0,0.0
1666091705190952474,0.0,0.0,0.0,0.0,0.0,0.0
1666091705211914093,0.0,0.0,0.0,0.0,0.0,0.0
1666091705252066306,-0.002132302208337933,0.0,0.0,0.0,0.0,0.0
1666091705252074887,-0.004264604416675866,0.0,0.0,0.0,0.0,0.0
1666091705296106449,-0.002132302208337933,0.0,0.0,0.0,0.0,0.0
1666091705296120250,0.0,0.0,0.0,0.0,0.0,0.0
1666091705340024471,0.0,0.0,0.0,0.0,0.0,-0.015009831567151233
1666091705340033160,0.0,0.0,0.0,0.0,0.0,-0.020245819323134222
1666091705384021166,0.0,0.0,0.0,0.0,0.0,-0.013788101090755204
1666091705384031514,0.0,0.0,0.0,0.0,0.0,-0.005585053606381855
1666091705428024560,0.0,0.0,0.0,0.0,0.0,0.0
1666091705428034657,0.0,0.0,0.0,0.0,0.0,0.0
1666091705472031152,0.0,0.0,0.0,0.0,0.0,0.0
1666091705472045849,0.0,0.0,0.0,0.0,0.0,0.0
1666091705472056335,0.0,0.0,0.0,0.0,0.0,0.0
1666091705516026690,0.0,0.0,0.0,0.0,0.0,0.0
1666091705516036930,0.0,0.0,0.0,0.0,0.0,0.0
1666091705532378096,0.0,0.0,0.0,0.0,0.0,0.0
1666091705550829425,0.0,0.0,0.0,0.0,0.0,0.0
1666091705592073041,0.0,0.0,0.0,0.0,0.0,0.0
1666091705592085306,0.0,0.0,0.0,0.0,0.0,0.0
1666091705636094198,0.0,0.0,0.0,0.0,0.0,0.0
1666091705636101763,0.0,0.0,0.0,0.0,0.0,0.0
1666091705680066989,0.0,0.0,0.0,0.0,0.0,0.0
1666091705680077276,0.0,0.0,0.0,0.0,0.0,0.0
1666091705724057722,0.0,0.0,0.0,0.0,0.0,0.0
1666091705724066292,0.0,0.0,0.0,0.0,0.0,0.0
1666091705772027476,0.0,0.0,0.0,0.0,0.0,0.0
1666091705772040383,0.0,0.0,0.0,0.0,0.0,0.0
1666091705772047186,0.0,0.0,0.0,0.0,0.0,0.0
1666091705816026207,0.0,0.0,0.0,0.0,0.0,0.0
1666091705816035463,0.0,0.0,0.0,0.0,0.0,0.0
1666091705831688166,0.0,0.0,0.0,0.0,0.0,0.0
1666091705850774977,0.0,0.0,0.0,0.0,0.0,0.0
1666091705892032850,0.0,0.0,0.0,0.0,0.0,0.0
1666091705892040922,0.0,0.0,0.0,0.0,0.0,0.0
1666091705936068248,0.0,0.0,0.0,0.0,0.0,0.0
1666091705936077826,0.0,0.0,0.0,0.0,0.0,0.0
1666091705980063358,0.0,0.0,0.0,0.0,0.0,0.0
1666091705980071943,0.0,0.0,0.0,0.0,0.0,0.0
1666091706024060633,0.0,0.0,0.0,0.0,0.0,0.0
1666091706024071593,0.0,0.0,0.0,0.0,0.0,0.0
1666091706068029077,0.0,0.0,0.0,0.0,0.0,0.0
1666091706068037817,0.0,0.0,0.0,0.0,0.0,0.0
1666091706112060343,0.0,0.0,0.0,0.0,0.0,0.0
1666091706112070263,0.0,0.0,0.0,0.0,0.0,0.0
1666091706112073463,0.0,0.0,0.0,0.0,0.0,0.0
1666091706156034368,0.0,0.0,0.0,0.0,0.0,0.0
1666091706156040196,0.0,0.0,0.0,0.0,0.0,0.0
1666091706171495643,0.0,0.0,0.0,0.0,0.0,0.0
1666091706191471218,0.0,0.0,0.0,0.0,0.0,0.0
1666091706232018394,0.0,0.0,0.0,0.0,0.0,0.0
1666091706232026396,0.0,0.0,0.0,0.0,0.0,0.0
1666091706280030754,0.0,0.0,0.0,0.0,0.0,0.0
1666091706280038997,0.0,0.0,0.0,0.0,0.0,0.0
1666091706324060018,0.0,0.0,0.0,0.0,0.0,0.0
1666091706324071076,0.0,0.0,0.0,0.0,0.0,0.0
1666091706368058246,0.0,0.0,0.0,0.0,0.0,0.0
1666091706368070601,0.0,0.0,0.0,0.0,0.0,0.0
1666091706412044631,0.0,0.0,0.0,0.0,0.0,0.0
1666091706412056818,0.0,0.0,0.0,0.0,0.0,0.0
1666091706412065043,0.0,0.0,0.0,0.0,0.0,0.0
1666091706456085516,0.0,0.0,0.0,0.0,0.0,0.0
1666091706456096445,0.0,0.0,0.0,0.0,0.0,0.0
1666091706471566947,0.0,0.0,0.0,0.0,0.0,0.0
1666091706491501793,0.0,0.0,0.0,0.0,0.0,0.0
1666091706536057610,0.0,0.0,0.0,0.0,0.0,0.0
1666091706536065741,0.0,0.0,0.0,0.0,0.0,0.0
1666091706580039667,0.0,0.0,0.0,0.0,0.0,0.0
1666091706580052496,0.0,0.0,0.0,0.0,0.0,0.0
1666091706624040251,0.0,0.0,0.0,0.0,0.0,0.0
1666091706624053361,0.0,0.0,0.0,0.0,0.0,0.0
1666091706672036716,0.0,0.0,0.0,0.0,0.0,0.0
1666091706672046662,0.0,0.0,0.0,0.0,0.0,0.0
1666091706672050694,0.0,0.0,0.0,0.0,0.0,0.0
1666091706716037364,0.0,0.0,0.0,0.0,0.0,0.0
1666091706716046621,0.0,0.0,0.0,0.0,0.0,0.0
1666091706731269336,0.0,0.0,0.0,0.0,0.0,0.0
1666091706752244909,0.0,0.0,0.0,0.0,0.0,0.0
1666091706796155213,0.0,0.0,0.0,0.0,0.0,0.0
1666091706796170525,0.0,0.0,0.0,0.0,0.0,0.0
1666091706844075368,0.0,0.0,0.0,0.0,0.0,0.0
1666091706844086803,0.0,0.0,0.0,0.0,0.0,0.0
1666091706888039658,0.0,0.0,0.0,0.0,0.0,0.0
1666091706888050709,0.0,0.0,0.0,0.0,0.0,0.0
1666091706932106779,0.0,0.0,0.0,0.0,0.0,0.0
1666091706932129660,0.0,0.0,0.0,0.0,0.0,0.0
1666091706932138008,0.0,0.0,0.0,0.0,0.0,0.0
1666091706976073644,0.0,0.0,0.0,0.0,0.0,0.0
1666091706976081509,0.0,0.0,0.0,0.0,0.0,0.0
1666091706991216043,0.0,0.0,0.0,0.0,0.0,0.0
1666091707011279698,0.0,0.0,0.0,0.0,0.0,0.0
1666091707056043818,0.0,0.0,0.0,0.0,0.0,0.0
1666091707056059484,0.0,0.0,0.0,0.0,0.0,0.0
1666091707100039726,0.0,0.0,0.0,0.0,0.0,0.0
1666091707100049766,0.0,0.0,0.0,0.0,0.0,0.0
1666091707144055927,0.0,0.0,0.0,0.0,0.0,0.0
1666091707144066118,0.0,0.0,0.0,0.0,0.0,0.0
1666091707188048353,0.0,0.0,0.0,0.0,0.0,0.0
1666091707188059980,0.0,0.0,0.0,0.0,0.0,0.0
1666091707232070658,0.0,0.0,0.0,0.0,0.0,0.0
1666091707232084058,0.0,0.0,0.0,0.0,0.0,0.0
1666091707276046081,0.0,0.0,0.0,0.0,0.0,0.0
1666091707276056461,0.0,0.0,0.0,0.0,0.0,0.0
1666091707276064126,0.0,0.0,0.0,0.0,0.0,0.0
1666091707320029073,0.0,0.0,0.0,0.0,0.0,0.0
1666091707320034820,0.0,0.0,0.0,0.0,0.0,0.0
1666091707331037294,0.0,0.0,0.0,0.0,0.0,0.0
1666091707351946633,0.0,0.0,0.0,0.0,0.0,0.0
1666091707392383307,0.0,0.0,0.0,0.0,0.0,0.0
1666091707440261567,0.0,0.0,0.0,0.0,0.0,0.0
1666091707440278921,0.0,0.0,0.0,0.0,0.0,0.0
1666091707440287365,0.0,0.0,0.0,0.0,0.0,0.0
1666091707488206520,0.0,0.0,0.0,0.0,0.0,0.0
1666091707488241077,0.0,0.0,0.0,0.0,0.0,0.0
1666091707492149642,0.0,0.0,0.0,0.0,0.0,0.0
1666091707512092423,0.0,0.0,0.0,0.0,0.0,0.0
1666091707560262912,0.0,0.0,0.0,0.0,0.0,0.0
1666091707560301663,0.0,0.0,0.0,0.0,0.0,0.0
1666091707615937463,0.0,0.0,0.0,0.0,0.0,0.0
1666091707615966712,0.0,0.0,0.0,0.0,0.0,0.0
1666091707615977474,0.0,0.0,0.0,0.0,0.0,0.0
1666091707656107934,0.0,0.0,0.0,0.0,0.0,0.0
1666091707656126603,-0.002132302208337933,0.0,0.0,0.0,0.0,-0.005061454830783556
1666091707672373825,0.0,0.0,0.0,0.0,0.0,0.0
1666091707692225510,-0.002132302208337933,0.0,0.0,0.0,0.0,0.0
1666091707736195358,-0.002132302208337933,0.0,0.0,0.0,0.0,0.0
1666091707736231846,-0.004264604416675866,0.0,0.0,0.0,0.0,-0.005061454830783556
1666091707780084912,0.0,0.0,0.0,0.0,0.0,-0.010122909661567111
1666091707780098326,0.0,0.0,0.0,0.0,0.0,-0.01308996938995747
1666091707828269492,0.0,0.0,0.0,0.0,0.0,-0.010297442586766544
1666091707828299807,0.0,0.0,0.0,0.0,0.0,0.0
1666091707872212559,0.0,0.0,0.0,0.0,0.0,0.0
1666091707872242025,0.0,0.0,0.0,0.0,0.0,0.0
1666091707920178556,0.0,0.0,0.0,0.0,0.0,0.0
1666091707920216977,0.0,0.0,0.0,0.0,0.0,0.0
1666091707920240471,0.0,0.0,0.0,0.0,0.0,0.0
1666091707964064525,0.0,0.0,0.0,0.0,0.0,0.0
1666091707964078761,0.0,0.0,0.0,0.0,0.0,0.0
1666091707973477852,0.0,0.0,0.0,0.0,0.0,0.0
1666091707992215713,0.0,0.0,0.0,0.0,0.0,0.0
1666091708036102347,0.0,0.0,0.0,0.0,0.0,0.0
1666091708036121013,0.0,0.0,0.0,0.0,0.0,0.0
1666091708080132256,0.0,0.0,0.0,0.0,0.0,0.0
1666091708080151465,0.0,0.0,0.0,0.0,0.0,0.0
1666091708124074350,0.0,0.0,0.0,0.0,0.0,0.0
1666091708124088427,0.0,0.0,0.0,0.0,0.0,0.0
1666091708172086162,0.0,0.0,0.0,0.0,0.0,0.0
1666091708172103106,0.0,0.0,0.0,0.0,0.0,0.0
1666091708172112726,0.0,0.0,0.0,0.0,0.0,0.0
1666091708216042669,0.0,0.0,0.0,0.0,0.0,0.0
1666091708216051170,0.0,0.0,0.0,0.0,0.0,0.0
1666091708231802083,0.0,0.0,0.0,0.0,0.0,0.0
1666091708251709925,0.0,0.0,0.0,0.0,0.0,0.0
1666091708296059151,0.0,0.0,0.0,0.0,0.0,0.0
1666091708296072362,0.0,0.0,0.0,0.0,0.0,0.0
1666091708340069136,0.0,0.0,0.0,0.0,0.0,0.0
1666091708340084364,0.0,0.0,0.0,0.0,0.0,0.0
1666091708384050260,0.0,0.0,0.0,0.0,0.0,0.0
1666091708384072599,0.0,0.0,0.0,0.0,0.0,0.0
1666091708432041477,0.0,0.0,0.0,0.0,0.0,0.0
1666091708432052173,0.0,0.0,0.0,0.0,0.0,0.0
1666091708480068848,0.0,0.0,0.0,0.0,0.0,0.0
1666091708480081818,0.0,0.0,0.0,0.0,0.0,0.0
1666091708480091544,0.0,0.0,0.0,0.0,0.0,0.0
1666091708524100407,0.0,0.0,0.0,0.0,0.0,0.0
1666091708524115040,0.0,0.0,0.0,0.0,0.0,0.0
1666091708532071644,0.0,0.0,0.0,0.0,0.0,0.0
1666091708551619126,0.0,0.0,0.0,0.0,0.0,0.0
1666091708592096255,0.0,0.0,0.0,0.0,0.0,0.0
1666091708636088862,0.0,0.0,0.0,0.0,0.0,0.0
1666091708636106805,0.0,0.0,0.0,0.0,0.0,0.0
1666091708636135233,0.0,0.0,0.0,0.0,0.0,0.0
1666091708680090731,0.0,0.0,0.0,0.0,0.0,0.0
1666091708680105999,0.0,0.0,0.0,0.0,0.0,0.0
1666091708692484735,0.0,0.0,0.0,0.0,0.0,0.0
1666091708713710821,0.0,0.0,0.0,0.0,0.0,0.0
1666091708760075232,0.0,0.0,0.0,0.0,0.0,0.0
1666091708760121127,0.0,0.0,0.0,0.0,0.0,0.0
1666091708804176671,0.0,0.0,0.0,0.0,0.0,0.0
1666091708804192438,0.0,0.0,0.0,0.0,0.0,0.0
1666091708848132579,0.0,0.0,0.0,0.0,0.0,0.0
1666091708848152441,0.0,0.0,0.0,0.0,0.0,0.0
1666091708892120526,0.0,0.0,0.0,0.0,0.0,0.0
1666091708892129899,0.0,0.0,0.0,0.0,0.0,0.0
1666091708936138086,0.0,0.0,0.0,0.0,0.0,0.0
1666091708936156507,0.0,0.0,0.0,0.0,0.0,0.0
1666091708936174280,0.0,0.0,0.0,0.0,0.0,0.0
1666091708984102200,0.0,0.0,0.0,0.0,0.0,0.0
1666091708984118324,0.0,0.0,0.0,0.0,0.0,0.0
1666091708992612656,0.0,0.0,0.0,0.0,0.0,0.0
1666091709012850874,0.0,0.0,0.0,0.0,0.0,0.0
1666091709056134976,0.0,0.0,0.0,0.0,0.0,0.0
1666091709056146820,0.0,0.0,0.0,0.0,0.0,0.0
1666091709100236130,0.0,0.0,0.0,0.0,0.0,0.0
1666091709100268527,0.0,0.0,0.0,0.0,0.0,0.0
1666091709144170907,0.0,0.0,0.0,0.0,0.0,0.0
1666091709144199203,0.0,0.0,0.0,0.0,0.0,0.0
1666091709188076679,0.0,0.0,0.0,0.0,0.0,0.0
1666091709188093062,-0.004264604416675866,0.0,0.0,0.0,0.0,0.0
1666091709232154514,-0.008529208833351731,0.0,0.0,0.0,0.0,-0.0008726646259971648
1666091709232179726,-0.004264604416675866,0.0,0.0,0.0,0.0,-0.003316125578789226
1666091709276357729,-0.002132302208337933,0.0,0.0,0.0,0.0,-0.012566370614359173
1666091709276378057,0.0,0.0,0.0,0.0,0.0,-0.011344640137963142
1666091709276391791,0.0,0.0,0.0,0.0,0.0,0.0
1666091709324097951,0.0,0.0,0.0,0.0,0.0,0.0
1666091709324110523,0.0,0.0,0.0,0.0,0.0,0.0
1666091709334526179,0.0,0.0,0.0,0.0,0.0,0.0
1666091709353335230,0.0,0.0,0.0,0.0,0.0,0.0
1666091709396180441,0.0,0.0,0.0,0.0,0.0,0.0
1666091709396198108,0.0,0.0,0.0,0.0,0.0,0.0
1666091709440068797,0.0,0.0,0.0,0.0,0.0,0.0
1666091709440084863,0.0,0.0,0.0,0.0,0.0,0.0
1666091709484083218,0.0,0.0,0.0,0.0,0.0,0.0
1666091709484099922,0.0,0.0,0.0,0.0,0.0,0.0
1666091709528078688,0.0,0.0,0.0,0.0,0.0,0.0
1666091709528092691,0.0,0.0,0.0,0.0,0.0,0.0
1666091709572203426,0.0,0.0,0.0,0.0,0.0,0.0
1666091709572224469,0.0,0.0,0.0,0.0,0.0,0.0
1666091709616091600,0.0,0.0,0.0,0.0,0.0,0.0
1666091709616109309,0.0,0.0,0.0,0.0,0.0,0.0
1666091709616114769,0.0,0.0,0.0,0.0,0.0,0.0
1666091709664366259,0.0,0.0,0.0,0.0,0.0,0.0
1666091709664400494,0.0,0.0,0.0,0.0,0.0,0.0
1666091709673460818,0.0,0.0,0.0,0.0,0.0,0.0
1666091709693272596,0.0,0.0,0.0,0.0,0.0,0.0
1666091709736080647,0.0,0.0,0.0,0.0,0.0,0.0
1666091709736096678,0.0,0.0,0.0,0.0,0.0,0.0
1666091709780402052,0.0,0.0,0.0,0.0,0.0,0.0
1666091709780447762,0.0,0.0,0.0,0.0,0.0,0.0
1666091709824088366,0.0,0.0,0.0,0.0,0.0,0.0
1666091709824099641,0.0,0.0,0.0,0.0,0.0,0.0
1666091709868124800,0.0,0.0,0.0,0.0,0.0,0.0
1666091709868144162,0.0,0.0,0.0,0.0,0.0,0.0
1666091709912733128,0.0,0.0,0.0,0.0,0.0,0.0
1666091709912782933,0.0,0.0,0.0,0.0,0.0,0.0
1666091709960073189,0.0,0.0,0.0,0.0,0.0,0.0
1666091709960087495,0.0,0.0,0.0,0.0,0.0,0.0
1666091709960103165,0.0,0.0,0.0,0.0,0.0,0.0
1666091710000196375,0.0,0.0,0.0,0.0,0.0,0.0
1666091710000231789,0.0,0.0,0.0,0.0,0.0,0.0
1666091710013894063,0.0,0.0,0.0,0.0,0.0,0.0
1666091710033547453,0.0,0.0,0.0,0.0,0.0,0.0
1666091710080234034,0.0,0.0,0.0,0.0,0.0,0.0
1666091710080261453,0.0,0.0,0.0,0.0,0.0,0.0
1666091710128094476,0.0,0.0,0.0,0.0,0.0,0.0
1666091710128111261,0.0,0.0,0.0,0.0,0.0,0.0
1666091710172127894,0.0,0.0,0.0,0.0,0.0,0.0
1666091710172150095,0.0,0.0,0.0,0.0,0.0,0.0
1666091710216342367,0.0,0.0,0.0,0.0,0.0,0.0
1666091710216370231,0.0,0.0,0.0,0.0,0.0,0.0
1666091710216377930,0.0,0.0,0.0,0.0,0.0,0.0
1666091710260050576,0.0,0.0,0.0,0.0,0.0,0.0
1666091710260061171,0.0,0.0,0.0,0.0,0.0,0.0
1666091710274246524,0.0,0.0,0.0,0.0,0.0,0.0
1666091710293191276,0.0,0.0,0.0,0.0,0.0,0.0
1666091710340098519,0.0,0.0,0.0,0.0,0.0,0.0
1666091710340109755,0.0,0.0,0.0,0.0,0.0,0.0
1666091710388139844,0.0,0.0,0.0,0.0,0.0,0.0
1666091710388155760,0.0,0.0,0.0,0.0,0.0,0.0
1666091710432173001,0.0,0.0,0.0,0.0,0.0,0.0
1666091710432197384,0.0,0.0,0.0,0.0,0.0,0.0
1666091710480185883,0.0,0.0,0.0,0.0,0.0,0.0
1666091710480209917,0.0,0.0,0.0,0.0,0.0,0.0
1666091710480444812,0.0,0.0,0.0,0.0,0.0,0.0
1666091710524176167,0.0,0.0,0.0,0.0,0.0,0.0
1666091710524198178,0.0,0.0,0.0,0.0,0.0,0.0
1666091710533856384,0.0,0.0,0.0,0.0,0.0,0.0
1666091710552933114,0.0,0.0,0.0,0.0,0.0,0.0
1666091710600885976,0.0,0.0,0.0,0.0,0.0,0.0
1666091710600900890,0.0,0.0,0.0,0.0,0.0,0.0
1666091710644229036,0.0,0.0,0.0,0.0,0.0,0.0
1666091710644265543,0.0,0.0,0.0,0.0,0.0,0.0
1666091710688093814,0.0,0.0,0.0,0.0,0.0,0.0
1666091710688117696,0.0,0.0,0.0,0.0,0.0,0.0
1666091710732327845,0.0,0.0,0.0,0.0,0.0,0.0
1666091710732352995,0.0,0.0,0.0,0.0,0.0,0.0
1666091710776124167,0.0,0.0,0.0,0.0,0.0,0.0
1666091710776153550,0.0,0.0,0.0,0.0,0.0,0.0
1666091710776174540,0.0,0.0,0.0,0.0,0.0,0.0
1666091710820091707,0.0,0.0,0.0,0.0,0.0,0.0
1666091710820100982,0.0,0.0,0.0,0.0,0.0,0.0
1666091710833506206,0.0,0.0,0.0,0.0,0.0,0.0
1666091710853591608,0.0,0.0,0.0,0.0,0.0,0.0
1666091710896103249,0.0,0.0,0.0,0.0,0.0,0.0
1666091710896128357,0.0,0.0,0.0,0.0,0.0,0.0
1666091710944151695,0.0,0.0,0.0,0.0,0.0,0.0
1666091710944174648,0.0,0.0,0.0,0.0,0.0,0.0
1666091710988121384,0.0,0.0,0.0,0.0,0.0,0.0
1666091710988145945,0.0,0.0,0.0,0.0,0.0,0.0
1666091711032090822,0.0,0.0,0.0,0.0,0.0,0.0
1666091711032108103,0.0,0.0,0.0,0.0,0.0,0.0
1666091711076141056,0.0,0.0,0.0,0.0,0.0,0.0
1666091711076158117,0.0,0.0,0.0,0.0,0.0,0.0
1666091711076175430,0.0,0.0,0.0,0.0,0.0,0.0
1666091711120434043,0.0,0.0,0.0,0.0,0.0,0.0
1666091711120476228,0.0,0.0,0.0,0.0,0.0,0.0
1666091711135140301,0.0,0.0,0.0,0.0,0.0,0.0
1666091711153789880,0.0,0.0,0.0,0.0,0.0,0.0
1666091711196147490,0.0,0.0,0.0,0.0,0.0,0.0
1666091711196160842,0.0,0.0,0.0,0.0,0.0,0.0
1666091711240085089,0.0,0.0,0.0,0.0,0.0,0.0
1666091711240103924,0.0,0.0,0.0,0.0,0.0,0.0
1666091711284069118,0.0,0.0,0.0,0.0,0.0,0.0
1666091711284080180,0.0,0.0,0.0,0.0,0.0,0.0
1666091711332170889,0.0,0.0,0.0,0.0,0.0,0.0
1666091711332193289,0.0,0.0,0.0,0.0,0.0,0.0
1666091711376072903,0.0,0.0,0.0,0.0,0.0,0.0
1666091711376089014,0.0,0.0,0.0,0.0,0.0,0.0
1666091711376103255,0.0,0.0,0.0,0.0,0.0,0.0
1666091711424342098,0.0,0.0,0.0,0.0,0.0,0.0
1666091711424381765,0.0,0.0,0.0,0.0,0.0,0.0
1666091711434265692,0.0,0.0,0.0,0.0,0.0,0.0
1666091711454250215,0.0,0.0,0.0,0.0,0.0,0.0
1666091711496134609,0.0,0.0,0.0,0.0,0.0,0.0
1666091711496146752,0.0,0.0,0.0,0.0,0.0,0.0
1666091711540080307,0.0,0.0,0.0,0.0,0.0,0.0
1666091711540096711,0.0,0.0,0.0,0.0,0.0,0.0
1666091711588238802,0.0,0.0,0.0,0.0,0.0,0.0
1666091711588280843,0.0,0.0,0.0,0.0,0.0,0.0
1666091711632139265,0.0,0.0,0.0,0.0,0.0,0.0
1666091711632160825,0.0,0.0,0.0,0.0,0.0,0.0
1666091711676150466,0.0,0.0,0.0,0.0,0.0,0.0
1666091711676173645,0.0,0.0,0.0,0.0,0.0,0.0
1666091711676187155,0.0,0.0,0.0,0.0,0.0,0.0
1666091711720084739,0.0,0.0,0.0,0.0,0.0,0.0
1666091711720098567,0.0,0.0,0.0,0.0,0.0,0.0
1666091711733709732,0.0,0.0,0.0,0.0,0.0,0.0
1666091711754054992,0.0,0.0,0.0,0.0,0.0,0.0
1666091711796060920,0.0,0.0,0.0,0.0,0.0,0.0
1666091711796074345,0.0,0.0,0.0,0.0,0.0,0.0
1666091711840157294,0.0,0.0,0.0,0.0,0.0,0.0
1666091711840175840,0.0,0.0,0.0,0.0,0.0,0.0
1666091711884134301,0.0,0.0,0.0,0.0,0.0,0.0
1666091711884156762,0.0,0.0,0.0,0.0,0.0,0.0
1666091711932108221,0.0,0.0,0.0,0.0,0.0,0.0
1666091711932127842,0.0,0.0,0.0,0.0,0.0,0.0
1666091711980131677,0.0,0.0,0.0,0.0,0.0,0.0
1666091711980151258,0.0,0.0,0.0,0.0,0.0,0.0
1666091711980173079,0.0,0.0,0.0,0.0,0.0,0.0
1666091712024067084,0.0,0.0,0.0,0.0,0.0,0.0
1666091712024080016,0.0,0.0,0.0,0.0,0.0,0.0
1666091712034508422,0.0,0.0,0.0,0.0,0.0,0.0
1666091712054539309,0.0,0.0,0.0,0.0,0.0,0.0
1666091712096077007,0.0,0.0,0.0,0.0,0.0,0.0
1666091712096087738,0.0,0.0,0.0,0.0,0.0,0.0
1666091712140135087,0.0,0.0,0.0,0.0,0.0,0.0
1666091712140152068,0.0,0.0,0.0,0.0,0.0,0.0
1666091712184370025,0.0,0.0,0.0,0.0,0.0,0.0
1666091712184403431,0.0,0.0,0.0,0.0,0.0,0.0
1666091712228331841,0.0,0.0,0.0,0.0,0.0,0.0
1666091712228364680,0.0,0.0,0.0,0.0,0.0,0.0
1666091712272214357,0.0,0.0,0.0,0.0,0.0,0.0
1666091712272241452,0.0,0.0,0.0,0.0,0.0,0.0
1666091712316214263,0.0,0.0,0.0,0.0,0.0,0.0
1666091712316241178,0.0,0.0,0.0,0.0,0.0,0.0
1666091712316259281,0.0,0.0,0.0,0.0,0.0,0.0
1666091712360120698,0.0,0.0,0.0,0.0,0.0,0.0
1666091712360136069,0.0,0.0,0.0,0.0,0.0,0.0
1666091712374667442,0.0,0.0,0.0,0.0,0.0,0.0
1666091712394601083,0.0,0.0,0.0,0.0,0.0,0.0
1666091712440241885,0.0,0.0,0.0,0.0,0.0,0.0
1666091712440255663,0.0,0.0,0.0,0.0,0.0,0.0
1666091712484093871,0.0,0.0,0.0,0.0,0.0,0.0
1666091712484115289,0.0,0.0,0.0,0.0,0.0,0.0
1666091712528069075,0.0,0.0,0.0,0.0,0.0,0.0
1666091712528084290,0.0,0.0,0.0,0.0,0.0,0.0
1666091712572214473,0.0,0.0,0.0,0.0,0.0,0.0
1666091712572319671,0.0,0.0,0.0,0.0,0.0,0.0
1666091712616157507,0.0,0.0,0.0,0.0,0.0,0.0
1666091712616171848,0.0,0.0,0.0,0.0,0.0,0.0
1666091712616192790,0.0,0.0,0.0,0.0,0.0,0.0
1666091712660094562,0.0,0.0,0.0,0.0,0.0,0.0
1666091712660113722,0.0,0.0,0.0,0.0,0.0,0.0
1666091712674735151,0.0,0.0,0.0,0.0,0.0,0.0
1666091712694430388,0.0,0.0,0.0,0.0,0.0,0.0
1666091712736190914,0.0,0.0,0.0,0.0,0.0,0.0
1666091712736218697,0.0,0.0,0.0,0.0,0.0,0.0
1666091712780078631,0.0,0.0,0.0,0.0,0.0,0.0
1666091712780094069,0.0,0.0,0.0,0.0,0.0,0.0
1666091712824070775,0.0,0.0,0.0,0.0,0.0,0.0
1666091712824085587,0.0,0.0,0.0,0.0,0.0,0.0
1666091712868348691,0.0,0.0,0.0,0.0,0.0,0.0
1666091712868385183,0.0,0.0,0.0,0.0,0.0,0.0
1666091712912258314,0.0,0.0,0.0,0.0,0.0,0.0
1666091712912281670,0.0,0.0,0.0,0.0,0.0,0.0
1666091712956238817,0.0,0.0,0.0,0.0,0.0,0.0
1666091712956267183,0.0,0.0,0.0,0.0,0.0,0.0
1666091712956285639,0.0,0.0,0.0,0.0,0.0,0.0
1666091713000131912,0.0,0.0,0.0,0.0,0.0,0.0
1666091713000153964,0.0,0.0,0.0,0.0,0.0,0.0
1666091713014412594,0.0,0.0,0.0,0.0,0.0,0.0
1666091713035409033,0.0,0.0,0.0,0.0,0.0,0.0
1666091713076203942,0.0,0.0,0.0,0.0,0.0,0.0
1666091713076233248,0.0,0.0,0.0,0.0,0.0,0.0
1666091713120118273,0.0,0.0,0.0,0.0,0.0,0.0
1666091713120137916,0.0,0.0,0.0,0.0,0.0,0.0
1666091713164107804,0.0,0.0,0.0,0.0,0.0,0.0
1666091713164120684,0.0,0.0,0.0,0.0,0.0,0.0
1666091713208102724,0.0,0.0,0.0,0.0,0.0,0.0
1666091713208123721,0.0,0.0,0.0,0.0,0.0,0.0
1666091713252099197,0.0,0.0,0.0,0.0,0.0,0.0
1666091713252107313,0.0,0.0,0.0,0.0,0.0,0.0
1666091713296082835,0.0,0.0,0.0,0.0,0.0,0.0
1666091713296098137,0.0,0.0,0.0,0.0,0.0,0.0
1666091713296104054,0.0,0.0,0.0,0.0,0.0,0.0
1666091713340321315,0.0,0.0,0.0,0.0,0.0,0.0
1666091713340375380,0.0,0.0,0.0,0.0,0.0,0.0
1666091713355758622,0.0,0.0,0.0,0.0,0.0,0.0
1666091713375823279,0.0,0.0,0.0,0.0,0.0,0.0
1666091713416176914,0.0,0.0,0.0,0.0,0.0,0.0
1666091713416203740,0.0,0.0,0.0,0.0,0.0,0.0
1666091713460080616,0.0,0.0,0.0,0.0,0.0,0.0
1666091713460101615,0.0,0.0,0.0,0.0,0.0,0.0
1666091713504413625,0.0,0.0,0.0,0.0,0.0,0.0
1666091713504452613,0.0,0.0,0.0,0.0,0.0,0.0
1666091713552548312,0.0,0.0,0.0,0.0,0.0,0.0
1666091713552601892,0.0,0.0,0.0,0.0,0.0,0.0
1666091713596136029,0.0,0.0,0.0,0.0,0.0,0.0
1666091713596158973,0.0,0.0,0.0,0.0,0.0,0.0
1666091713596165438,0.0,0.0,0.0,0.0,0.0,0.0
1666091713640136931,0.0,0.0,0.0,0.0,0.0,0.0
1666091713640165098,0.0,0.0,0.0,0.0,0.0,0.0
1666091713655028164,0.0,0.0,0.0,0.0,0.0,0.0
1666091713675030450,0.0,0.0,0.0,0.0,0.0,0.0
1666091713716164256,0.0,0.0,0.0,0.0,0.0,0.0
1666091713716190740,0.0,0.0,0.0,0.0,0.0,0.0
1666091713764111584,0.0,0.0,0.0,0.0,0.0,0.0
1666091713764122369,0.0,0.0,0.0,0.0,0.0,0.0
1666091713812112370,0.0,0.0,0.0,0.0,0.0,0.0
1666091713812131280,0.0,0.0,0.0,0.0,0.0,0.0
1666091713856372814,0.0,0.0,0.0,0.0,0.0,0.0
1666091713856409565,0.0,0.0,0.0,0.0,0.0,0.0
1666091713856421650,0.0,0.0,0.0,0.0,0.0,0.0
1666091713900129053,0.0,0.0,0.0,0.0,0.0,0.0
1666091713900151526,0.0,0.0,0.0,0.0,0.0,0.0
1666091713915625387,0.0,0.0,0.0,0.0,0.0,0.0
1666091713935111330,0.0,0.0,0.0,0.0,0.0,0.0
1666091713976404101,0.0,0.0,0.0,0.0,0.0,0.0
1666091713976453500,0.0,0.0,0.0,0.0,0.0,0.0
1666091714020250258,0.0,0.0,0.0,0.0,0.0,0.0
1666091714020275258,0.0,0.0,0.0,0.0,0.0,0.0
1666091714064123437,0.0,0.0,0.0,0.0,0.0,0.0
1666091714064144820,0.0,0.0,0.0,0.0,0.0,0.0
1666091714108125988,0.0,0.0,0.0,0.0,0.0,0.0
1666091714108145287,0.0,0.0,0.0,0.0,0.0,0.0
1666091714152056194,0.0,0.0,0.0,0.0,0.0,0.0
1666091714152063772,0.0,0.0,0.0,0.0,0.0,0.0
1666091714200125791,0.0,0.0,0.0,0.0,0.0,0.0
1666091714200147700,0.0,0.0,0.0,0.0,0.0,0.0
1666091714200160129,0.0,0.0,0.0,0.0,0.0,0.0
1666091714244170052,0.0,0.0,0.0,0.0,0.0,0.0
1666091714244196059,0.0,0.0,0.0,0.0,0.0,0.0
1666091714255738519,0.0,0.0,0.0,0.0,0.0,0.0
1666091714277155644,0.0,0.0,0.0,0.0,0.0,0.0
1666091714320084614,0.0,0.0,0.0,0.0,0.0,0.0
1666091714320097069,0.0,0.0,0.0,0.0,0.0,0.0
1666091714364096649,0.0,0.0,0.0,0.0,0.0,0.0
1666091714364114057,0.0,0.0,0.0,0.0,0.0,0.0
1666091714408061941,0.0,0.0,0.0,0.0,0.0,0.0
1666091714408077201,0.0,0.0,0.0,0.0,0.0,0.0
1666091714452063624,0.0,0.0,0.0,0.0,0.0,0.0
1666091714452077417,0.0,0.0,0.0,0.0,0.0,0.0
1666091714496146259,0.0,0.0,0.0,0.0,0.0,0.0
1666091714496168479,0.0,0.0,0.0,0.0,0.0,0.0
1666091714496172298,0.0,0.0,0.0,0.0,0.0,0.0
1666091714544099978,0.0,0.0,0.0,0.0,0.0,0.0
1666091714544117191,0.0,0.0,0.0,0.0,0.0,0.0
1666091714556401786,0.0,0.0,0.0,0.0,0.0,0.0
1666091714576055284,0.0,0.0,0.0,0.0,0.0,0.0
1666091714616086535,0.0,0.0,0.0,0.0,0.0,0.0
1666091714616103471,0.0,0.0,0.0,0.0,0.0,0.0
1666091714660075181,0.0,0.0,0.0,0.0,0.0,0.0
1666091714660085683,0.0,0.0,0.0,0.0,0.0,0.0
1666091714704168112,0.0,0.0,0.0,0.0,0.0,0.0
1666091714704192535,0.0,0.0,0.0,0.0,0.0,0.0
1666091714748089393,0.0,0.0,0.0,0.0,0.0,0.0
1666091714748105194,0.0,0.0,0.0,0.0,0.0,0.0
1666091714792093623,0.0,0.0,0.0,0.0,0.0,0.0
1666091714792104929,0.0,0.0,0.0,0.0,0.0,0.0
1666091714836268008,0.0,0.0,0.0,0.0,0.0,0.0
1666091714836305675,0.0,0.0,0.0,0.0,0.0,0.0
1666091714836315264,0.0,0.0,0.0,0.0,0.0,0.0
1666091714880107208,0.0,0.0,0.0,0.0,0.0,0.0
1666091714880129789,0.0,0.0,0.0,0.0,0.0,0.0
1666091714895855073,0.0,0.0,0.0,0.0,0.0,0.0
1666091714915549062,0.0,0.0,0.0,0.0,0.0,0.0
1666091714956535555,0.0,0.0,0.0,0.0,0.0,0.0
1666091714956547371,0.0,0.0,0.0,0.0,0.0,0.0
1666091715000082154,0.0,0.0,0.0,0.0,0.0,0.0
1666091715000092871,0.0,0.0,0.0,0.0,0.0,0.0
1666091715044149703,0.0,0.0,0.0,0.0,0.0,0.0
1666091715044162835,0.0,0.0,0.0,0.0,0.0,0.0
1666091715088156225,0.0,0.0,0.0,0.0,0.0,0.0
1666091715088177973,0.0,0.0,0.0,0.0,0.0,0.0
1666091715132241051,0.0,0.0,0.0,0.0,0.0,0.0
1666091715132281090,0.0,0.0,0.0,0.0,0.0,0.0
1666091715176706549,0.0,0.0,0.0,0.0,0.0,0.0
1666091715176730297,0.0,0.0,0.0,0.0,0.0,0.0
1666091715220638269,0.0,0.0,0.0,0.0,0.0,0.0
1666091715220678437,0.0,0.0,0.0,0.0,0.0,0.0
1666091715228479128,0.0,0.0,0.0,0.0,0.0,0.0
1666091715268059863,0.0,0.0,0.0,0.0,0.0,0.0
1666091715268070322,0.0,0.0,0.0,0.0,0.0,0.0
1666091715275567111,0.0,0.0,0.0,0.0,0.0,0.0
1666091715295517338,0.0,0.0,0.0,0.0,0.0,0.0
1666091715336399187,0.0,0.0,0.0,0.0,0.0,0.0
1666091715380169921,0.0,0.0,0.0,0.0,0.0,0.0
1666091715380189452,0.0,0.0,0.0,0.0,0.0,0.0
1666091715380214735,0.0,0.0,0.0,0.0,0.0,0.0
1666091715424156398,0.0,0.0,0.0,0.0,0.0,0.0
1666091715424183429,0.0,0.0,0.0,0.0,0.0,0.0
1666091715436562181,0.0,0.0,0.0,0.0,0.0,0.0
1666091715456063472,0.0,0.0,0.0,0.0,0.0,0.0
1666091715504113368,0.0,0.0,0.0,0.0,0.0,0.0
1666091715504139578,0.0,0.0,0.0,0.0,0.0,0.0
1666091715552088306,0.0,0.0,0.0,0.0,0.0,0.0
1666091715552102765,0.0,0.0,0.0,0.0,0.0,0.0
1666091715596049173,0.0,0.0,0.0,0.0,0.0,0.0
1666091715596060522,0.0,0.0,0.0,0.0,0.0,0.0
1666091715596072979,0.0,0.0,0.0,0.0,0.0,0.0
1666091715642866480,0.0,0.0,0.0,0.0,0.0,0.0
1666091715642897934,0.0,0.0,0.0,0.0,0.0,0.0
1666091715656185451,0.0,0.0,0.0,0.0,0.0,0.0
1666091715676249347,0.0,0.0,0.0,0.0,0.0,0.0
1666091715724048939,0.0,0.0,0.0,0.0,0.0,0.0
1666091715724059529,0.0,0.0,0.0,0.0,0.0,0.0
1666091715768110121,0.0,0.0,0.0,0.0,0.0,0.0
1666091715768130406,0.0,0.0,0.0,0.0,0.0,0.0
1666091715812221730,0.0,0.0,0.0,0.0,0.0,0.0
1666091715812256021,0.0,0.0,0.0,0.0,0.0,0.0
1666091715856263288,0.0,0.0,0.0,0.0,0.0,0.0
1666091715856293028,0.0,0.0,0.0,0.0,0.0,0.0
1666091715900445609,0.0,0.0,0.0,0.0,0.0,0.0
1666091715900505363,0.0,0.0,0.0,0.0,0.0,0.0
1666091715900539713,0.0,0.0,0.0,0.0,0.0,0.0
1666091715944409151,0.0,0.0,0.0,0.0,0.0,0.0
1666091715944506016,0.0,0.0,0.0,0.0,0.0,0.0
1666091715956330611,0.0,0.0,0.0,0.0,0.0,0.0
1666091715976709268,0.0,0.0,0.0,0.0,0.0,0.0
1666091716020241787,0.0,0.0,0.0,0.0,0.0,0.0
1666091716020275608,0.0,0.0,0.0,0.0,0.0,0.0
1666091716064107930,0.0,0.0,0.0,0.0,0.0,0.0
1666091716064128958,0.0,0.0,0.0,0.0,0.0,0.0
1666091716108297901,0.0,0.0,0.0,0.0,0.0,0.0
1666091716108324380,0.0,0.0,0.0,0.0,0.0,0.0
1666091716156269132,0.0,0.0,0.0,0.0,0.0,0.0
1666091716156334981,0.0,0.0,0.0,0.0,0.0,0.0
1666091716204190706,0.0,0.0,0.0,0.0,0.0,0.0
1666091716204218054,0.0,0.0,0.0,0.0,0.0,0.0
1666091716204233117,0.0,0.0,0.0,0.0,0.0,0.0
1666091716248185130,0.0,0.0,0.0,0.0,0.0,0.0
1666091716248206823,0.0,0.0,0.0,0.0,0.0,0.0
1666091716257388960,0.0,0.0,0.0,0.0,0.0,0.0
1666091716276153570,0.0,0.0,0.0,0.0,0.0,0.0
1666091716320060867,0.0,0.0,0.0,0.0,0.0,0.0
1666091716320070179,0.0,0.0,0.0,0.0,0.0,0.0
1666091716364308309,0.0,0.0,0.0,0.0,0.0,0.0
1666091716364394675,0.0,0.0,0.0,0.0,0.0,0.0
1666091716408495052,0.0,0.0,0.0,0.0,0.0,0.0
1666091716408538574,0.0,0.0,0.0,0.0,0.0,0.0
1666091716452087185,0.0,0.0,0.0,0.0,0.0,0.0
1666091716452102385,0.0,0.0,0.0,0.0,0.0,0.0
1666091716496065525,0.0,0.0,0.0,0.0,0.0,0.0
1666091716496089088,0.0,0.0,0.0,0.0,0.0,0.0
1666091716496098477,0.0,0.0,0.0,0.0,0.0,0.0
1666091716544232818,0.0,0.0,0.0,0.0,0.0,0.0
1666091716544264035,0.0,0.0,0.0,0.0,0.0,0.0
1666091716556999076,0.0,0.0,0.0,0.0,0.0,0.0
1666091716576882245,0.0,0.0,0.0,0.0,0.0,0.0
1666091716620243807,0.0,0.0,0.0,0.0,0.0,0.0
1666091716620279717,0.0,0.0,0.0,0.0,0.0,0.0
1666091716664835699,0.0,0.0,0.0,0.0,0.0,0.0
1666091716664905856,0.0,0.0,0.0,0.0,0.0,0.0
1666091716708162463,0.0,0.0,0.0,0.0,0.0,0.0
1666091716708186920,0.0,0.0,0.0,0.0,0.0,0.0
1666091716752178220,0.0,0.0,0.0,0.0,0.0,0.0
1666091716752205507,0.0,0.0,0.0,0.0,0.0,0.0
1666091716800301445,0.0,0.0,0.0,0.0,0.0,0.0
1666091716800345095,0.0,0.0,0.0,0.0,0.0,0.0
1666091716800354273,0.0,0.0,0.0,0.0,0.0,0.0
1666091716844117019,0.0,0.0,0.0,0.0,0.0,0.0
1666091716844136563,0.0,0.0,0.0,0.0,0.0,0.0
1666091716858103199,0.0,0.0,0.0,0.0,0.0,0.0
1666091716877031853,0.0,0.0,0.0,0.0,0.0,0.0
1666091716920184485,0.0,0.0,0.0,0.0,0.0,0.0
1666091716920204753,0.0,0.0,0.0,0.0,0.0,0.0
1666091716964208280,0.0,0.0,0.0,0.0,0.0,0.0
1666091716964233787,0.0,0.0,0.0,0.0,0.0,0.0
1666091717008496653,0.0,0.0,0.0,0.0,0.0,0.0
1666091717008545507,0.0,0.0,0.0,0.0,0.0,0.0
1666091717052170875,0.0,0.0,0.0,0.0,0.0,0.0
1666091717052196712,0.0,0.0,0.0,0.0,0.0,0.0
1666091717096171604,0.0,0.0,0.0,0.0,0.0,0.0
1666091717096188466,0.0,0.0,0.0,0.0,0.0,0.0
1666091717144265013,0.0,0.0,0.0,0.0,0.0,0.0
1666091717144302009,0.0,0.0,0.0,0.0,0.0,0.0
1666091717144339637,0.0,0.0,0.0,0.0,0.0,0.0
1666091717188124857,0.0,0.0,0.0,0.0,0.0,0.0
1666091717188146688,0.0,0.0,0.0,0.0,0.0,0.0
1666091717197006130,0.0,0.0,0.0,0.0,0.0,0.0
1666091717216605956,0.0,0.0,0.0,0.0,0.0,0.0
1666091717260105160,0.0,0.0,0.0,0.0,0.0,0.0
1666091717260135164,0.0,0.0,0.0,0.0,0.0,0.0
1666091717308432218,0.0,0.0,0.0,0.0,0.0,0.0
1666091717308479511,0.0,0.0,0.0,0.0,0.0,0.0
1666091717352094288,0.0,0.0,0.0,0.0,0.0,0.0
1666091717352110642,0.0,0.0,0.0,0.0,0.0,0.0
1666091717400061262,0.0,0.0,0.0,0.0,0.0,0.0
1666091717400073747,0.0,0.0,0.0,0.0,0.0,0.0
1666091717400082051,0.0,0.0,0.0,0.0,0.0,0.0
1666091717444923805,0.0,0.0,0.0,0.0,0.0,0.0
1666091717444971360,0.0,0.0,0.0,0.0,0.0,0.0
1666091717456511808,0.0,0.0,0.0,0.0,0.0,0.0
1666091717477773803,0.0,0.0,0.0,0.0,0.0,0.0
1666091717520160350,0.0,0.0,0.0,0.0,0.0,0.0
1666091717520183299,0.0,0.0,0.0,0.0,0.0,0.0
1666091717564240322,0.0,0.0,0.0,0.0,0.0,0.0
1666091717564270026,0.0,0.0,0.0,0.0,0.0,0.0
1666091717608066875,0.0,0.0,0.0,0.0,0.0,0.0
1666091717608082414,0.0,0.0,0.0,0.0,0.0,0.0
1666091717652087405,0.0,0.0,0.0,0.0,0.0,0.0
1666091717652109818,0.0,0.0,0.0,0.0,0.0,0.0
1666091717696219597,0.0,0.0,0.0,0.0,0.0,0.0
1666091717696256640,0.0,0.0,0.0,0.0,0.0,0.0
1666091717740186703,0.0,0.0,0.0,0.0,0.0,0.0
1666091717740211149,0.0,0.0,0.0,0.0,0.0,0.0
1666091717740228682,0.0,0.0,0.0,0.0,0.0,0.0
1666091717784300316,0.0,0.0,0.0,0.0,0.0,0.0
1666091717784331320,0.0,0.0,0.0,0.0,0.0,0.0
1666091717797764331,0.0,0.0,0.0,0.0,0.0,0.0
1666091717817590214,0.0,0.0,0.0,0.0,0.0,0.0
1666091717860097880,0.0,0.0,0.0,0.0,0.0,0.004537856055185257
1666091717860116670,0.0,0.0,0.0,0.0,0.0,-0.0017453292519943296
1666091717908349483,0.0,0.0,0.0,0.0,0.0,-0.005061454830783556
1666091717908428448,0.0,0.0,0.0,0.0,0.0,-0.0017453292519943296
1666091717952098725,0.0,0.0,0.0,0.0,0.0,0.0012217304763960308
1666091717952112249,0.004264604416675866,0.0,0.0,0.0,0.0,0.0013962634015954637
1666091718000171965,0.025587626500055197,0.0,0.0,0.0,0.0,0.0005235987755982988
1666091718000205855,0.017058417666703463,0.0,0.0,0.0,0.0,0.00017453292519943296
1666091718000234360,0.014926115458365532,0.0,0.0,0.0,0.0,0.0020943951023931952
1666091718044290102,0.010661511041689664,0.0,0.0,0.0,0.0,0.0
1666091718044328337,0.019190719875041395,0.0,0.0,0.0,0.0,-0.003316125578789226
1666091718058297988,0.03624913754174486,0.0,0.0,0.0,0.0,-0.0031415926535897933
1666091718079033368,0.03198453312506899,0.0,0.0,0.0,0.0,-0.0027925268031909274
1666091718124047789,0.042646044166758657,0.0,0.0,0.0,0.0,-0.003316125578789226
1666091718124058932,0.044778346375096596,0.0,0.0,0.0,0.0,-0.0008726646259971648
1666091718168090282,0.044778346375096596,0.0,0.0,0.0,0.0,-0.0019198621771937623
1666091718168106877,0.06396906625013798,0.0,0.0,0.0,0.0,-0.011519173063162576
1666091718216673173,0.06396906625013798,0.0,0.0,0.0,0.0,-0.018500490071139894
1666091718216758399,0.07676287950016558,0.0,0.0,0.0,0.0,-0.018500490071139894
1666091718264132927,0.0703659728751518,0.0,0.0,0.0,0.0,-0.02391101075232232
1666091718264155475,0.07463057729182765,0.0,0.0,0.0,0.0,-0.05270894341022875
1666091718264167250,0.09595359937520698,0.0,0.0,0.0,0.0,-0.05881759579220891
1666091718308537032,0.10021820379188286,0.0,0.0,0.0,0.0,-0.04328416544945937
1666091718308578142,0.10235050600022079,0.0,0.0,0.0,0.0,-0.02129301687433082
1666091718317329553,0.10661511041689664,0.0,0.0,0.0,0.0,-0.01780235837034216
1666091718337398002,0.1108797148335725,0.0,0.0,0.0,0.0,-0.0317649923862968
1666091718384290058,0.11940892366692425,0.0,0.0,0.0,0.0,-0.038571776469074684
1666091718384323977,0.12154122587526218,0.0,0.0,0.0,0.0,-0.028448866807507567
1666091718432207699,0.1364673413336277,0.0,0.0,0.0,0.0,-0.03647738136668148
1666091718432224727,0.13220273691695184,0.0,0.0,0.0,0.0,-0.06946410422937431
1666091718476235482,0.13220273691695184,0.0,0.0,0.0,0.0,-0.09023352232810683
1666091718476257304,0.1492611545836553,0.0,0.0,0.0,0.0,-0.0916297857297023
1666091718520224760,0.1492611545836553,0.0,0.0,0.0,0.0,-0.09459684545809266
1666091718520290566,0.16418727004202083,0.0,0.0,0.0,0.0,-0.10681415022205297
1666091718520321920,0.16205496783368292,0.0,0.0,0.0,0.0,-0.13997540600994524
1666091718564061923,0.15352575900033116,0.0,0.0,0.0,0.0,-0.1610938899590766
1666091718564074761,0.17484878108371052,0.0,0.0,0.0,0.0,-0.15219271077390553
1666091718578265050,0.17058417666703463,0.0,0.0,0.0,0.0,-0.18151424220741028
1666091718598411271,0.18977489654207602,0.0,0.0,0.0,0.0,-0.2017600615305445
1666091718640129375,0.18337798991706222,0.0,0.0,0.0,0.0,-0.2193878869756872
1666091718640140844,0.18551029212540016,0.0,0.0,0.0,0.0,-0.24644049038159932
1666091718688369646,0.19617180316708985,0.0,0.0,0.0,0.0,-0.24766222085799536
1666091718688424454,0.20470101200044158,0.0,0.0,0.0,0.0,-0.26249751949994715
1666091718736136433,0.21109791862545538,0.0,0.0,0.0,0.0,-0.26738444140553125
1666091718736156149,0.20896561641711744,0.0,0.0,0.0,0.0,-0.2975786374650332
1666091718784254622,0.20683331420877948,0.0,0.0,0.0,0.0,-0.317649923862968
1666091718784289577,0.221759429667145,0.0,0.0,0.0,0.0,-0.31066860685499065
1666091718784312068,0.221759429667145,0.0,0.0,0.0,0.0,-0.32393310917014756
1666091718832134644,0.23668554512551054,0.0,0.0,0.0,0.0,-0.3385938748868999
1666091718832161221,0.23455324291717264,0.0,0.0,0.0,0.0,-0.34068826998929314
1666091718839208035,0.23668554512551054,0.0,0.0,0.0,0.0,-0.36250488563922223
1666091718857990227,0.24734705616720024,0.0,0.0,0.0,0.0,-0.35482543693044716
1666091718900246820,0.24947935837553817,0.0,0.0,0.0,0.0,-0.3782128489071713
1666091718900273359,0.26653777604224166,0.0,0.0,0.0,0.0,-0.40177479380909464
1666091718944217087,0.25800856720888987,0.0,0.0,0.0,0.0,-0.39444441095071847
1666091718944254278,0.2601408694172278,0.0,0.0,0.0,0.0,-0.4169591583014453
1666091718992187120,0.2771992870839313,0.0,0.0,0.0,0.0,-0.4317944569433971
1666091718992213063,0.2814638915006072,0.0,0.0,0.0,0.0,-0.4509930787153347
1666091719036094840,0.28572849591728305,0.0,0.0,0.0,0.0,-0.46216318592809846
1666091719036114036,0.28359619370894507,0.0,0.0,0.0,0.0,-0.47874381382204456
1666091719084321289,0.28359619370894507,0.0,0.0,0.0,0.0,-0.5218534463463045
1666091719084364903,0.29425770475063473,0.0,0.0,0.0,0.0,-0.5215043804959056
1666091719084384208,0.30278691358398646,0.0,0.0,0.0,0.0,-0.5431464632206353
1666091719128199729,0.3113161224173382,0.0,0.0,0.0,0.0,-0.5714207971029435
1666091719128233117,0.30491921579232445,0.0,0.0,0.0,0.0,-0.6033603224144397
1666091719137759757,0.30491921579232445,0.0,0.0,0.0,0.0,-0.646644487863899
1666091719159232567,0.317713029042352,0.0,0.0,0.0,0.0,-0.6855653301833726
1666091719204065859,0.3155807268340141,0.0,0.0,0.0,0.0,-0.718377520120866
1666091719204077451,0.3070515180006623,0.0,0.0,0.0,0.0,-0.7344345492392138
1666091719248171433,0.3006546113756486,0.0,0.0,0.0,0.0,-0.7522369076095561
1666091719248196579,0.30278691358398646,0.0,0.0,0.0,0.0,-0.7696902001294993
1666091719292432717,0.3006546113756486,0.0,0.0,0.0,0.0,-0.7503170454323623
1666091719292495501,0.30491921579232445,0.0,0.0,0.0,0.0,-0.7274532322312366
1666091719336116759,0.3113161224173382,0.0,0.0,0.0,0.0,-0.7154104603924757
1666091719336138719,0.30278691358398646,0.0,0.0,0.0,0.0,-0.7239625737272478
1666091719380262416,0.3070515180006623,0.0,0.0,0.0,0.0,-0.6976081020221335
1666091719380291917,0.2963900069589727,0.0,0.0,0.0,0.0,-0.6791076119509936
1666091719380310262,0.2963900069589727,0.0,0.0,0.0,0.0,-0.6647959120846402
1666091719424145417,0.30278691358398646,0.0,0.0,0.0,0.0,-0.6600835231042554
1666091719424165239,0.3006546113756486,0.0,0.0,0.0,0.0,-0.6777113485493982
1666091719438474641,0.28999310033395886,0.0,0.0,0.0,0.0,-0.6700318998406231
1666091719458852871,0.14712885237531736,0.0,0.0,0.0,0.0,-0.6457718232379019
1666091719504031935,0.1364673413336277,0.0,0.0,0.0,0.0,-0.6457718232379019
1666091719504040561,0.07249827508348972,0.0,0.0,0.0,0.0,-0.658338193852261
1666091719548168151,0.07889518170850353,0.0,0.0,0.0,0.0,-0.6901031862385578
1666091719548192699,0.07889518170850353,0.0,0.0,0.0,0.0,-0.7140141969908801
1666091719592381395,0.051175253000110395,0.0,0.0,0.0,0.0,-0.6455972903127025
1666091719592432646,0.03198453312506899,0.0,0.0,0.0,0.0,-0.5996951309852516
1666091719636053984,0.03838143975008279,0.0,0.0,0.0,0.0,-0.5881759579220891
1666091719636067109,0.042646044166758657,0.0,0.0,0.0,0.0,-0.48537606497962305
1666091719680470961,0.044778346375096596,0.0,0.0,0.0,0.0,-0.39339721339952183
1666091719680523893,0.042646044166758657,0.0,0.0,0.0,0.0,-0.3131120678077827
1666091719680548794,0.034116835333406925,0.0,0.0,0.0,0.0,-0.2724458962363148
1666091719724232155,0.02345532429171726,0.0,0.0,0.0,0.0,-0.2958333082130388
1666091719724279260,0.002132302208337933,0.0,0.0,0.0,0.0,-0.3152064629101759
1666091719739764052,-0.006396906625013799,0.0,0.0,0.0,0.0,-0.29792770331543206
1666091719761117393,-0.006396906625013799,0.0,0.0,0.0,0.0,-0.2307325271136504
1666091719804060645,-0.002132302208337933,0.0,0.0,0.0,0.0,-0.24155356847601522
1666091719804072359,-0.017058417666703463,0.0,0.0,0.0,0.0,-0.24190263432641407
1666091719848180598,-0.019190719875041395,0.0,0.0,0.0,0.0,-0.228987197861656
1666091719848199631,-0.021323022083379328,0.0,0.0,0.0,0.0,-0.19582594207376378
1666091719892123641,-0.017058417666703463,0.0,0.0,0.0,0.0,-0.1722639971718403
1666091719892147200,-0.012793813250027599,0.0,0.0,0.0,0.0,-0.16772614111665504
1666091719936039581,-0.002132302208337933,0.0,0.0,0.0,0.0,-0.16388641676226756
1666091719936049571,0.0,0.0,0.0,0.0,0.0,-0.1446877949903299
1666091719980214239,0.008529208833351731,0.0,0.0,0.0,0.0,-0.12583823906879116
1666091719980250869,0.012793813250027599,0.0,0.0,0.0,0.0,-0.11676252695842064
1666091719980270575,0.017058417666703463,0.0,0.0,0.0,0.0,-0.1059414855960558
1666091720024118368,0.017058417666703463,0.0,0.0,0.0,0.0,-0.09093165402890457
1666091720024137837,0.012793813250027599,0.0,0.0,0.0,0.0,-0.08255407361933179
1666091720039484016,0.012793813250027599,0.0,0.0,0.0,0.0,-0.0895353906273091
1666091720058925023,0.012793813250027599,0.0,0.0,0.0,0.0,-0.10890854532444616
1666091720100334620,0.012793813250027599,0.0,0.0,0.0,0.0,-0.11920598791121272
1666091720100421748,0.002132302208337933,0.0,0.0,0.0,0.0,-0.12060225131280816
1666091720148163107,0.004264604416675866,0.0,0.0,0.0,0.0,-0.1174606586592184
1666091720148186675,0.002132302208337933,0.0,0.0,0.0,0.0,-0.11100294042683936
1666091720196037670,0.0,0.0,0.0,0.0,0.0,-0.08237954069413235
1666091720196046316,-0.002132302208337933,0.0,0.0,0.0,0.0,-0.06475171524898962
1666091720240387916,0.0,0.0,0.0,0.0,0.0,-0.04939281783143952
1666091720240434289,0.0,0.0,0.0,0.0,0.0,-0.022863813201125717
1666091720284179727,0.0,0.0,0.0,0.0,0.0,-0.01658062789394613
1666091720284203934,0.002132302208337933,0.0,0.0,0.0,0.0,-0.00942477796076938
1666091720284215563,0.0,0.0,0.0,0.0,0.0,-0.0006981317007977319
1666091720328347250,0.002132302208337933,0.0,0.0,0.0,0.0,0.00017453292519943296
1666091720328387079,0.002132302208337933,0.0,0.0,0.0,0.0,-0.0006981317007977319
1666091720338724903,0.002132302208337933,0.0,0.0,0.0,0.0,-0.004537856055185257
1666091720358732039,0.004264604416675866,0.0,0.0,0.0,0.0,-0.016406094968746697
1666091720405358363,0.008529208833351731,0.0,0.0,0.0,0.0,-0.019896753472735354
1666091720405383690,0.002132302208337933,0.0,0.0,0.0,0.0,-0.023038346126325153
1666091720448070245,0.002132302208337933,0.0,0.0,0.0,0.0,-0.031415926535897934
1666091720448082399,0.0,0.0,0.0,0.0,0.0,-0.032463124087094536
1666091720492322714,0.0,0.0,0.0,0.0,0.0,-0.010297442586766544
1666091720492370756,0.0,0.0,0.0,0.0,0.0,0.0
1666091720536356708,0.0,0.0,0.0,0.0,0.0,0.0
1666091720536387576,-0.002132302208337933,0.0,0.0,0.0,0.0,0.0
1666091720580392872,0.0,0.0,0.0,0.0,0.0,0.0
1666091720580441573,0.0,0.0,0.0,0.0,0.0,0.0
1666091720580451272,0.0,0.0,0.0,0.0,0.0,0.0
1666091720624036471,0.0,0.0,0.0,0.0,0.0,0.0
1666091720624043089,0.0,0.0,0.0,0.0,0.0,0.0
1666091720638560633,0.0,0.0,0.0,0.0,0.0,0.0
1666091720661270976,0.0,0.0,0.0,0.0,0.0,0.0
1666091720700101278,0.0,0.0,0.0,0.0,0.0,-0.009599310885968814
1666091720700117867,0.0,0.0,0.0,0.0,0.0,-0.006108652381980153
1666091720744320496,0.0,0.0,0.0,0.0,0.0,0.0
1666091720744351750,0.0,0.0,0.0,0.0,0.0,0.0
1666091720788186078,0.0,0.0,0.0,0.0,0.0,0.0
1666091720788212445,0.0,0.0,0.0,0.0,0.0,0.0
1666091720832190180,0.0,0.0,0.0,0.0,0.0,0.0
1666091720832208661,0.0,0.0,0.0,0.0,0.0,0.0
1666091720876350201,0.0,0.0,0.0,0.0,0.0,0.0
1666091720876393327,0.0,0.0,0.0,0.0,0.0,0.0
1666091720920125787,0.0,0.0,0.0,0.0,0.0,0.0
1666091720920143265,0.0,0.0,0.0,0.0,0.0,0.0
1666091720920156859,0.0,0.0,0.0,0.0,0.0,0.0
1666091720964154597,0.0,0.0,0.0,0.0,0.0,0.0
1666091720964217421,0.0,0.0,0.0,0.0,0.0,0.0
1666091720978131683,0.0,0.0,0.0,0.0,0.0,0.0
1666091721001206875,0.0,0.0,0.0,0.0,0.0,0.0
1666091721044542212,0.0,0.0,0.0,0.0,0.0,0.0
1666091721044595193,0.0,0.0,0.0,0.0,0.0,0.0
1666091721088434403,0.0,0.0,0.0,0.0,0.0,0.0
1666091721088513594,0.0,0.0,0.0,0.0,0.0,0.0
1666091721136124361,0.0,0.0,0.0,0.0,0.0,0.0008726646259971648
1666091721136147667,0.0,0.0,0.0,0.0,0.0,-0.0010471975511965976
1666091721184732856,0.0,0.0,0.0,0.0,0.0,-0.0017453292519943296
1666091721184832521,0.0,0.0,0.0,0.0,0.0,0.002617993877991494
1666091721185007921,0.0,0.0,0.0,0.0,0.0,0.0005235987755982988
1666091721232054383,0.0,0.0,0.0,0.0,0.0,-0.0005235987755982988
1666091721232070472,0.0,0.0,0.0,0.0,0.0,0.0
1666091721240101239,0.0,0.0,0.0,0.0,0.0,-0.0013962634015954637
1666091721261561194,0.0,0.0,0.0,0.0,0.0,-0.0006981317007977319
1666091721304061002,0.0,0.0,0.0,0.0,0.0,0.00017453292519943296
1666091721304074590,0.0,0.0,0.0,0.0,0.0,0.0
1666091721348396048,0.0,0.0,0.0,0.0,0.0,-0.0010471975511965976
1666091721348460767,0.0,0.0,0.0,0.0,0.0,-0.0015707963267948967
1666091721392225158,0.0,0.0,0.0,0.0,0.0,0.0013962634015954637
1666091721392262641,0.0,0.0,0.0,0.0,0.0,0.00645771823237902
1666091721436073856,0.0,0.0,0.0,0.0,0.0,0.0036651914291880917
1666091721436087515,-0.002132302208337933,0.0,0.0,0.0,0.0,0.0024434609527920616
1666091721480701207,0.0,0.0,0.0,0.0,0.0,-0.002617993877991494
1666091721480718221,0.0,0.0,0.0,0.0,0.0,-0.0006981317007977319
1666091721480731846,0.0,0.0,0.0,0.0,0.0,-0.00034906585039886593
1666091721524243622,0.0,0.0,0.0,0.0,0.0,-0.004014257279586958
1666091721524274507,0.0,0.0,0.0,0.0,0.0,-0.0008726646259971648
1666091721540492657,0.0,0.0,0.0,0.0,0.0,0.00017453292519943296
1666091721559117249,0.0,0.0,0.0,0.0,0.0,-0.0013962634015954637
1666091721600271859,0.0,0.0,0.0,0.0,0.0,-0.0008726646259971648
1666091721600324300,0.002132302208337933,0.0,0.0,0.0,0.0,-0.002617993877991494
1666091721644320089,0.0,0.0,0.0,0.0,0.0,-0.0008726646259971648
1666091721644391019,0.0,0.0,0.0,0.0,0.0,-0.0031415926535897933
1666091721692221917,0.0,0.0,0.0,0.0,0.0,-0.0015707963267948967
1666091721692247173,0.0,0.0,0.0,0.0,0.0,0.0019198621771937623
1666091721736168942,0.0,0.0,0.0,0.0,0.0,0.0015707963267948967
1666091721736198873,-0.002132302208337933,0.0,0.0,0.0,0.0,-0.00034906585039886593
1666091721780056929,0.0,0.0,0.0,0.0,0.0,0.002617993877991494
1666091721780071091,0.0,0.0,0.0,0.0,0.0,0.0008726646259971648
1666091721780083782,0.0,0.0,0.0,0.0,0.0,-0.0008726646259971648
1666091721824158235,0.0,0.0,0.0,0.0,0.0,-0.0010471975511965976
1666091721824220885,0.0,0.0,0.0,0.0,0.0,-0.0013962634015954637
1666091721839129907,0.0,0.0,0.0,0.0,0.0,0.0
1666091721858656838,-0.002132302208337933,0.0,0.0,0.0,0.0,0.0005235987755982988
1666091721900067044,0.0,0.0,0.0,0.0,0.0,0.003490658503988659
1666091721900080996,0.0,0.0,0.0,0.0,0.0,0.00034906585039886593
1666091721944370953,0.0,0.0,0.0,0.0,0.0,0.0
1666091721944412684,0.0,0.0,0.0,0.0,0.0,0.0
1666091721988172175,0.0,0.0,0.0,0.0,0.0,-0.0038397243543875246
1666091721988235998,0.0,0.0,0.0,0.0,0.0,0.0005235987755982988
1666091722036119326,0.0,0.0,0.0,0.0,0.0,0.003490658503988659
1666091722036133403,0.0,0.0,0.0,0.0,0.0,0.0024434609527920616
1666091722080851593,0.0,0.0,0.0,0.0,0.0,-0.0010471975511965976
1666091722080926835,0.0,0.0,0.0,0.0,0.0,-0.0022689280275926286
1666091722124184747,0.0,0.0,0.0,0.0,0.0,-0.0013962634015954637
1666091722124236990,0.0,0.0,0.0,0.0,0.0,-0.0020943951023931952
1666091722124251947,0.0,0.0,0.0,0.0,0.0,-0.0020943951023931952
1666091722168119749,-0.002132302208337933,0.0,0.0,0.0,0.0,-0.0038397243543875246
1666091722168136446,-0.002132302208337933,0.0,0.0,0.0,0.0,-0.0054105206811824215
1666091722180199178,-0.002132302208337933,0.0,0.0,0.0,0.0,-0.003316125578789226
1666091722199581020,0.0,0.0,0.0,0.0,0.0,-0.0012217304763960308
1666091722240283782,0.0,0.0,0.0,0.0,0.0,-0.006981317007977318
1666091722284109848,-0.002132302208337933,0.0,0.0,0.0,0.0,-0.008028514559173916
1666091722284129447,-0.002132302208337933,0.0,0.0,0.0,0.0,-0.008726646259971648
1666091722284142670,0.0,0.0,0.0,0.0,0.0,-0.012217304763960306
1666091722328639033,0.0,0.0,0.0,0.0,0.0,-0.01117010721276371
1666091722328721138,-0.006396906625013799,0.0,0.0,0.0,0.0,-0.011344640137963142
1666091722341710592,0.0,0.0,0.0,0.0,0.0,-0.009075712110370514
1666091722361298395,0.0,0.0,0.0,0.0,0.0,-0.02234021442552742
1666091722404086966,-0.004264604416675866,0.0,0.0,0.0,0.0,-0.023387411976724018
1666091722404101717,-0.002132302208337933,0.0,0.0,0.0,0.0,-0.020245819323134222
1666091722448245662,0.0,0.0,0.0,0.0,0.0,-0.03106686068549907
1666091722448266968,0.0,0.0,0.0,0.0,0.0,-0.04415683007545653
1666091722492275990,-0.004264604416675866,0.0,0.0,0.0,0.0,-0.05201081170943102
1666091722492315736,-0.002132302208337933,0.0,0.0,0.0,0.0,-0.04747295565424577
1666091722536115980,-0.004264604416675866,0.0,0.0,0.0,0.0,-0.03682644721708035
1666091722536131497,-0.002132302208337933,0.0,0.0,0.0,0.0,-0.03368485456349056
1666091722580188979,0.0,0.0,0.0,0.0,0.0,-0.03106686068549907
1666091722580253202,-0.004264604416675866,0.0,0.0,0.0,0.0,-0.038397243543875255
1666091722580271817,-0.006396906625013799,0.0,0.0,0.0,0.0,-0.05235987755982988
1666091722624351507,-0.004264604416675866,0.0,0.0,0.0,0.0,-0.04729842272904633
1666091722624397191,-0.004264604416675866,0.0,0.0,0.0,0.0,-0.03630284844148206
1666091722639574007,-0.002132302208337933,0.0,0.0,0.0,0.0,-0.03630284844148206
1666091722661242091,-0.006396906625013799,0.0,0.0,0.0,0.0,-0.04345869837465881
1666091722708131124,-0.004264604416675866,0.0,0.0,0.0,0.0,-0.04206243497306335
1666091722708144548,-0.002132302208337933,0.0,0.0,0.0,0.0,-0.0317649923862968
1666091722752954205,-0.004264604416675866,0.0,0.0,0.0,0.0,-0.03490658503988659
1666091722752978493,-0.004264604416675866,0.0,0.0,0.0,0.0,-0.041189770347066175
1666091722796449135,-0.004264604416675866,0.0,0.0,0.0,0.0,-0.04258603374866164
1666091722796510136,-0.004264604416675866,0.0,0.0,0.0,0.0,-0.04328416544945937
1666091722840460265,-0.002132302208337933,0.0,0.0,0.0,0.0,-0.039095375244672985
1666091722840531475,-0.008529208833351731,0.0,0.0,0.0,0.0,-0.03089232776029963
1666091722884172012,-0.004264604416675866,0.0,0.0,0.0,0.0,-0.03298672286269282
1666091722884206236,0.0,0.0,0.0,0.0,0.0,-0.029845130209103034
1666091722884387651,-0.006396906625013799,0.0,0.0,0.0,0.0,-0.032114058236695664
1666091722928550724,-0.004264604416675866,0.0,0.0,0.0,0.0,-0.03560471674068432
1666091722928623995,-0.002132302208337933,0.0,0.0,0.0,0.0,-0.03612831551628262
1666091722939750375,-0.004264604416675866,0.0,0.0,0.0,0.0,-0.028623399732707
1666091722959792849,-0.004264604416675866,0.0,0.0,0.0,0.0,-0.028274333882308142
1666091723000647420,-0.004264604416675866,0.0,0.0,0.0,0.0,-0.02897246558310587
1666091723044127556,-0.004264604416675866,0.0,0.0,0.0,0.0,-0.030543261909900768
1666091723044146315,-0.004264604416675866,0.0,0.0,0.0,0.0,-0.030194196059501903
1666091723044161220,-0.004264604416675866,0.0,0.0,0.0,0.0,-0.032812189937493394
1666091723088218697,-0.002132302208337933,0.0,0.0,0.0,0.0,-0.030194196059501903
1666091723088257672,-0.004264604416675866,0.0,0.0,0.0,0.0,-0.02775073510670984
1666091723101004214,-0.004264604416675866,0.0,0.0,0.0,0.0,-0.03560471674068432
1666091723119469620,-0.004264604416675866,0.0,0.0,0.0,0.0,-0.029845130209103034
1666091723161146335,-0.004264604416675866,0.0,0.0,0.0,0.0,-0.024260076602721177
1666091723204117736,-0.004264604416675866,0.0,0.0,0.0,0.0,-0.03089232776029963
1666091723204145161,-0.002132302208337933,0.0,0.0,0.0,0.0,-0.034732052114687155
1666091723204165349,-0.002132302208337933,0.0,0.0,0.0,0.0,-0.032637657012293965
1666091723248225062,-0.006396906625013799,0.0,0.0,0.0,0.0,-0.03228859116189509
1666091723248260931,-0.002132302208337933,0.0,0.0,0.0,0.0,-0.031241393610698498
1666091723261269016,0.0,0.0,0.0,0.0,0.0,-0.023561944901923447
1666091723282760495,-0.002132302208337933,0.0,0.0,0.0,0.0,-0.02809980095710871
1666091723324083471,-0.006396906625013799,0.0,0.0,0.0,0.0,-0.019896753472735354
1666091723324099144,0.0,0.0,0.0,0.0,0.0,-0.006806784082777885
1666091723368321533,-0.002132302208337933,0.0,0.0,0.0,0.0,-0.006981317007977318
1666091723368362002,0.0,0.0,0.0,0.0,0.0,-0.026354471705114374
1666091723412275824,-0.004264604416675866,0.0,0.0,0.0,0.0,-0.034557519189487726
1666091723412309470,0.0,0.0,0.0,0.0,0.0,-0.01815142422074103
1666091723456119363,-0.002132302208337933,0.0,0.0,0.0,0.0,-0.010122909661567111
1666091723456148324,-0.002132302208337933,0.0,0.0,0.0,0.0,-0.021642082724729686
1666091723500163551,0.0,0.0,0.0,0.0,0.0,-0.020594885173533087
1666091723500195973,0.0,0.0,0.0,0.0,0.0,-0.010122909661567111
1666091723548155186,0.0,0.0,0.0,0.0,0.0,-0.009075712110370514
1666091723548185146,-0.002132302208337933,0.0,0.0,0.0,0.0,-0.014137166941154071
1666091723548200965,0.0,0.0,0.0,0.0,0.0,-0.014486232791552934
1666091723592235316,0.0,0.0,0.0,0.0,0.0,-0.0041887902047863905
1666091723592260582,0.0,0.0,0.0,0.0,0.0,0.002617993877991494
1666091723603951810,0.0,0.0,0.0,0.0,0.0,-0.0024434609527920616
1666091723622414136,0.0,0.0,0.0,0.0,0.0,-0.0027925268031909274
1666091723664118299,0.0,0.0,0.0,0.0,0.0,-0.0019198621771937623
1666091723664139467,0.0,0.0,0.0,0.0,0.0,-0.0012217304763960308
1666091723712126472,0.0,0.0,0.0,0.0,0.0,-0.0008726646259971648
1666091723712154008,0.0,0.0,0.0,0.0,0.0,-0.00017453292519943296
1666091723760204811,0.0,0.0,0.0,0.0,0.0,-0.004537856055185257
1666091723760238733,0.0,0.0,0.0,0.0,0.0,-0.002617993877991494
1666091723804291840,0.0,0.0,0.0,0.0,0.0,-0.0038397243543875246
1666091723804380502,0.0,0.0,0.0,0.0,0.0,-0.00034906585039886593
1666091723804400457,0.0,0.0,0.0,0.0,0.0,0.0022689280275926286
1666091723848156390,0.0,0.0,0.0,0.0,0.0,-0.002967059728390361
1666091723848179211,0.0,0.0,0.0,0.0,0.0,-0.005235987755982988
1666091723860484692,0.0,0.0,0.0,0.0,0.0,0.0
1666091723881049395,0.0,0.0,0.0,0.0,0.0,-0.00017453292519943296
1666091723928136613,0.0,0.0,0.0,0.0,0.0,0.0008726646259971648
1666091723928161783,0.0,0.0,0.0,0.0,0.0,-0.0006981317007977319
1666091723976074258,0.0,0.0,0.0,0.0,0.0,-0.0020943951023931952
1666091723976106199,0.0,0.0,0.0,0.0,0.0,0.0
1666091724020178945,0.0,0.0,0.0,0.0,0.0,-0.0015707963267948967
1666091724020198902,0.0,0.0,0.0,0.0,0.0,-0.0015707963267948967
1666091724020205361,0.0,0.0,0.0,0.0,0.0,-0.0036651914291880917
1666091724064167481,0.0,0.0,0.0,0.0,0.0,-0.0019198621771937623
1666091724064192456,0.0,0.0,0.0,0.0,0.0,0.0013962634015954637
1666091724080098097,0.0,0.0,0.0,0.0,0.0,0.0
1666091724099770798,0.0,0.0,0.0,0.0,0.0,-0.0012217304763960308
1666091724144089299,0.0,0.0,0.0,0.0,0.0,0.004537856055185257
1666091724144106884,0.0,0.0,0.0,0.0,0.0,0.0019198621771937623
1666091724188174961,0.0,0.0,0.0,0.0,0.0,-0.0017453292519943296
1666091724188194402,0.0,0.0,0.0,0.0,0.0,-0.0017453292519943296
1666091724232390693,-0.002132302208337933,0.0,0.0,0.0,0.0,-0.005061454830783556
1666091724232438057,0.0,0.0,0.0,0.0,0.0,-0.0022689280275926286
1666091724276092948,0.0,0.0,0.0,0.0,0.0,0.0010471975511965976
1666091724276103096,0.0,0.0,0.0,0.0,0.0,-0.0041887902047863905
1666091724320107780,-0.002132302208337933,0.0,0.0,0.0,0.0,-0.006283185307179587
1666091724320130043,-0.002132302208337933,0.0,0.0,0.0,0.0,-0.0019198621771937623
1666091724364125862,0.0,0.0,0.0,0.0,0.0,-0.0008726646259971648
1666091724364153515,-0.004264604416675866,0.0,0.0,0.0,0.0,-0.004886921905584123
1666091724364168593,0.0,0.0,0.0,0.0,0.0,-0.01361356816555577
1666091724412362128,-0.002132302208337933,0.0,0.0,0.0,0.0,-0.020420352248333655
1666091724412407174,-0.004264604416675866,0.0,0.0,0.0,0.0,-0.026354471705114374
1666091724422423837,-0.004264604416675866,0.0,0.0,0.0,0.0,-0.028274333882308142
1666091724440886478,0.0,0.0,0.0,0.0,0.0,-0.02391101075232232
1666091724484349017,-0.004264604416675866,0.0,0.0,0.0,0.0,-0.02391101075232232
1666091724484394770,-0.006396906625013799,0.0,0.0,0.0,0.0,-0.030717794835100197
1666091724528311911,-0.002132302208337933,0.0,0.0,0.0,0.0,-0.023038346126325153
1666091724528358808,-0.002132302208337933,0.0,0.0,0.0,0.0,-0.02757620218151041
1666091724572121609,-0.006396906625013799,0.0,0.0,0.0,0.0,-0.039968039870670144
1666091724572140405,-0.002132302208337933,0.0,0.0,0.0,0.0,-0.04258603374866164
1666091724616197334,-0.002132302208337933,0.0,0.0,0.0,0.0,-0.03368485456349056
1666091724616226658,-0.006396906625013799,0.0,0.0,0.0,0.0,-0.034033920413889425
1666091724660641450,-0.004264604416675866,0.0,0.0,0.0,0.0,-0.038571776469074684
1666091724660709080,-0.002132302208337933,0.0,0.0,0.0,0.0,-0.04066617157146788
1666091724704066295,-0.004264604416675866,0.0,0.0,0.0,0.0,-0.04729842272904633
1666091724704076724,-0.006396906625013799,0.0,0.0,0.0,0.0,-0.04276056667386108
1666091724704087945,0.0,0.0,0.0,0.0,0.0,-0.04363323129985824
1666091724748333532,-0.006396906625013799,0.0,0.0,0.0,0.0,-0.048520153205442354
1666091724748383246,0.0,0.0,0.0,0.0,0.0,-0.06213372137099814
1666091724760848619,-0.004264604416675866,0.0,0.0,0.0,0.0,-0.07312929565856242
1666091724786425174,0.0,0.0,0.0,0.0,0.0,-0.0651007810993885
1666091724824065225,-0.002132302208337933,0.0,0.0,0.0,0.0,-0.061086523819801536
1666091724824078504,-0.002132302208337933,0.0,0.0,0.0,0.0,-0.08621926504851989
1666091724868147208,-0.006396906625013799,0.0,0.0,0.0,0.0,-0.09023352232810683
1666091724868173058,-0.002132302208337933,0.0,0.0,0.0,0.0,-0.08011061266653972
1666091724912109791,0.002132302208337933,0.0,0.0,0.0,0.0,-0.06894050545377602
1666091724912128418,0.0,0.0,0.0,0.0,0.0,-0.0736528944341607
1666091724956573217,-0.004264604416675866,0.0,0.0,0.0,0.0,-0.0879645943005142
1666091724956650560,-0.004264604416675866,0.0,0.0,0.0,0.0,-0.09494591130849155
1666091725000171629,0.002132302208337933,0.0,0.0,0.0,0.0,-0.0994837673636768
1666091725000189825,0.0,0.0,0.0,0.0,0.0,-0.10157816246606997
1666091725044311201,-0.006396906625013799,0.0,0.0,0.0,0.0,-0.1096066770252439
1666091725044341856,-0.006396906625013799,0.0,0.0,0.0,0.0,-0.11990411961201045
1666091725044365832,0.006396906625013799,0.0,0.0,0.0,0.0,-0.1181587903600161
1666091725088537706,0.0,0.0,0.0,0.0,0.0,-0.11397000015522972
1666091725088597249,-0.010661511041689664,0.0,0.0,0.0,0.0,-0.11676252695842064
1666091725101331086,-0.002132302208337933,0.0,0.0,0.0,0.0,-0.1319468914507713
1666091725121803185,0.0,0.0,0.0,0.0,0.0,-0.1467821900927231
1666091725164174293,-0.002132302208337933,0.0,0.0,0.0,0.0,-0.14416419621473162
1666091725164196158,-0.002132302208337933,0.0,0.0,0.0,0.0,-0.14765485471872028
1666091725208078232,-0.004264604416675866,0.0,0.0,0.0,0.0,-0.14957471689591406
1666091725208094031,0.002132302208337933,0.0,0.0,0.0,0.0,-0.16126842288427604
1666091725252140999,-0.004264604416675866,0.0,0.0,0.0,0.0,-0.16598081186466074
1666091725252173679,-0.004264604416675866,0.0,0.0,0.0,0.0,-0.1682497398922534
1666091725296050453,-0.006396906625013799,0.0,0.0,0.0,0.0,-0.1839577031602023
1666091725296067934,-0.004264604416675866,0.0,0.0,0.0,0.0,-0.19966566642815128
1666091725340318407,-0.002132302208337933,0.0,0.0,0.0,0.0,-0.2017600615305445
1666091725340368946,-0.006396906625013799,0.0,0.0,0.0,0.0,-0.18552849948699723
1666091725384385303,-0.006396906625013799,0.0,0.0,0.0,0.0,-0.18413223608540177
1666091725384424884,-0.004264604416675866,0.0,0.0,0.0,0.0,-0.204378055408536
1666091725384466117,0.002132302208337933,0.0,0.0,0.0,0.0,-0.20001473227855018
1666091725428131002,-0.004264604416675866,0.0,0.0,0.0,0.0,-0.18867009214058703
1666091725428150602,0.0,0.0,0.0,0.0,0.0,-0.18448130193580062
1666091725442397375,0.002132302208337933,0.0,0.0,0.0,0.0,-0.20699604928652748
1666091725462946931,-0.002132302208337933,0.0,0.0,0.0,0.0,-0.21589722847169854
1666091725504129175,-0.004264604416675866,0.0,0.0,0.0,0.0,-0.21694442602289515
1666091725504152204,0.004264604416675866,0.0,0.0,0.0,0.0,-0.2162462943220974
1666091725548425704,-0.006396906625013799,0.0,0.0,0.0,0.0,-0.21729349187329403
1666091725548474952,-0.004264604416675866,0.0,0.0,0.0,0.0,-0.22130774915288098
1666091725592064299,0.0,0.0,0.0,0.0,0.0,-0.22654373690886398
1666091725592077912,0.002132302208337933,0.0,0.0,0.0,0.0,-0.21676989309769573
1666091725636044651,-0.002132302208337933,0.0,0.0,0.0,0.0,-0.210835773640915
1666091725636053743,-0.004264604416675866,0.0,0.0,0.0,0.0,-0.22183134792847928
1666091725680266756,-0.002132302208337933,0.0,0.0,0.0,0.0,-0.23771384412162766
1666091725680335497,0.002132302208337933,0.0,0.0,0.0,0.0,-0.24260076602721178
1666091725724171211,-0.006396906625013799,0.0,0.0,0.0,0.0,-0.2331759880664424
1666091725724203067,-0.008529208833351731,0.0,0.0,0.0,0.0,-0.23823744289722598
1666091725724222172,0.002132302208337933,0.0,0.0,0.0,0.0,-0.25446900494077324
1666091725768233097,0.0,0.0,0.0,0.0,0.0,-0.24870941840919195
1666091725768267128,-0.002132302208337933,0.0,0.0,0.0,0.0,-0.24382249650360785
1666091725782911480,-0.004264604416675866,0.0,0.0,0.0,0.0,-0.2515019452123829
1666091725801464673,0.0,0.0,0.0,0.0,0.0,-0.25621433419276757
1666091725844320091,0.004264604416675866,0.0,0.0,0.0,0.0,-0.2607521902479528
1666091725844407589,-0.002132302208337933,0.0,0.0,0.0,0.0,-0.25132741228718347
1666091725892062166,-0.004264604416675866,0.0,0.0,0.0,0.0,-0.24260076602721178
1666091725892075965,-0.002132302208337933,0.0,0.0,0.0,0.0,-0.24574235868080158
1666091725936154618,0.004264604416675866,0.0,0.0,0.0,0.0,-0.23684117949563052
1666091725936173369,-0.004264604416675866,0.0,0.0,0.0,0.0,-0.22759093446006054
1666091725980136458,-0.004264604416675866,0.0,0.0,0.0,0.0,-0.22549653935766736
1666091725980155779,0.0,0.0,0.0,0.0,0.0,-0.22863813201125716
1666091726024211962,0.002132302208337933,0.0,0.0,0.0,0.0,-0.22602013813326566
1666091726024242876,-0.004264604416675866,0.0,0.0,0.0,0.0,-0.22322761133007474
1666091726024264548,-0.004264604416675866,0.0,0.0,0.0,0.0,-0.2314306588144481
1666091726068516815,0.002132302208337933,0.0,0.0,0.0,0.0,-0.23719024534602937
1666091726068575770,0.014926115458365532,0.0,0.0,0.0,0.0,-0.2309070600388498
1666091726081979212,0.006396906625013799,0.0,0.0,0.0,0.0,-0.23212879051524585
1666091726101641351,0.019190719875041395,0.0,0.0,0.0,0.0,-0.2410299697004169
1666091726144160443,0.021323022083379328,0.0,0.0,0.0,0.0,-0.24347343065320895
1666091726144186088,0.02345532429171726,0.0,0.0,0.0,0.0,-0.23300145514124296
1666091726188071409,0.029852230916731063,0.0,0.0,0.0,0.0,-0.22200588085367873
1666091726188117006,0.029852230916731063,0.0,0.0,0.0,0.0,-0.22113321622768156
1666091726236285699,0.03624913754174486,0.0,0.0,0.0,0.0,-0.2284635990860577
1666091726236325842,0.04051374195842073,0.0,0.0,0.0,0.0,-0.2256710722828668
1666091726284222736,0.04051374195842073,0.0,0.0,0.0,0.0,-0.23300145514124296
1666091726284265228,0.05757215962512419,0.0,0.0,0.0,0.0,-0.24312436480281008
1666091726328262850,0.05757215962512419,0.0,0.0,0.0,0.0,-0.24207716725161352
1666091726328295872,0.06823367066681385,0.0,0.0,0.0,0.0,-0.2399827721492203
1666091726328322917,0.06610136845847592,0.0,0.0,0.0,0.0,-0.23614304779483275
1666091726372105679,0.06610136845847592,0.0,0.0,0.0,0.0,-0.25220007691318064
1666091726372128925,0.08102748391684146,0.0,0.0,0.0,0.0,-0.24644049038159932
1666091726381927949,0.08315978612517938,0.0,0.0,0.0,0.0,-0.24591689160600103
1666091726403548913,0.09382129716686904,0.0,0.0,0.0,0.0,-0.24661502330679877
1666091726448236041,0.08529208833351731,0.0,0.0,0.0,0.0,-0.2324778563656447
1666091726448278573,0.09382129716686904,0.0,0.0,0.0,0.0,-0.22863813201125716
1666091726492196398,0.10874741262523457,0.0,0.0,0.0,0.0,-0.22392574303087245
1666091726492228077,0.1108797148335725,0.0,0.0,0.0,0.0,-0.2092649773141201
1666091726536041570,0.11940892366692425,0.0,0.0,0.0,0.0,-0.19512781037296603
