%time,field.linear.x,field.linear.y,field.linear.z,field.angular.x,field.angular.y,field.angular.z
1666091717764756384,0.4529046416282654,0.0,0.0,0.0,0.0,-1.0471975511965983
1666091717858447100,0.4420882165431976,0.0,0.0,0.0,0.0,-1.0471975511965983
1666091717902752268,0.43801218271255493,0.0,0.0,0.0,0.0,-1.2217304763960313
1666091718025237460,0.44236987829208374,0.0,0.0,0.0,0.0,-1.2217304763960313
1666091718067675434,0.4412113130092621,0.0,0.0,0.0,0.0,-1.2217304763960313
1666091718243876028,0.4278126358985901,0.0,0.0,0.0,0.0,-1.2217304763960313
1666091718283056466,0.42254799604415894,0.0,0.0,0.0,0.0,-1.2217304763960313
1666091718303261473,0.42169511318206787,0.0,0.0,0.0,0.0,-1.2217304763960313
1666091718366030020,0.42490276694297785,0.0,0.0,0.0,0.0,-1.2217304763960313
1666091718500635448,0.4153540432453155,0.0,0.0,0.0,0.0,-1.2217304763960313
1666091718587752256,0.41187939047813416,0.0,0.0,0.0,0.0,-1.2217304763960313
1666091718661324416,0.4088889956474304,0.0,0.0,0.0,0.0,-1.2217304763960313
1666091718716252635,0.40803608298301697,0.0,0.0,0.0,0.0,-1.2217304763960313
1666091718768781148,0.4054149091243744,0.0,0.0,0.0,0.0,-1.2217304763960313
1666091718813182384,0.39826038479804987,0.0,0.0,0.0,0.0,-1.2217304763960313
1666091718936938154,0.39665505290031433,0.0,0.0,0.0,0.0,-1.2217304763960313
1666091718982961997,0.39196714758872986,0.0,0.0,0.0,0.0,-1.2217304763960313
1666091719104829680,0.3838041424751282,0.0,0.0,0.0,0.0,-1.0471975511965983
1666091719196208738,0.37306433916091913,0.0,0.0,0.0,0.0,-1.0471975511965983
1666091719286807775,0.3648230135440826,0.0,0.0,0.0,0.0,-1.0471975511965983
1666091719366991427,0.0,0.0,0.0,0.0,0.0,-0.7763754136261078
1666091719400980507,0.0,0.0,0.0,0.0,0.0,-0.7761102500847067
1666091719444919192,0.0,0.0,0.0,0.0,0.0,-0.7152909907832763
1666091719586014067,0.0,0.0,0.0,0.0,0.0,-0.6554535328650163
1666091719628739098,0.0,0.0,0.0,0.0,0.0,-0.5941140509382805
1666091719747842655,0.0,0.0,0.0,0.0,0.0,-0.46983762920402466
1666091719804077855,0.0,0.0,0.0,0.0,0.0,-0.4124367018771725
1666091719833055403,0.0,0.0,0.0,0.0,0.0,-0.4120833744522373
1666091719972125502,0.0,0.0,0.0,0.0,0.0,-0.3590518222812229
1666091720042541189,0.0,0.0,0.0,0.0,0.0,-0.3008757568228726
1666091720084906133,0.0,0.0,0.0,0.0,0.0,-0.239892042286789
1666091720130178733,0.0,0.0,0.0,0.0,0.0,-0.17453292519943345
1666091720218153362,0.0,0.0,0.0,0.0,0.0,-0.17453292519943345
1666091720304462199,0.0,0.0,0.0,0.0,0.0,-4.996003610813204e-16
1666091720319901594,0.0,0.0,0.0,0.0,0.0,-4.996003610813204e-16
1666091720382695646,0.0,0.0,0.0,0.0,0.0,-4.996003610813204e-16
1666091720514647052,0.0,0.0,0.0,0.0,0.0,-4.996003610813204e-16
1666091720556949420,0.0,0.0,0.0,0.0,0.0,-4.996003610813204e-16
1666091720645465444,0.0,0.0,0.0,0.0,0.0,-4.996003610813204e-16
1666091720685348109,0.0,0.0,0.0,0.0,0.0,-4.996003610813204e-16
1666091720813519357,0.0,0.0,0.0,0.0,0.0,-4.996003610813204e-16
1666091720907928744,0.0,0.0,0.0,0.0,0.0,-4.996003610813204e-16
1666091720925441151,0.0,0.0,0.0,0.0,0.0,-4.996003610813204e-16
1666091721014675310,0.0,0.0,0.0,0.0,0.0,-0.17453292519943345
1666091721056812374,0.0,0.0,0.0,0.0,0.0,-0.17453292519943345
1666091721159681946,0.0,0.0,0.0,0.0,0.0,-0.17453292519943345
1666091721274038116,0.0,0.0,0.0,0.0,0.0,-0.17453292519943345
1666091721318799339,0.0,0.0,0.0,0.0,0.0,-0.17453292519943345
1666091721405279663,0.0,0.0,0.0,0.0,0.0,-0.17453292519943345
1666091721423742661,0.0,0.0,0.0,0.0,0.0,-0.17453292519943345
1666091721525902583,0.0,0.0,0.0,0.0,0.0,-0.2172900991195257
1666091721657546459,0.0,0.0,0.0,0.0,0.0,-0.2330589493174441
1666091721700978851,0.0,0.0,0.0,0.0,0.0,-0.2468753660801538
1666091721779536775,0.0,0.0,0.0,0.0,0.0,-0.27697919084937006
1666091721921586224,0.0,0.0,0.0,0.0,0.0,-0.35510749489811233
1666091721954522776,0.0,0.0,0.0,0.0,0.0,-0.3490658503988664
1666091722041309599,0.0,0.0,0.0,0.0,0.0,-0.3888670984567466
1666091722086511958,0.0,0.0,0.0,0.0,0.0,-0.40734368165870727
1666091722209379935,0.0,0.0,0.0,0.0,0.0,-0.4463282705910395
1666091722301717049,0.0,0.0,0.0,0.0,0.0,-0.477027428576926
1666091722343363572,0.0,0.0,0.0,0.0,0.0,-0.46994585311683085
1666091722482235364,0.0,0.0,0.0,0.0,0.0,-0.5019690938990979
1666091722501680156,0.0,0.0,0.0,0.0,0.0,-0.4853635407461131
1666091722545712473,0.0,0.0,0.0,0.0,0.0,-0.4852856299315998
1666091722686218369,0.0,0.0,0.0,0.0,0.0,-0.47528497938259545
1666091722769768358,0.0,0.0,0.0,0.0,0.0,-0.45449244592421434
1666091722802677500,0.0,0.0,0.0,0.0,0.0,-0.4482739666781873
1666091722845086456,0.0,0.0,0.0,0.0,0.0,-0.4405645206666113
1666091722933916361,0.0,0.0,0.0,0.0,0.0,-0.43323839091782756
1666091723021503469,0.0,0.0,0.0,0.0,0.0,-0.41904564025553515
1666091723065282804,0.0,0.0,0.0,0.0,0.0,-0.39782870435930556
1666091723120592286,0.0,0.0,0.0,0.0,0.0,-0.3815630550666452
1666091723184993010,0.0,0.0,0.0,0.0,0.0,-0.3658221825774783
1666091723273923787,0.0,0.0,0.0,0.0,0.0,-0.35162339915019114
1666091723361741927,0.0,0.0,0.0,0.0,0.0,-0.31969219346150773
1666091723405390324,0.0,0.0,0.0,0.0,0.0,-0.3160357943541394
1666091723454698679,0.0,0.0,0.0,0.0,0.0,-0.3064392560830296
1666091723486041051,0.0,0.0,0.0,0.0,0.0,-0.2986574005816935
1666091723569447275,0.0,0.0,0.0,0.0,0.0,-0.2969687448927782
1666091723705354417,0.0,0.0,0.0,0.0,0.0,-0.2848265553259374
1666091723745360374,0.0,0.0,0.0,0.0,0.0,-0.2769773840379403
1666091723802193834,0.0,0.0,0.0,0.0,0.0,-0.28233402023698656
1666091723908699028,0.0,0.0,0.0,0.0,0.0,-0.28799552388716887
1666091723990999738,0.0,0.0,0.0,0.0,0.0,-0.28946187045071087
1666091724041915160,0.0,0.0,0.0,0.0,0.0,-0.2867845744390885
1666091724129076993,0.0,0.0,0.0,0.0,0.0,-0.2984154544255906
1666091724204866602,0.0,0.0,0.0,0.0,0.0,-0.3008262579745784
1666091724337722875,0.0,0.0,0.0,0.0,0.0,-0.3143240237229096
1666091724426237770,0.0,0.0,0.0,0.0,0.0,-0.32366221039604637
1666091724545511883,0.0,0.0,0.0,0.0,0.0,-0.3402057063181685
1666091724633684797,0.0,0.0,0.0,0.0,0.0,-0.35965920189620026
1666091724765057299,0.0,0.0,0.0,0.0,0.0,-0.38559774245956996
1666091724823117874,0.0,0.0,0.0,0.0,0.0,-0.39991782568295864
1666091724929470225,0.0,0.0,0.0,0.0,0.0,-0.44727710839261325
1666091724987574568,0.0,0.0,0.0,0.0,0.0,-0.46204990274225977
1666091725019165006,0.0,0.0,0.0,0.0,0.0,-0.4588778551416357
1666091725105139212,0.0,0.0,0.0,0.0,0.0,-0.48113353644723167
1666091725149884951,0.0,0.0,0.0,0.0,0.0,-0.4882903836332739
1666091725225198016,0.0,0.0,0.0,0.0,0.0,-0.5034143327653838
1666091725317317979,0.0,0.0,0.0,0.0,0.0,-0.5076061987087453
1666091725450211080,0.0,0.0,0.0,0.0,0.0,-0.5090888586679451
1666091725526376745,0.0,0.0,0.0,0.0,0.0,-0.501883551431393
1666091725632283766,0.0,0.0,0.0,0.0,0.0,-0.5003958706501588
1666091725657319343,0.0,0.0,0.0,0.0,0.0,-0.48898132109512527
1666091725733190377,0.0,0.0,0.0,0.0,0.0,-0.4835074446283372
1666091725814271894,0.0,0.0,0.0,0.0,0.0,-0.46923245731551483
1666091725821853322,0.0,0.0,0.0,0.0,0.0,-0.4644583503069631
1666091725953287895,0.0,0.0,0.0,0.0,0.0,-0.46056548522435925
1666091725999044212,0.43472161889076233,0.0,0.0,0.0,0.0,-0.15425118803977966
1666091726088645491,0.46838986873626703,0.0,0.0,0.0,0.0,-0.1585482656955719
1666091726132670523,0.49565061926841736,0.0,0.0,0.0,0.0,-0.1615239679813385
1666091726210054459,0.4599754512310028,0.0,0.0,0.0,0.0,-0.057569246739149094
1666091726299390400,0.5398291349411011,0.0,0.0,0.0,0.0,-0.15921631455421448
1666091726384271626,0.5598341226577759,0.0,0.0,0.0,0.0,-0.17453292519943345
1666091726427836003,0.5782154202461243,0.0,0.0,0.0,0.0,-0.15245649218559265
1666091726546720085,0.5472406744956969,0.0,0.0,0.0,0.0,-0.04941650107502937
1666091726637092281,0.627823531627655,0.0,0.0,0.0,0.0,-0.3490658503988664
1666091726685921222,0.6276813745498657,0.0,0.0,0.0,0.0,-0.3490658503988664
1666091726773462072,0.6380060315132141,0.0,0.0,0.0,0.0,-0.17453292519943345
1666091726894590882,0.6570034623146057,0.0,0.0,0.0,0.0,-0.3490658503988664
1666091726901685601,0.6564348936080933,0.0,0.0,0.0,0.0,-0.3490658503988664
1666091726984678635,0.6268632411956786,0.0,0.0,0.0,0.0,-0.3490658503988664
1666091727069691889,0.6714386343955994,0.0,0.0,0.0,0.0,-0.3490658503988664
1666091727192273263,0.6800900101661681,0.0,0.0,0.0,0.0,-0.3490658503988664
1666091727279967125,0.6709911227226256,0.0,0.0,0.0,0.0,-0.3490658503988664
1666091727367880376,0.6435956358909607,0.0,0.0,0.0,0.0,-0.3490658503988664
1666091727391033034,0.5912346243858337,0.0,0.0,0.0,0.0,-0.3490658503988664
1666091727535614550,0.6121585369110107,0.0,0.0,0.0,0.0,-0.17453292519943345
1666091727621892445,0.5998526811599731,0.0,0.0,0.0,0.0,-0.17453292519943345
1666091727705673492,0.6066505312919617,0.0,0.0,0.0,0.0,-0.17453292519943345
1666091727784397935,0.6073371171951294,0.0,0.0,0.0,0.0,-0.17453292519943345
1666091727788070053,0.6066263914108276,0.0,0.0,0.0,0.0,-0.17453292519943345
1666091727917338326,0.6117793917655945,0.0,0.0,0.0,0.0,-0.17453292519943345
1666091728005790276,0.6168341040611267,0.0,0.0,0.0,0.0,-0.17453292519943345
1666091728052250661,0.6252312064170837,0.0,0.0,0.0,0.0,-0.3490658503988664
1666091728160087983,0.6430890560150146,0.0,0.0,0.0,0.0,-0.3490658503988664
1666091728171337667,0.642733633518219,0.0,0.0,0.0,0.0,-0.3490658503988664
1666091728261184678,0.65080726146698,0.0,0.0,0.0,0.0,-0.3490658503988664
1666091728348798607,0.647609531879425,0.0,0.0,0.0,0.0,-0.3490658503988664
1666091728394445971,0.6476805210113525,0.0,0.0,0.0,0.0,-0.3490658503988664
1666091728467155856,0.6423578858375549,0.0,0.0,0.0,0.0,-0.3490658503988664
1666091728513692955,0.6285651922225952,0.0,0.0,0.0,0.0,-0.3490658503988664
1666091728556397618,0.6059516668319702,0.0,0.0,0.0,0.0,-0.3490658503988664
1666091728644739952,0.5829817056655884,0.0,0.0,0.0,0.0,-0.17453292519943345
1666091728745945297,0.5717785954475403,0.0,0.0,0.0,0.0,-0.156623974442482
1666091728812700040,0.5620365738868712,0.0,0.0,0.0,0.0,-0.16012133657932281
1666091728945092590,0.5393709540367126,0.0,0.0,0.0,0.0,-0.1659078449010849
1666091729037707668,0.5172523260116577,0.0,0.0,0.0,0.0,-0.16761846840381622
1666091729044731808,0.5178209543228149,0.0,0.0,0.0,0.0,-0.1676708161830902
1666091729156042549,0.4950864911079406,0.0,0.0,0.0,0.0,-0.1702130138874054
1666091729292085091,0.47268030047416687,0.0,0.0,0.0,0.0,-0.17262406647205353
1666091729341260792,0.45060306787490845,0.0,0.0,0.0,0.0,-0.17188504338264465
1666091729408077478,0.4086340665817261,0.0,0.0,0.0,0.0,-0.1696598380804062
1666091729467277530,0.0,0.0,0.0,0.0,0.0,-0.5918168026321596
1666091729625801797,0.0,0.0,0.0,0.0,0.0,-0.6300767735609927
1666091729668679383,0.0,0.0,0.0,0.0,0.0,-0.6293102365528559
1666091729744825952,0.0,0.0,0.0,0.0,0.0,-0.6649140715092747
1666091729805028018,0.0,0.0,0.0,0.0,0.0,-0.6351579253006872
1666091729927439039,0.0,0.0,0.0,0.0,0.0,-0.6126010601689534
1666091730025633252,0.0,0.0,0.0,0.0,0.0,-0.5784155133460045
1666091730130041291,0.0,0.0,0.0,0.0,0.0,-0.53918288400388
1666091730173499166,0.0,0.0,0.0,0.0,0.0,-0.5362312401630346
1666091730221079844,0.4119997024536132,0.0,0.0,0.0,0.0,-0.5235987755982994
1666091730308716418,0.43092674016952515,0.0,0.0,0.0,0.0,-0.5235987755982994
1666091730410885272,0.4500432014465332,0.0,0.0,0.0,0.0,-0.5235987755982994
1666091730434472314,0.44940349459648127,0.0,0.0,0.0,0.0,-0.5235987755982994
1666091730511798281,0.47468122839927673,0.0,0.0,0.0,0.0,-0.5235987755982994
1666091730587973030,0.5258516073226929,0.0,0.0,0.0,0.0,-0.3490658503988664
1666091730696101868,0.5531445741653442,0.0,0.0,0.0,0.0,-0.3490658503988664
1666091730715492474,0.5522205829620361,0.0,0.0,0.0,0.0,-0.3490658503988664
1666091730791431417,0.5902344584465027,0.0,0.0,0.0,0.0,-0.17453292519943345
1666091730881108426,0.6067861318588257,0.0,0.0,0.0,0.0,-0.17453292519943345
1666091731017483202,0.6955627799034118,0.0,0.0,0.0,0.0,-0.07913931459188461
1666091731052986586,0.7167975306510925,0.0,0.0,0.0,0.0,0.03043564409017563
1666091731091266469,0.7164421081542969,0.0,0.0,0.0,0.0,0.030505456030368805
1666091731187313952,0.7405772805213928,0.0,0.0,0.0,0.0,-4.996003610813204e-16
1666091731270621685,0.765925407409668,0.0,0.0,0.0,0.0,0.17453292519943245
1666091731316369411,0.7770828008651732,0.0,0.0,0.0,0.0,0.17453292519943245
1666091731357562417,0.7767985463142395,0.0,0.0,0.0,0.0,0.17453292519943245
1666091731443210720,0.7762738466262817,0.0,0.0,0.0,0.0,0.17453292519943245
1666091731576005913,0.7752208709716797,0.0,0.0,0.0,0.0,0.3490658503988654
1666091731606992285,0.7625247240066527,0.0,0.0,0.0,0.0,0.3490658503988654
1666091731699980898,0.7557820677757263,0.0,0.0,0.0,0.0,0.3490658503988654
1666091731841017037,0.7416202425956725,0.0,0.0,0.0,0.0,0.5235987755982984
1666091731912176006,0.7262087464332581,0.0,0.0,0.0,0.0,0.5235987755982984
1666091732043327045,0.6903222203254699,0.0,0.0,0.0,0.0,0.6981317007977313
1666091732173473691,0.6704482436180115,0.0,0.0,0.0,0.0,0.8726646259971643
1666091732186125924,0.6435359120368958,0.0,0.0,0.0,0.0,0.8726646259971643
1666091732275536848,0.6142954230308533,0.0,0.0,0.0,0.0,0.8726646259971643
1666091732299832867,0.6134424805641174,0.0,0.0,0.0,0.0,0.8726646259971643
1666091732427922429,0.6385731101036072,0.0,0.0,0.0,0.0,1.0471975511965972
1666091732573540203,0.5216643810272217,0.0,0.0,0.0,0.0,1.0471975511965972
1666091732597248890,0.4934919774532318,0.0,0.0,0.0,0.0,1.0471975511965972
1666091732673227911,0.4642951786518097,0.0,0.0,0.0,0.0,1.0471975511965972
1666091732767849883,0.5488197803497314,0.0,0.0,0.0,0.0,1.0471975511965972
1666091732949096846,0.410169243812561,0.0,0.0,0.0,0.0,1.0471975511965972
1666091733009134180,0.3951902687549591,0.0,0.0,0.0,0.0,1.0471975511965972
1666091733116918907,0.381510466337204,0.0,0.0,0.0,0.0,1.0471975511965972
1666091733253757899,0.3581790030002594,0.0,0.0,0.0,0.0,1.0471975511965972
1666091733307673283,0.3376624882221222,0.0,0.0,0.0,0.0,1.0471975511965972
1666091733420625397,0.31952306628227234,0.0,0.0,0.0,0.0,1.0471975511965972
1666091733507364010,0.28738144040107727,0.0,0.0,0.0,0.0,1.0471975511965972
1666091733605889432,0.27274265885353083,0.0,0.0,0.0,0.0,1.0471975511965972
1666091733720457356,0.2604431211948395,0.0,0.0,0.0,0.0,1.0471975511965972
1666091733787518078,0.3759654760360718,0.0,0.0,0.0,0.0,1.0471975511965972
1666091733854816632,0.3765340745449066,0.0,0.0,0.0,0.0,1.0471975511965972
1666091733904388868,0.232081800699234,0.0,0.0,0.0,0.0,1.0471975511965972
1666091734066218213,0.0,0.0,0.0,0.0,0.0,0.9147811065572118
1666091734114149296,0.0,0.0,0.0,0.0,0.0,0.8726646259971643
1666091734231244527,0.0,0.0,0.0,0.0,0.0,0.8562267511555343
1666091734369241037,0.0,0.0,0.0,0.0,0.0,0.848628235722296
1666091734413309648,0.0,0.0,0.0,0.0,0.0,0.7884369896496113
1666091734446516075,0.0,0.0,0.0,0.0,0.0,0.7537140471113447
1666091734582134582,0.0,0.0,0.0,0.0,0.0,0.7238979917075195
1666091734626037185,0.0,0.0,0.0,0.0,0.0,0.6551488859644558
1666091734749043515,0.32426151633262634,0.0,0.0,0.0,0.0,0.6981317007977313
1666091734792559329,0.4302052855491638,0.0,0.0,0.0,0.0,0.5235987755982984
1666091734835451649,0.4302763640880584,0.0,0.0,0.0,0.0,0.5235987755982984
1666091734882076808,0.37467491626739496,0.0,0.0,0.0,0.0,0.5235987755982984
1666091734967779074,0.4171243011951446,0.0,0.0,0.0,0.0,0.5235987755982984
1666091735013144364,0.45714882016181946,0.0,0.0,0.0,0.0,0.5235987755982984
1666091735131358619,0.49249669909477234,0.0,0.0,0.0,0.0,0.3490658503988654
1666091735222379705,0.5247747898101807,0.0,0.0,0.0,0.0,0.3490658503988654
1666091735311009273,0.555404007434845,0.0,0.0,0.0,0.0,0.3490658503988654
1666091735397117230,0.58216392993927,0.0,0.0,0.0,0.0,0.3490658503988654
1666091735429208480,0.6126928329467773,0.0,0.0,0.0,0.0,0.3490658503988654
1666091735546793767,0.6590299010276794,0.0,0.0,0.0,0.0,0.17453292519943245
1666091735563323212,0.6577504873275757,0.0,0.0,0.0,0.0,0.17453292519943245
1666091735700625463,0.67408949136734,0.0,0.0,0.0,0.0,0.005353980697691441
1666091735709943912,0.692611277103424,0.0,0.0,0.0,0.0,-0.0037536288145929575
1666091735861548710,0.7279219031333923,0.0,0.0,0.0,0.0,-0.021806154400110245
1666091735900935609,0.7402713894844055,0.0,0.0,0.0,0.0,-0.03043512813746929
1666091735948284855,0.7408400177955626,0.0,0.0,0.0,0.0,-0.031066937372088432
1666091735993776976,0.7477102279663086,0.0,0.0,0.0,0.0,-0.042242638766765594
1666091736114743232,0.7496766448020935,0.0,0.0,0.0,0.0,-0.05700274184346199
1666091736209248222,0.7162253856658934,0.0,0.0,0.0,0.0,-0.17453292519943345
1666091736248094037,0.7171493768692017,0.0,0.0,0.0,0.0,-0.17453292519943345
1666091736336007917,0.7290778756141663,0.0,0.0,0.0,0.0,-0.17453292519943345
1666091736339873231,0.728438138961792,0.0,0.0,0.0,0.0,-0.17453292519943345
1666091736413507024,0.7315834164619446,0.0,0.0,0.0,0.0,-0.17453292519943345
1666091736499112334,0.7080540060997009,0.0,0.0,0.0,0.0,-0.17453292519943345
1666091736631965302,0.7263484597206116,0.0,0.0,0.0,0.0,-0.3490658503988664
1666091736676587703,0.7133027911186218,0.0,0.0,0.0,0.0,-0.3490658503988664
1666091736753732936,0.7022212743759154,0.0,0.0,0.0,0.0,-0.3490658503988664
1666091736794826059,0.6912153363227844,0.0,0.0,0.0,0.0,-0.3490658503988664
1666091736888106459,0.6447572112083435,0.0,0.0,0.0,0.0,-0.3490658503988664
1666091736999293634,0.6675805449485778,0.0,0.0,0.0,0.0,-0.3490658503988664
1666091737022577462,0.6586355566978455,0.0,0.0,0.0,0.0,-0.3490658503988664
1666091737101244566,0.6117085218429564,0.0,0.0,0.0,0.0,-0.3490658503988664
1666091737138866429,0.611779510974884,0.0,0.0,0.0,0.0,-0.3490658503988664
1666091737279907496,0.6345914602279663,0.0,0.0,0.0,0.0,-0.3490658503988664
1666091737323984622,0.6232466101646423,0.0,0.0,0.0,0.0,-0.3490658503988664
1666091737392661766,0.607212483882904,0.0,0.0,0.0,0.0,-0.3490658503988664
1666091737484929063,0.555438220500946,0.0,0.0,0.0,0.0,-0.3490658503988664
1666091737571002226,0.5791677236557006,0.0,0.0,0.0,0.0,-0.3490658503988664
1666091737616513512,0.5606535077095032,0.0,0.0,0.0,0.0,-0.3490658503988664
1666091737692113313,0.49918708205223083,0.0,0.0,0.0,0.0,-0.5235987755982994
1666091737737626312,0.5392457842826843,0.0,0.0,0.0,0.0,-0.5235987755982994
1666091737822901992,0.5353859066963196,0.0,0.0,0.0,0.0,-0.5235987755982994
1666091737911601495,0.5274844169616699,0.0,0.0,0.0,0.0,-0.5235987755982994
1666091737971012026,0.4651179015636444,0.0,0.0,0.0,0.0,-0.5235987755982994
1666091738075406918,0.48687538504600525,0.0,0.0,0.0,0.0,-0.5235987755982994
1666091738121491502,0.46198770403861994,0.0,0.0,0.0,0.0,-0.5235987755982994
1666091738194521881,0.4346235990524292,0.0,0.0,0.0,0.0,-0.5235987755982994
1666091738284985980,0.41238275170326233,0.0,0.0,0.0,0.0,-0.5235987755982994
1666091738369042211,0.0,0.0,0.0,0.0,0.0,-0.5043692158280914
1666091738418971747,0.0,0.0,0.0,0.0,0.0,-0.4998069876296294
1666091738494474086,0.0,0.0,0.0,0.0,0.0,-0.5453433764808028
1666091738537047523,0.0,0.0,0.0,0.0,0.0,-0.5727801656769045
1666091738631091643,0.0,0.0,0.0,0.0,0.0,-0.6164182452253828
1666091738673180517,0.0,0.0,0.0,0.0,0.0,-0.6440528217690714
1666091738754806005,0.0,0.0,0.0,0.0,0.0,-0.6981317007977323
1666091738841328436,0.0,0.0,0.0,0.0,0.0,-0.7165689432642312
1666091738884602255,0.0,0.0,0.0,0.0,0.0,-0.7354368497916
1666091738977606410,0.0,0.0,0.0,0.0,0.0,-0.7767106325402096
1666091739082029962,0.0,0.0,0.0,0.0,0.0,-0.7492067956732603
1666091739101676955,0.0,0.0,0.0,0.0,0.0,-0.7405313831607708
1666091739239922484,0.0,0.0,0.0,0.0,0.0,-0.7480443884256762
1666091739271505389,0.0,0.0,0.0,0.0,0.0,-0.7190482822280408
1666091739368461717,0.0,0.0,0.0,0.0,0.0,-0.6981317007977323
1666091739477948500,0.0,0.0,0.0,0.0,0.0,-0.6219884968508935
1666091739611232672,0.0,0.0,0.0,0.0,0.0,-0.5235987755982994
1666091739652950646,0.0,0.0,0.0,0.0,0.0,-0.5235987755982994
1666091739713049878,0.4281879961490631,0.0,0.0,0.0,0.0,-0.1515873223543167
1666091739734967881,0.4280458688735962,0.0,0.0,0.0,0.0,-0.15151052176952362
1666091739827790337,0.45292460918426514,0.0,0.0,0.0,0.0,-0.1464889794588089
1666091739911474568,0.4762107729911804,0.0,0.0,0.0,0.0,-0.1404358595609665
1666091740000563792,0.5053790807723999,0.0,0.0,0.0,0.0,-0.13495859503746033
1666091740123123784,0.5381659865379333,0.0,0.0,0.0,0.0,-0.12772910296916962
1666091740218591098,0.5591020584106445,0.0,0.0,0.0,0.0,-0.11912386119365692
1666091740291970235,0.558879554271698,0.0,0.0,0.0,0.0,-0.0026639264542609453
1666091740384425935,0.6108075380325317,0.0,0.0,0.0,0.0,-0.09708427637815475
1666091740470590533,0.6403220891952515,0.0,0.0,0.0,0.0,-0.08581659942865372
1666091740552118700,0.6666635870933532,0.0,0.0,0.0,0.0,-0.07345160841941833
1666091740636258482,0.6860583424568176,0.0,0.0,0.0,0.0,-0.06022130697965622
1666091740751172206,0.6994380950927734,0.0,0.0,0.0,0.0,-4.996003610813204e-16
1666091740840548224,0.7050813436508179,0.0,0.0,0.0,0.0,0.056374724954366684
1666091740955454634,0.7027795910835266,0.0,0.0,0.0,0.0,-4.996003610813204e-16
1666091741076863793,0.7047057747840881,0.0,0.0,0.0,0.0,0.07754742354154587
1666091741133804892,0.6886873245239258,0.0,0.0,0.0,0.0,0.17453292519943245
1666091741258044847,0.6838095784187317,0.0,0.0,0.0,0.0,0.17453292519943245
1666091741291946590,0.6809858083724974,0.0,0.0,0.0,0.0,0.17453292519943245
1666091741475578959,0.6736074686050414,0.0,0.0,0.0,0.0,0.17453292519943245
1666091741529642523,0.6678094863891602,0.0,0.0,0.0,0.0,0.17453292519943245
1666091741560846290,0.6674541234970092,0.0,0.0,0.0,0.0,0.17453292519943245
1666091741637680415,0.6545512676239014,0.0,0.0,0.0,0.0,0.17453292519943245
1666091741776356961,0.6595315933227539,0.0,0.0,0.0,0.0,0.17453292519943245
1666091741858438063,0.6072438955307007,0.0,0.0,0.0,0.0,0.17453292519943245
1666091741896296904,0.6067463755607604,0.0,0.0,0.0,0.0,0.17453292519943245
1666091741996488384,0.5828678607940674,0.0,0.0,0.0,0.0,0.17453292519943245
1666091742096422507,0.5800479650497437,0.0,0.0,0.0,0.0,0.17453292519943245
1666091742154661178,0.5291262269020081,0.0,0.0,0.0,0.0,0.17453292519943245
1666091742244660454,0.51967453956604,0.0,0.0,0.0,0.0,0.17453292519943245
1666091742332426489,0.51445072889328,0.0,0.0,0.0,0.0,0.17453292519943245
1666091742380055916,0.4634939730167389,0.0,0.0,0.0,0.0,0.17453292519943245
1666091742463570635,0.4314301908016205,0.0,0.0,0.0,0.0,0.08295845985412598
1666091742496941248,0.43270957469940186,0.0,0.0,0.0,0.0,0.08324818313121796
1666091742539895118,0.3916889429092407,0.0,0.0,0.0,0.0,-4.996003610813204e-16
1666091742625733835,0.0,0.0,0.0,0.0,0.0,-4.996003610813204e-16
1666091742713472181,0.0,0.0,0.0,0.0,0.0,-4.996003610813204e-16
1666091742838109135,0.0,0.0,0.0,0.0,0.0,-4.996003610813204e-16
1666091742880897326,0.0,0.0,0.0,0.0,0.0,-4.996003610813204e-16
1666091742978805824,0.0,0.0,0.0,0.0,0.0,-4.996003610813204e-16
1666091743017247290,0.0,0.0,0.0,0.0,0.0,-4.996003610813204e-16
1666091743052574608,0.0,0.0,0.0,0.0,0.0,-4.996003610813204e-16
1666091743137010851,0.0,0.0,0.0,0.0,0.0,-4.996003610813204e-16
1666091743229963429,0.0,0.0,0.0,0.0,0.0,-4.996003610813204e-16
1666091743269430266,0.0,0.0,0.0,0.0,0.0,-4.996003610813204e-16
1666091743314313740,0.0,0.0,0.0,0.0,0.0,-4.996003610813204e-16
1666091743373639136,0.0,0.0,0.0,0.0,0.0,-4.996003610813204e-16
1666091743434067355,0.0,0.0,0.0,0.0,0.0,-4.996003610813204e-16
1666091743573604390,0.0,0.0,0.0,0.0,0.0,-4.996003610813204e-16
1666091743632549800,0.0,0.0,0.0,0.0,0.0,-4.996003610813204e-16
1666091743696274975,0.4097305834293365,0.0,0.0,0.0,0.0,-0.07275307178497314
1666091743783398148,0.4241888225078583,0.0,0.0,0.0,0.0,-0.07460980117321014
1666091743864761515,0.4205050468444824,0.0,0.0,0.0,0.0,-4.996003610813204e-16
1666091743916086174,0.41943889856338495,0.0,0.0,0.0,0.0,-4.996003610813204e-16
1666091743963713546,0.4385738968849182,0.0,0.0,0.0,0.0,-0.08258886635303497
1666091744040259862,0.45317366719245905,0.0,0.0,0.0,0.0,-0.08600129932165146
1666091744177844945,0.46471622586250305,0.0,0.0,0.0,0.0,-0.08947267383337021
1666091744218490764,0.47148123383522034,0.0,0.0,0.0,0.0,-0.09268010407686234
1666091744297284332,0.47764572501182556,0.0,0.0,0.0,0.0,-0.09619070589542389
1666091744339778424,0.45860570669174194,0.0,0.0,0.0,0.0,-0.17453292519943345
1666091744396152211,0.46055799722671503,0.0,0.0,0.0,0.0,-0.17453292519943345
1666091744506201447,0.49275949597358704,0.0,0.0,0.0,0.0,-0.1053304374217987
1666091744644592919,0.45759713649749756,0.0,0.0,0.0,0.0,-4.996003610813204e-16
1666091744752511642,0.5048914551734924,0.0,0.0,0.0,0.0,-0.11653665453195572
1666091744762664803,0.503754198551178,0.0,0.0,0.0,0.0,-0.11656808108091354
1666091744851510586,0.5167886018753052,0.0,0.0,0.0,0.0,-0.12123817950487137
1666091744947576868,0.518642783164978,0.0,0.0,0.0,0.0,-0.13024002313613892
1666091744954772934,0.5183584690093994,0.0,0.0,0.0,0.0,-0.13012832403182983
1666091745017264252,0.4644446074962616,0.0,0.0,0.0,0.0,-0.027364632114768028
1666091745197143822,0.5053966045379639,0.0,0.0,0.0,0.0,-0.1405385583639145
1666091745242276664,0.4946797788143158,0.0,0.0,0.0,0.0,-0.14473770558834076
1666091745320960162,0.42211815714836115,0.0,0.0,0.0,0.0,-0.03901829943060875
1666091745363977205,0.4683440029621124,0.0,0.0,0.0,0.0,-0.15134190022945404
1666091745455433963,0.45383045077323914,0.0,0.0,0.0,0.0,-0.15401165187358856
1666091745584892296,0.41429281234741205,0.0,0.0,0.0,0.0,-0.15769663453102112
1666091745624926562,0.4146482050418854,0.0,0.0,0.0,0.0,-0.15781879425048828
1666091745718575805,0.3957091271877289,0.0,0.0,0.0,0.0,-0.15939904749393463
1666091745773707866,0.0,0.0,0.0,0.0,0.0,-0.572104918323526
1666091745933731593,0.0,0.0,0.0,0.0,0.0,-0.6735484531724857
1666091745990105664,0.0,0.0,0.0,0.0,0.0,-0.6981317007977323
1666091745991903949,0.0,0.0,0.0,0.0,0.0,-0.6981317007977323
1666091746060335354,0.0,0.0,0.0,0.0,0.0,-0.7427065895637248
1666091746153516971,0.0,0.0,0.0,0.0,0.0,-0.7814789155199088
1666091746213382637,0.0,0.0,0.0,0.0,0.0,-0.8019977352694915
1666091746365527624,0.0,0.0,0.0,0.0,0.0,-0.8429208625140936
1666091746456295300,0.0,0.0,0.0,0.0,0.0,-0.8258128380492716
1666091746545494851,0.0,0.0,0.0,0.0,0.0,-0.8181684312931007
1666091746551168305,0.0,0.0,0.0,0.0,0.0,-0.8086965774002605
1666091746659171577,0.0,0.0,0.0,0.0,0.0,-0.7634492425066088
1666091746705940549,0.0,0.0,0.0,0.0,0.0,-0.7576993445806234
1666091746754634121,0.0,0.0,0.0,0.0,0.0,-0.7204245941424042
1666091746877592883,0.0,0.0,0.0,0.0,0.0,-0.6579540517546635
1666091746942594873,0.0,0.0,0.0,0.0,0.0,-0.642411675027446
1666091747014761513,0.302432656288147,0.0,0.0,0.0,0.0,-0.06861802935600281
1666091747135830180,0.4267583191394806,0.0,0.0,0.0,0.0,-0.17730964720249176
1666091747223843487,0.4552296996116638,0.0,0.0,0.0,0.0,-0.17366145551204681
1666091747356024976,0.4796013236045837,0.0,0.0,0.0,0.0,-0.17110633850097656
1666091747415861856,0.5042446851730347,0.0,0.0,0.0,0.0,-0.1694621741771698
1666091747476454304,0.5239399671554565,0.0,0.0,0.0,0.0,-0.16871105134487152
1666091747562740637,0.5425764322280883,0.0,0.0,0.0,0.0,-0.1652926355600357
1666091747653983280,0.5043809413909912,0.0,0.0,0.0,0.0,-4.996003610813204e-16
1666091747742432178,0.1,0.0,0.0,0.0,0.0,-0.3490658503988664
1666091747797458281,0.5734208226203918,0.0,0.0,0.0,0.0,-0.15010979771614075
1666091747862270409,0.5853012204170227,0.0,0.0,0.0,0.0,-0.14034022390842438
1666091748042792433,0.595195710659027,0.0,0.0,0.0,0.0,-0.12071177363395691
1666091748128458868,0.5955385565757751,0.0,0.0,0.0,0.0,-0.11057340353727341
1666091748158911078,0.5948988795280457,0.0,0.0,0.0,0.0,-0.11121568083763123
1666091748248253734,0.5728168487548828,0.0,0.0,0.0,0.0,0.00010451228445162997
1666091748335706447,0.1,0.0,0.0,0.0,0.0,-0.08671553432941437
1666091748458533569,0.1,0.0,0.0,0.0,0.0,-0.07968824356794357
1666091748503579022,0.1,0.0,0.0,0.0,0.0,-0.07915417104959488
1666091748592486017,0.1,0.0,0.0,0.0,0.0,-0.06399265676736832
1666091748674912262,0.1,0.0,0.0,0.0,0.0,-4.996003610813204e-16
1666091748802938569,0.1,0.0,0.0,0.0,0.0,-4.996003610813204e-16
1666091748848101381,0.1,0.0,0.0,0.0,0.0,-4.996003610813204e-16
1666091748982230560,0.5410968065261841,0.0,0.0,0.0,0.0,0.3490658503988654
1666091749017783223,0.5350431799888611,0.0,0.0,0.0,0.0,0.3490658503988654
1666091749038438219,0.5350431799888611,0.0,0.0,0.0,0.0,0.3490658503988654
1666091749142262672,0.5327426791191101,0.0,0.0,0.0,0.0,0.3490658503988654
1666091749237688671,0.5355398654937744,0.0,0.0,0.0,0.0,0.3490658503988654
1666091749328448758,0.1,0.0,0.0,0.0,0.0,0.0713617280125618
1666091749336808795,0.1,0.0,0.0,0.0,0.0,0.07138964533805847
1666091749401931857,0.5307729840278625,0.0,0.0,0.0,0.0,0.17453292519943245
1666091749533201428,0.5413550138473511,0.0,0.0,0.0,0.0,0.17453292519943245
1666091749597824494,0.5351107716560364,0.0,0.0,0.0,0.0,0.3490658503988654
1666091749660823957,0.5532945394515991,0.0,0.0,0.0,0.0,0.3490658503988654
1666091749675866469,0.5518730282783508,0.0,0.0,0.0,0.0,0.3490658503988654
1666091749826677584,0.1,0.0,0.0,0.0,0.0,-4.996003610813204e-16
1666091749917964192,0.5772840976715088,0.0,0.0,0.0,0.0,0.3490658503988654
1666091749991376224,0.1,0.0,0.0,0.0,0.0,-4.996003610813204e-16
1666091750055581372,0.1,0.0,0.0,0.0,0.0,0.07928328961133957
1666091750079540354,0.1,0.0,0.0,0.0,0.0,0.07966726273298264
1666091750170271511,0.1,0.0,0.0,0.0,0.0,0.17453292519943245
1666091750258393645,0.1,0.0,0.0,0.0,0.0,0.17453292519943245
1666091750304328322,0.1,0.0,0.0,0.0,0.0,0.17453292519943245
1666091750428898692,0.1,0.0,0.0,0.0,0.0,0.17453292519943245
1666091750520541295,0.1,0.0,0.0,0.0,0.0,0.17453292519943245
1666091750562632769,0.1,0.0,0.0,0.0,0.0,0.17453292519943245
1666091750611651275,0.1,0.0,0.0,0.0,0.0,0.17453292519943245
1666091750725338548,0.1,0.0,0.0,0.0,0.0,0.17453292519943245
1666091750811632738,0.1,0.0,0.0,0.0,0.0,0.17453292519943245
1666091750858366780,0.1,0.0,0.0,0.0,0.0,0.3490658503988654
1666091750963378734,0.1,0.0,0.0,0.0,0.0,0.3490658503988654
1666091750974719121,0.1,0.0,0.0,0.0,0.0,0.3490658503988654
1666091751018591832,0.1,0.0,0.0,0.0,0.0,0.3490658503988654
1666091751115751272,0.1,0.0,0.0,0.0,0.0,0.8726646259971643
1666091751235890270,0.1,0.0,0.0,0.0,0.0,0.8726646259971643
1666091751282378437,0.1,0.0,0.0,0.0,0.0,0.8726646259971643
1666091751330000925,0.1,0.0,0.0,0.0,0.0,0.8726646259971643
1666091751425746342,0.1,0.0,0.0,0.0,0.0,0.8726646259971643
1666091751435399423,0.1,0.0,0.0,0.0,0.0,0.8726646259971643
1666091751550074444,0.1,0.0,0.0,0.0,0.0,1.5707963267948961
1666091751646534860,0.7999999999999999,0.0,0.0,0.0,0.0,0.3490658503988654
1666091751727045216,0.7999999999999999,0.0,0.0,0.0,0.0,0.3490658503988654
1666091751828062326,0.7999999999999999,0.0,0.0,0.0,0.0,0.17453292519943245
1666091751858107597,0.7999999999999999,0.0,0.0,0.0,0.0,0.17453292519943245
1666091751944993102,0.7999999999999999,0.0,0.0,0.0,0.0,0.17453292519943245
1666091752068136454,0.7999999999999999,0.0,0.0,0.0,0.0,0.17453292519943245
1666091752117302935,0.7999999999999999,0.0,0.0,0.0,0.0,-4.996003610813204e-16
1666091752220647124,0.7999999999999999,0.0,0.0,0.0,0.0,-0.05872993916273117
1666091752272116089,0.7999999999999999,0.0,0.0,0.0,0.0,-0.17453292519943345
1666091752283806219,0.7999999999999999,0.0,0.0,0.0,0.0,-0.17453292519943345
1666091752416780810,0.7999999999999999,0.0,0.0,0.0,0.0,-0.17453292519943345
1666091752503661398,0.7999999999999999,0.0,0.0,0.0,0.0,-0.3490658503988664
1666091752560533235,0.7999999999999999,0.0,0.0,0.0,0.0,-0.5235987755982994
1666091752630508211,0.7999999999999999,0.0,0.0,0.0,0.0,-0.5235987755982994
1666091752666278935,0.7999999999999999,0.0,0.0,0.0,0.0,-0.5235987755982994
1666091752707813697,0.7999999999999999,0.0,0.0,0.0,0.0,-0.5235987755982994
1666091752801641704,0.7999999999999999,0.0,0.0,0.0,0.0,-0.6981317007977323
1666091752887698838,0.7999999999999999,0.0,0.0,0.0,0.0,-0.6981317007977323
1666091752896396662,0.7999999999999999,0.0,0.0,0.0,0.0,-0.6981317007977323
1666091753009963824,0.7999999999999999,0.0,0.0,0.0,0.0,-0.8726646259971653
1666091753056670251,0.7999999999999999,0.0,0.0,0.0,0.0,-0.8726646259971653
1666091753138745872,0.7999999999999999,0.0,0.0,0.0,0.0,-0.8726646259971653
1666091753220122115,0.7999999999999999,0.0,0.0,0.0,0.0,-1.0471975511965983
1666091753304954274,0.7821624875068665,0.0,0.0,0.0,0.0,-1.0471975511965983
1666091753435714430,0.7341794967651367,0.0,0.0,0.0,0.0,-1.0471975511965983
1666091753532700154,0.7999999999999999,0.0,0.0,0.0,0.0,-1.2217304763960313
1666091753536842379,0.7158520221710205,0.0,0.0,0.0,0.0,-1.0471975511965983
1666091753648102572,0.7952132821083069,0.0,0.0,0.0,0.0,-1.2217304763960313
1666091753780600933,0.7870241403579712,0.0,0.0,0.0,0.0,-1.2217304763960313
1666091753824529528,0.7636729478836058,0.0,0.0,0.0,0.0,-1.2217304763960313
1666091753925082715,0.7509498596191405,0.0,0.0,0.0,0.0,-1.2217304763960313
1666091753943434384,0.736770510673523,0.0,0.0,0.0,0.0,-1.2217304763960313
1666091754032409496,0.7237859368324279,0.0,0.0,0.0,0.0,-1.2217304763960313
1666091754077675556,0.7241412401199341,0.0,0.0,0.0,0.0,-1.2217304763960313
1666091754163614856,0.704835057258606,0.0,0.0,0.0,0.0,-1.2217304763960313
1666091754242107758,0.6851341128349304,0.0,0.0,0.0,0.0,-1.2217304763960313
1666091754380258388,0.6649745106697081,0.0,0.0,0.0,0.0,-1.2217304763960313
1666091754460056597,0.5383912324905396,0.0,0.0,0.0,0.0,-1.2217304763960313
1666091754544027990,0.5068407654762268,0.0,0.0,0.0,0.0,-1.2217304763960313
1666091754640218224,0.5917499661445618,0.0,0.0,0.0,0.0,-1.2217304763960313
1666091754697393386,0.5677313208580017,0.0,0.0,0.0,0.0,-1.2217304763960313
1666091754808248927,0.5416692495346069,0.0,0.0,0.0,0.0,-1.3962634015954642
1666091754940511944,0.1,0.0,0.0,0.0,0.0,-1.0471975511965983
1666091755035380765,0.4775131046772003,0.0,0.0,0.0,0.0,-1.2217304763960313
1666091755143385181,0.1,0.0,0.0,0.0,0.0,-0.8726646259971653
1666091755230255837,0.1,0.0,0.0,0.0,0.0,-0.8726646259971653
1666091755317625550,0.0,0.0,0.0,0.0,0.0,-0.5677890237411163
1666091755378395618,0.0,0.0,0.0,0.0,0.0,-0.4436132231719268
1666091755530716551,0.0,0.0,0.0,0.0,0.0,-0.2674631323306935
1666091755537173194,0.0,0.0,0.0,0.0,0.0,-0.17453292519943345
1666091755694288103,0.0,0.0,0.0,0.0,0.0,-4.996003610813204e-16
1666091755759212124,0.0,0.0,0.0,0.0,0.0,0.17453292519943245
1666091755857227486,0.0,0.0,0.0,0.0,0.0,0.25746800711228524
1666091755947150766,0.0,0.0,0.0,0.0,0.0,0.33068962403780755
1666091756083474704,0.3920746445655823,0.0,0.0,0.0,0.0,0.5235987755982984
1666091756128663211,0.39164820313453674,0.0,0.0,0.0,0.0,0.5235987755982984
1666091756159907608,0.47157031297683716,0.0,0.0,0.0,0.0,0.5235987755982984
1666091756298499333,0.42317172884941096,0.0,0.0,0.0,0.0,0.5235987755982984
1666091756400285758,0.42668586969375605,0.0,0.0,0.0,0.0,0.5235987755982984
1666091756452332654,0.425761878490448,0.0,0.0,0.0,0.0,0.5235987755982984
1666091756497293305,0.4326705038547516,0.0,0.0,0.0,0.0,0.6981317007977313
1666091756584588791,0.5141239166259766,0.0,0.0,0.0,0.0,0.6981317007977313
1666091756701013023,0.44815340638160706,0.0,0.0,0.0,0.0,0.6981317007977313
1666091756831221497,0.46334049105644226,0.0,0.0,0.0,0.0,0.6981317007977313
1666091756863965749,0.47214046120643616,0.0,0.0,0.0,0.0,0.6981317007977313
1666091756929993162,0.547973096370697,0.0,0.0,0.0,0.0,0.6981317007977313
1666091756956846416,0.5475466251373291,0.0,0.0,0.0,0.0,0.6981317007977313
1666091757039477546,0.479118287563324,0.0,0.0,0.0,0.0,0.6981317007977313
1666091757128821708,0.47918567061424255,0.0,0.0,0.0,0.0,0.6981317007977313
1666091757203529717,0.4846098721027374,0.0,0.0,0.0,0.0,0.6981317007977313
1666091757291869029,0.4945519268512726,0.0,0.0,0.0,0.0,0.6981317007977313
1666091757386712743,0.5070051550865173,0.0,0.0,0.0,0.0,0.5235987755982984
1666091757440624239,0.5103577375411987,0.0,0.0,0.0,0.0,0.5235987755982984
1666091757595034271,0.5097882151603699,0.0,0.0,0.0,0.0,0.5235987755982984
1666091757684806846,0.5106753706932068,0.0,0.0,0.0,0.0,0.5235987755982984
1666091757727901272,0.5101778507232666,0.0,0.0,0.0,0.0,0.5235987755982984
1666091757766354704,0.507668673992157,0.0,0.0,0.0,0.0,0.5235987755982984
1666091757843172911,0.5021729469299316,0.0,0.0,0.0,0.0,0.5235987755982984
1666091757941390134,0.5514230132102965,0.0,0.0,0.0,0.0,0.5235987755982984
1666091757974580664,0.48234373331069946,0.0,0.0,0.0,0.0,0.5235987755982984
1666091758062696485,0.5104310512542725,0.0,0.0,0.0,0.0,0.5235987755982984
1666091758164467580,0.4343965947628021,0.0,0.0,0.0,0.0,0.5235987755982984
1666091758184459848,0.4170795679092407,0.0,0.0,0.0,0.0,0.5235987755982984
1666091758281534529,0.39965125918388367,0.0,0.0,0.0,0.0,0.5235987755982984
1666091758315170753,0.40149927139282227,0.0,0.0,0.0,0.0,0.5235987755982984
1666091758402632776,0.3870324194431305,0.0,0.0,0.0,0.0,0.5235987755982984
1666091758449489004,0.37022873759269714,0.0,0.0,0.0,0.0,0.3490658503988654
1666091758522111399,0.0,0.0,0.0,0.0,0.0,0.3311555378940228
1666091758574239043,0.0,0.0,0.0,0.0,0.0,0.3075332657811058
1666091758609998982,0.0,0.0,0.0,0.0,0.0,0.3045042947640415
1666091758699329250,0.0,0.0,0.0,0.0,0.0,0.3049412186422997
1666091758828086209,0.0,0.0,0.0,0.0,0.0,0.2917936213315147
1666091758862122868,0.0,0.0,0.0,0.0,0.0,0.2709191833612661
1666091758953622147,0.0,0.0,0.0,0.0,0.0,0.2673497285465856
1666091758993576932,0.0,0.0,0.0,0.0,0.0,0.2607230946883809
1666091759037333014,0.0,0.0,0.0,0.0,0.0,0.2477000994344856
1666091759158456336,0.0,0.0,0.0,0.0,0.0,0.22202570643616676
1666091759269836764,0.0,0.0,0.0,0.0,0.0,0.17453292519943245
1666091759295330133,0.0,0.0,0.0,0.0,0.0,0.17453292519943245
1666091759390521740,0.0,0.0,0.0,0.0,0.0,0.17453292519943245
1666091759398058369,0.0,0.0,0.0,0.0,0.0,0.17453292519943245
1666091759508982290,0.0,0.0,0.0,0.0,0.0,0.17453292519943245
1666091759552679974,0.0,0.0,0.0,0.0,0.0,-4.996003610813204e-16
1666091759601091065,0.0,0.0,0.0,0.0,0.0,-4.996003610813204e-16
1666091759678748867,0.0,0.0,0.0,0.0,0.0,-4.996003610813204e-16
1666091759765088512,0.0,0.0,0.0,0.0,0.0,-4.996003610813204e-16
1666091759809379122,0.0,0.0,0.0,0.0,0.0,-4.996003610813204e-16
1666091759897275448,0.0,0.0,0.0,0.0,0.0,-4.996003610813204e-16
1666091759985082093,0.0,0.0,0.0,0.0,0.0,-4.996003610813204e-16
1666091760061624476,0.0,0.0,0.0,0.0,0.0,-4.996003610813204e-16
1666091760194318294,0.0,0.0,0.0,0.0,0.0,-4.996003610813204e-16
1666091760240926345,0.0,0.0,0.0,0.0,0.0,-4.996003610813204e-16
1666091760363437939,0.0,0.0,0.0,0.0,0.0,-4.996003610813204e-16
1666091760406052837,0.0,0.0,0.0,0.0,0.0,-4.996003610813204e-16
1666091760502353771,0.0,0.0,0.0,0.0,0.0,-4.996003610813204e-16
1666091760540401908,0.0,0.0,0.0,0.0,0.0,-4.996003610813204e-16
1666091760629377413,0.0,0.0,0.0,0.0,0.0,0.17453292519943245
1666091760638592703,0.0,0.0,0.0,0.0,0.0,0.17453292519943245
1666091760703813180,0.0,0.0,0.0,0.0,0.0,0.17453292519943245
1666091760841316630,0.0,0.0,0.0,0.0,0.0,0.17453292519943245
1666091760885656919,0.0,0.0,0.0,0.0,0.0,0.17453292519943245
1666091760933561225,0.0,0.0,0.0,0.0,0.0,0.17453292519943245
1666091761005853524,0.0,0.0,0.0,0.0,0.0,0.17453292519943245
1666091761050124681,0.0,0.0,0.0,0.0,0.0,0.17453292519943245
1666091761186307983,0.0,0.0,0.0,0.0,0.0,0.17453292519943245
1666091761220339528,0.0,0.0,0.0,0.0,0.0,0.17453292519943245
1666091761312293650,0.0,0.0,0.0,0.0,0.0,0.17453292519943245
1666091761397071952,0.0,0.0,0.0,0.0,0.0,0.17453292519943245
1666091761489649715,0.0,0.0,0.0,0.0,0.0,0.17453292519943245
1666091761567627379,0.0,0.0,0.0,0.0,0.0,0.17453292519943245
1666091761613198595,0.0,0.0,0.0,0.0,0.0,0.17453292519943245
1666091761702526223,0.0,0.0,0.0,0.0,0.0,0.17453292519943245
1666091761745028395,0.0,0.0,0.0,0.0,0.0,0.17453292519943245
1666091761865513871,0.0,0.0,0.0,0.0,0.0,0.17453292519943245
1666091761967066514,0.0,0.0,0.0,0.0,0.0,0.17453292519943245
1666091761980657967,0.0,0.0,0.0,0.0,0.0,0.17453292519943245
1666091762114399538,0.0,0.0,0.0,0.0,0.0,0.17453292519943245
1666091762201081958,0.0,0.0,0.0,0.0,0.0,0.17453292519943245
1666091762280752925,0.0,0.0,0.0,0.0,0.0,0.17453292519943245
1666091762372370212,0.0,0.0,0.0,0.0,0.0,0.17453292519943245
1666091762409657382,0.0,0.0,0.0,0.0,0.0,0.17453292519943245
1666091762515969610,0.0,0.0,0.0,0.0,0.0,0.17453292519943245
1666091762544985811,0.0,0.0,0.0,0.0,0.0,0.17453292519943245
1666091762611549821,0.0,0.0,0.0,0.0,0.0,0.17453292519943245
1666091762666637033,0.0,0.0,0.0,0.0,0.0,0.17453292519943245
1666091762709514330,0.0,0.0,0.0,0.0,0.0,0.17453292519943245
1666091762833703086,0.0,0.0,0.0,0.0,0.0,0.17453292519943245
1666091762924724046,0.0,0.0,0.0,0.0,0.0,0.17453292519943245
1666091763008880061,0.0,0.0,0.0,0.0,0.0,0.17453292519943245
1666091763040370805,0.0,0.0,0.0,0.0,0.0,0.17453292519943245
1666091763178648410,0.0,0.0,0.0,0.0,0.0,0.17453292519943245
1666091763200021874,0.0,0.0,0.0,0.0,0.0,0.17453292519943245
1666091763334056470,0.0,0.0,0.0,0.0,0.0,0.17453292519943245
1666091763404819574,0.0,0.0,0.0,0.0,0.0,0.17453292519943245
1666091763491734448,0.0,0.0,0.0,0.0,0.0,0.17453292519943245
1666091763499666389,0.0,0.0,0.0,0.0,0.0,0.17453292519943245
1666091763640443664,0.0,0.0,0.0,0.0,0.0,0.17453292519943245
1666091763715963063,0.0,0.0,0.0,0.0,0.0,0.17453292519943245
1666091763749472568,0.0,0.0,0.0,0.0,0.0,0.17453292519943245
1666091763838405835,0.0,0.0,0.0,0.0,0.0,0.17453292519943245
1666091763929689740,0.0,0.0,0.0,0.0,0.0,0.17453292519943245
1666091763969217758,0.0,0.0,0.0,0.0,0.0,0.17453292519943245
1666091764091712942,0.0,0.0,0.0,0.0,0.0,0.17453292519943245
1666091764221748020,0.0,0.0,0.0,0.0,0.0,0.17453292519943245
1666091764230620602,0.0,0.0,0.0,0.0,0.0,0.17453292519943245
1666091764346499254,0.0,0.0,0.0,0.0,0.0,0.17453292519943245
1666091764481382793,0.0,0.0,0.0,0.0,0.0,0.17453292519943245
1666091764572559738,0.0,0.0,0.0,0.0,0.0,0.17453292519943245
1666091764580315455,0.0,0.0,0.0,0.0,0.0,0.17453292519943245
1666091764683291229,0.0,0.0,0.0,0.0,0.0,0.17453292519943245
1666091764729089453,0.0,0.0,0.0,0.0,0.0,0.17453292519943245
1666091764848999580,0.0,0.0,0.0,0.0,0.0,0.17453292519943245
1666091764855149363,0.0,0.0,0.0,0.0,0.0,0.17453292519943245
1666091764970392146,0.0,0.0,0.0,0.0,0.0,0.17453292519943245
1666091765105580167,0.0,0.0,0.0,0.0,0.0,0.17453292519943245
1666091765141456199,0.0,0.0,0.0,0.0,0.0,0.17453292519943245
1666091765245467100,0.0,0.0,0.0,0.0,0.0,0.17453292519943245
1666091765272259604,0.0,0.0,0.0,0.0,0.0,0.17453292519943245
1666091765402688776,0.0,0.0,0.0,0.0,0.0,0.17453292519943245
1666091765452005028,0.0,0.0,0.0,0.0,0.0,0.17453292519943245
1666091765569496622,0.0,0.0,0.0,0.0,0.0,0.17453292519943245
1666091765706107859,0.0,0.0,0.0,0.0,0.0,0.17453292519943245
1666091765745710849,0.0,0.0,0.0,0.0,0.0,0.17453292519943245
1666091765821336015,0.0,0.0,0.0,0.0,0.0,0.17453292519943245
1666091765913251280,0.0,0.0,0.0,0.0,0.0,0.17453292519943245
1666091766034523837,0.0,0.0,0.0,0.0,0.0,0.17453292519943245
1666091766044753400,0.0,0.0,0.0,0.0,0.0,0.17453292519943245
1666091766147196170,0.0,0.0,0.0,0.0,0.0,0.17453292519943245
1666091766166861287,0.0,0.0,0.0,0.0,0.0,0.17453292519943245
1666091766256946206,0.0,0.0,0.0,0.0,0.0,0.17453292519943245
1666091766297082717,0.0,0.0,0.0,0.0,0.0,0.17453292519943245
1666091766376774171,0.0,0.0,0.0,0.0,0.0,0.17453292519943245
1666091766442254373,0.0,0.0,0.0,0.0,0.0,0.17453292519943245
1666091766465716130,0.0,0.0,0.0,0.0,0.0,0.17453292519943245
1666091766550152888,0.0,0.0,0.0,0.0,0.0,0.17453292519943245
1666091766593545485,0.0,0.0,0.0,0.0,0.0,0.17453292519943245
1666091766726425650,0.0,0.0,0.0,0.0,0.0,0.17453292519943245
1666091766833368645,0.0,0.0,0.0,0.0,0.0,0.17453292519943245
1666091766848782673,0.0,0.0,0.0,0.0,0.0,0.17453292519943245
1666091766969343239,0.0,0.0,0.0,0.0,0.0,0.17453292519943245
1666091767025065935,0.0,0.0,0.0,0.0,0.0,0.17453292519943245
1666091767118473190,0.0,0.0,0.0,0.0,0.0,0.17453292519943245
1666091767149706733,0.0,0.0,0.0,0.0,0.0,0.17453292519943245
1666091767214025464,0.0,0.0,0.0,0.0,0.0,0.17453292519943245
