%time,field.linear.x,field.linear.y,field.linear.z,field.angular.x,field.angular.y,field.angular.z
1666091717803298510,0.015,0.0,0.0,0.0,0.0,-0.034682716457654986
1666091717853444580,0.03,0.0,0.0,0.0,0.0,-0.06936543291530997
1666091717903004884,0.045,0.0,0.0,0.0,0.0,-0.1117305298035773
1666091717953143867,0.06,0.0,0.0,0.0,0.0,-0.15409562669184462
1666091718003335601,0.075,0.0,0.0,0.0,0.0,-0.19646072358011193
1666091718053352806,0.09,0.0,0.0,0.0,0.0,-0.23832329098421307
1666091718103116084,0.105,0.0,0.0,0.0,0.0,-0.28032395336261506
1666091718153140691,0.12,0.0,0.0,0.0,0.0,-0.322324615741017
1666091718203127421,0.135,0.0,0.0,0.0,0.0,-0.36432527811941895
1666091718253371774,0.15000000000000002,0.0,0.0,0.0,0.0,-0.40824782925755826
1666091718303252439,0.16500000000000004,0.0,0.0,0.0,0.0,-0.4530188049542574
1666091718353210879,0.18000000000000005,0.0,0.0,0.0,0.0,-0.49793853454586895
1666091718403157848,0.19500000000000006,0.0,0.0,0.0,0.0,-0.5422699206844351
1666091718453138115,0.21000000000000008,0.0,0.0,0.0,0.0,-0.5866013068230014
1666091718503265249,0.2250000000000001,0.0,0.0,0.0,0.0,-0.6329940507545859
1666091718553360506,0.2400000000000001,0.0,0.0,0.0,0.0,-0.6793867946861705
1666091718603265337,0.2550000000000001,0.0,0.0,0.0,0.0,-0.7267173978667935
1666091718653321262,0.27000000000000013,0.0,0.0,0.0,0.0,-0.7740480010474164
1666091718703387660,0.28500000000000014,0.0,0.0,0.0,0.0,-0.822397671220537
1666091718753657010,0.30000000000000016,0.0,0.0,0.0,0.0,-0.8710825117356502
1666091718803069036,0.31500000000000017,0.0,0.0,0.0,0.0,-0.920977915655223
1666091718853387012,0.3300000000000002,0.0,0.0,0.0,0.0,-0.9751608073395982
1666091718903679425,0.3450000000000002,0.0,0.0,0.0,0.0,-1.0293436990239733
1666091718953435539,0.3600000000000002,0.0,0.0,0.0,0.0,-1.0852104825920783
1666091719003432994,0.3750000000000002,0.0,0.0,0.0,0.0,-1.1492699956085373
1666091719053642890,0.39000000000000024,0.0,0.0,0.0,0.0,-1.2133295086249964
1666091719103270585,0.39196714758872986,0.0,0.0,0.0,0.0,-1.2217304763960313
1666091719153057887,0.3838041424751282,0.0,0.0,0.0,0.0,-1.0471975511965983
1666091719203126226,0.37306433916091913,0.0,0.0,0.0,0.0,-1.0471975511965983
1666091719253328640,0.37306433916091913,0.0,0.0,0.0,0.0,-1.0471975511965983
1666091719305830117,0.3648230135440826,0.0,0.0,0.0,0.0,-1.0471975511965983
1666091719353135543,0.3648230135440826,0.0,0.0,0.0,0.0,-1.0471975511965983
1666091719403065099,0.21482301354408256,0.0,0.0,0.0,0.0,-0.9357377647873993
1666091719453201850,0.06482301354408254,0.0,0.0,0.0,0.0,-0.7818109784757783
1666091719503069126,0.0,0.0,0.0,0.0,0.0,-0.7152909907832763
1666091719553221213,0.0,0.0,0.0,0.0,0.0,-0.7152909907832763
1666091719604293160,0.0,0.0,0.0,0.0,0.0,-0.6554535328650163
1666091719653228606,0.0,0.0,0.0,0.0,0.0,-0.5941140509382805
1666091719703182746,0.0,0.0,0.0,0.0,0.0,-0.5941140509382805
1666091719754452169,0.0,0.0,0.0,0.0,0.0,-0.46983762920402466
1666091719803094914,0.0,0.0,0.0,0.0,0.0,-0.46983762920402466
1666091719853420251,0.0,0.0,0.0,0.0,0.0,-0.4120833744522373
1666091719903091783,0.0,0.0,0.0,0.0,0.0,-0.4120833744522373
1666091719953300963,0.0,0.0,0.0,0.0,0.0,-0.4120833744522373
1666091720003274046,0.0,0.0,0.0,0.0,0.0,-0.3590518222812229
1666091720053176628,0.0,0.0,0.0,0.0,0.0,-0.3008757568228726
1666091720103134179,0.0,0.0,0.0,0.0,0.0,-0.239892042286789
1666091720153255578,0.0,0.0,0.0,0.0,0.0,-0.17453292519943345
1666091720203066823,0.0,0.0,0.0,0.0,0.0,-0.17453292519943345
1666091720253238858,0.0,0.0,0.0,0.0,0.0,-0.17453292519943345
1666091720303171776,0.0,0.0,0.0,0.0,0.0,-0.17453292519943345
1666091720353177488,0.0,0.0,0.0,0.0,0.0,-4.996003610813204e-16
1666091720405315015,0.0,0.0,0.0,0.0,0.0,-4.996003610813204e-16
1666091720453060707,0.0,0.0,0.0,0.0,0.0,-4.996003610813204e-16
1666091720503376684,0.0,0.0,0.0,0.0,0.0,-4.996003610813204e-16
1666091720553207762,0.0,0.0,0.0,0.0,0.0,-4.996003610813204e-16
1666091720603278247,0.0,0.0,0.0,0.0,0.0,-4.996003610813204e-16
1666091720653521695,0.0,0.0,0.0,0.0,0.0,-4.996003610813204e-16
1666091720703141599,0.0,0.0,0.0,0.0,0.0,-4.996003610813204e-16
1666091720753160846,0.0,0.0,0.0,0.0,0.0,-4.996003610813204e-16
1666091720803561966,0.0,0.0,0.0,0.0,0.0,-4.996003610813204e-16
1666091720853118455,0.0,0.0,0.0,0.0,0.0,-4.996003610813204e-16
1666091720903212665,0.0,0.0,0.0,0.0,0.0,-4.996003610813204e-16
1666091720953884389,0.0,0.0,0.0,0.0,0.0,-4.996003610813204e-16
1666091721003595481,0.0,0.0,0.0,0.0,0.0,-4.996003610813204e-16
1666091721053150679,0.0,0.0,0.0,0.0,0.0,-0.1000000000000005
1666091721103237952,0.0,0.0,0.0,0.0,0.0,-0.17453292519943345
1666091721153245504,0.0,0.0,0.0,0.0,0.0,-0.17453292519943345
1666091721203143249,0.0,0.0,0.0,0.0,0.0,-0.17453292519943345
1666091721254140680,0.0,0.0,0.0,0.0,0.0,-0.17453292519943345
1666091721303167782,0.0,0.0,0.0,0.0,0.0,-0.17453292519943345
1666091721353276035,0.0,0.0,0.0,0.0,0.0,-0.17453292519943345
1666091721403169270,0.0,0.0,0.0,0.0,0.0,-0.17453292519943345
1666091721453656134,0.0,0.0,0.0,0.0,0.0,-0.17453292519943345
1666091721503087271,0.0,0.0,0.0,0.0,0.0,-0.17453292519943345
1666091721553377978,0.0,0.0,0.0,0.0,0.0,-0.2172900991195257
1666091721603105453,0.0,0.0,0.0,0.0,0.0,-0.2172900991195257
1666091721653415281,0.0,0.0,0.0,0.0,0.0,-0.2172900991195257
1666091721703073976,0.0,0.0,0.0,0.0,0.0,-0.2468753660801538
1666091721753333903,0.0,0.0,0.0,0.0,0.0,-0.2468753660801538
1666091721804453969,0.0,0.0,0.0,0.0,0.0,-0.27697919084937006
1666091721853722927,0.0,0.0,0.0,0.0,0.0,-0.27697919084937006
1666091721903200096,0.0,0.0,0.0,0.0,0.0,-0.27697919084937006
1666091721953668540,0.0,0.0,0.0,0.0,0.0,-0.35510749489811233
1666091722003147126,0.0,0.0,0.0,0.0,0.0,-0.3490658503988664
1666091722053794903,0.0,0.0,0.0,0.0,0.0,-0.3888670984567466
1666091722103361306,0.0,0.0,0.0,0.0,0.0,-0.40734368165870727
1666091722153417110,0.0,0.0,0.0,0.0,0.0,-0.40734368165870727
1666091722203212984,0.0,0.0,0.0,0.0,0.0,-0.40734368165870727
1666091722253508087,0.0,0.0,0.0,0.0,0.0,-0.4463282705910395
1666091722303049397,0.0,0.0,0.0,0.0,0.0,-0.477027428576926
1666091722353246680,0.0,0.0,0.0,0.0,0.0,-0.46994585311683085
1666091722403840804,0.0,0.0,0.0,0.0,0.0,-0.46994585311683085
1666091722453170422,0.0,0.0,0.0,0.0,0.0,-0.46994585311683085
1666091722503187027,0.0,0.0,0.0,0.0,0.0,-0.4853635407461131
1666091722553257175,0.0,0.0,0.0,0.0,0.0,-0.4852856299315998
1666091722603146476,0.0,0.0,0.0,0.0,0.0,-0.4852856299315998
1666091722653764399,0.0,0.0,0.0,0.0,0.0,-0.4852856299315998
1666091722703326416,0.0,0.0,0.0,0.0,0.0,-0.47528497938259545
1666091722753230572,0.0,0.0,0.0,0.0,0.0,-0.47528497938259545
1666091722803208528,0.0,0.0,0.0,0.0,0.0,-0.4482739666781873
1666091722853342120,0.0,0.0,0.0,0.0,0.0,-0.4405645206666113
1666091722903054520,0.0,0.0,0.0,0.0,0.0,-0.4405645206666113
1666091722954185004,0.0,0.0,0.0,0.0,0.0,-0.43323839091782756
1666091723003875342,0.0,0.0,0.0,0.0,0.0,-0.43323839091782756
1666091723053201963,0.0,0.0,0.0,0.0,0.0,-0.41904564025553515
1666091723103423881,0.0,0.0,0.0,0.0,0.0,-0.39782870435930556
1666091723153495934,0.0,0.0,0.0,0.0,0.0,-0.3815630550666452
1666091723203316561,0.0,0.0,0.0,0.0,0.0,-0.3658221825774783
1666091723253468072,0.0,0.0,0.0,0.0,0.0,-0.3658221825774783
1666091723303113038,0.0,0.0,0.0,0.0,0.0,-0.35162339915019114
1666091723353304444,0.0,0.0,0.0,0.0,0.0,-0.35162339915019114
1666091723403189918,0.0,0.0,0.0,0.0,0.0,-0.31969219346150773
1666091723454659142,0.0,0.0,0.0,0.0,0.0,-0.3064392560830296
1666091723503215710,0.0,0.0,0.0,0.0,0.0,-0.2986574005816935
1666091723553214820,0.0,0.0,0.0,0.0,0.0,-0.2986574005816935
1666091723603953890,0.0,0.0,0.0,0.0,0.0,-0.2969687448927782
1666091723653161779,0.0,0.0,0.0,0.0,0.0,-0.2969687448927782
1666091723703052584,0.0,0.0,0.0,0.0,0.0,-0.2969687448927782
1666091723753991179,0.0,0.0,0.0,0.0,0.0,-0.2769773840379403
1666091723803743691,0.0,0.0,0.0,0.0,0.0,-0.28233402023698656
1666091723853161941,0.0,0.0,0.0,0.0,0.0,-0.28233402023698656
1666091723903029588,0.0,0.0,0.0,0.0,0.0,-0.28233402023698656
1666091723953664863,0.0,0.0,0.0,0.0,0.0,-0.28799552388716887
1666091724003169185,0.0,0.0,0.0,0.0,0.0,-0.28946187045071087
1666091724055960253,0.0,0.0,0.0,0.0,0.0,-0.2867845744390885
1666091724103097953,0.0,0.0,0.0,0.0,0.0,-0.2867845744390885
1666091724153531696,0.0,0.0,0.0,0.0,0.0,-0.2984154544255906
1666091724203047084,0.0,0.0,0.0,0.0,0.0,-0.2984154544255906
1666091724253421875,0.0,0.0,0.0,0.0,0.0,-0.3008262579745784
1666091724303131704,0.0,0.0,0.0,0.0,0.0,-0.3008262579745784
1666091724353563299,0.0,0.0,0.0,0.0,0.0,-0.3143240237229096
1666091724403778225,0.0,0.0,0.0,0.0,0.0,-0.3143240237229096
1666091724453920413,0.0,0.0,0.0,0.0,0.0,-0.32366221039604637
1666091724503141343,0.0,0.0,0.0,0.0,0.0,-0.32366221039604637
1666091724554247948,0.0,0.0,0.0,0.0,0.0,-0.3402057063181685
1666091724603158516,0.0,0.0,0.0,0.0,0.0,-0.3402057063181685
1666091724657014265,0.0,0.0,0.0,0.0,0.0,-0.35965920189620026
1666091724703275125,0.0,0.0,0.0,0.0,0.0,-0.35965920189620026
1666091724753139492,0.0,0.0,0.0,0.0,0.0,-0.35965920189620026
1666091724803081114,0.0,0.0,0.0,0.0,0.0,-0.38559774245956996
1666091724853315152,0.0,0.0,0.0,0.0,0.0,-0.39991782568295864
1666091724903037653,0.0,0.0,0.0,0.0,0.0,-0.39991782568295864
1666091724953503132,0.0,0.0,0.0,0.0,0.0,-0.44727710839261325
1666091725003139206,0.0,0.0,0.0,0.0,0.0,-0.46204990274225977
1666091725054253175,0.0,0.0,0.0,0.0,0.0,-0.4588778551416357
1666091725103168334,0.0,0.0,0.0,0.0,0.0,-0.4588778551416357
1666091725153168013,0.0,0.0,0.0,0.0,0.0,-0.4882903836332739
1666091725203144651,0.0,0.0,0.0,0.0,0.0,-0.4882903836332739
1666091725258587828,0.0,0.0,0.0,0.0,0.0,-0.5034143327653838
1666091725303498152,0.0,0.0,0.0,0.0,0.0,-0.5034143327653838
1666091725353656487,0.0,0.0,0.0,0.0,0.0,-0.5076061987087453
1666091725403054010,0.0,0.0,0.0,0.0,0.0,-0.5076061987087453
1666091725453479644,0.0,0.0,0.0,0.0,0.0,-0.5090888586679451
1666091725503294608,0.0,0.0,0.0,0.0,0.0,-0.5090888586679451
1666091725553240099,0.0,0.0,0.0,0.0,0.0,-0.501883551431393
1666091725603384971,0.0,0.0,0.0,0.0,0.0,-0.501883551431393
1666091725653749630,0.0,0.0,0.0,0.0,0.0,-0.5003958706501588
1666091725703096646,0.0,0.0,0.0,0.0,0.0,-0.48898132109512527
1666091725753452544,0.0,0.0,0.0,0.0,0.0,-0.4835074446283372
1666091725803078649,0.0,0.0,0.0,0.0,0.0,-0.4835074446283372
1666091725854060695,0.0,0.0,0.0,0.0,0.0,-0.4644583503069631
1666091725903254242,0.0,0.0,0.0,0.0,0.0,-0.4644583503069631
1666091725953259282,0.0,0.0,0.0,0.0,0.0,-0.4644583503069631
1666091726003179074,0.015,0.0,0.0,0.0,0.0,-0.4537547017378382
1666091726053211981,0.03,0.0,0.0,0.0,0.0,-0.44305105316871335
1666091726103613310,0.045,0.0,0.0,0.0,0.0,-0.4333164718828843
1666091726153396512,0.06,0.0,0.0,0.0,0.0,-0.42426980161503564
1666091726203773683,0.075,0.0,0.0,0.0,0.0,-0.41522313134718697
1666091726253289003,0.09,0.0,0.0,0.0,0.0,-0.4012876758474506
1666091726303428858,0.105,0.0,0.0,0.0,0.0,-0.39321556548965003
1666091726353233307,0.12,0.0,0.0,0.0,0.0,-0.38514345513184944
1666091726404174945,0.135,0.0,0.0,0.0,0.0,-0.37796084290091003
1666091726453578597,0.15000000000000002,0.0,0.0,0.0,0.0,-0.37032896660280795
1666091726503248039,0.16500000000000004,0.0,0.0,0.0,0.0,-0.36269709030470587
1666091726553505718,0.18000000000000005,0.0,0.0,0.0,0.0,-0.3504032420776825
1666091726603659298,0.19500000000000006,0.0,0.0,0.0,0.0,-0.3381093938506591
1666091726653156267,0.21000000000000008,0.0,0.0,0.0,0.0,-0.33848910252223957
1666091726703902512,0.2250000000000001,0.0,0.0,0.0,0.0,-0.33886894042695914
1666091726753973626,0.2400000000000001,0.0,0.0,0.0,0.0,-0.3392487783316787
1666091726803253327,0.2550000000000001,0.0,0.0,0.0,0.0,-0.333040988495957
1666091726853233708,0.27000000000000013,0.0,0.0,0.0,0.0,-0.32683319866023525
1666091726903251048,0.28500000000000014,0.0,0.0,0.0,0.0,-0.32769618950706514
1666091726953119890,0.30000000000000016,0.0,0.0,0.0,0.0,-0.32855918035389503
1666091727004233872,0.31500000000000017,0.0,0.0,0.0,0.0,-0.3295002468670623
1666091727053516732,0.3300000000000002,0.0,0.0,0.0,0.0,-0.3304413133802296
1666091727103237418,0.3450000000000002,0.0,0.0,0.0,0.0,-0.33125952206295256
1666091727153340076,0.3600000000000002,0.0,0.0,0.0,0.0,-0.33207773074567554
1666091727203154954,0.3750000000000002,0.0,0.0,0.0,0.0,-0.33287382492763884
1666091727253823672,0.39000000000000024,0.0,0.0,0.0,0.0,-0.33366991910960214
1666091727303179063,0.40500000000000025,0.0,0.0,0.0,0.0,-0.3344917919399653
1666091727353229076,0.42000000000000026,0.0,0.0,0.0,0.0,-0.3353136647703285
1666091727403112019,0.4350000000000003,0.0,0.0,0.0,0.0,-0.336518343935935
1666091727453607114,0.4500000000000003,0.0,0.0,0.0,0.0,-0.3377230231015415
1666091727503243878,0.4650000000000003,0.0,0.0,0.0,0.0,-0.338927702267148
1666091727554657950,0.4800000000000003,0.0,0.0,0.0,0.0,-0.3221707970424997
1666091727603077609,0.49500000000000033,0.0,0.0,0.0,0.0,-0.30541389181785134
1666091727653463808,0.5100000000000003,0.0,0.0,0.0,0.0,-0.28669034104587815
1666091727705297957,0.5250000000000004,0.0,0.0,0.0,0.0,-0.26796679027390496
1666091727753654251,0.5400000000000004,0.0,0.0,0.0,0.0,-0.25080207678164806
1666091727804064393,0.5550000000000004,0.0,0.0,0.0,0.0,-0.23363114422012102
1666091727853096984,0.5700000000000004,0.0,0.0,0.0,0.0,-0.21646021165859397
1666091727903477372,0.5850000000000004,0.0,0.0,0.0,0.0,-0.19928927909706692
1666091727953230016,0.6000000000000004,0.0,0.0,0.0,0.0,-0.18542244777711128
1666091728003281377,0.6117793917655945,0.0,0.0,0.0,0.0,-0.17453292519943345
1666091728053165916,0.6194867138288203,0.0,0.0,0.0,0.0,-0.27453292519943345
1666091728103356645,0.6252312064170837,0.0,0.0,0.0,0.0,-0.3490658503988664
1666091728153200807,0.6252312064170837,0.0,0.0,0.0,0.0,-0.3490658503988664
1666091728203467147,0.6402312064170838,0.0,0.0,0.0,0.0,-0.3490658503988664
1666091728253579673,0.642733633518219,0.0,0.0,0.0,0.0,-0.3490658503988664
1666091728303075931,0.65080726146698,0.0,0.0,0.0,0.0,-0.3490658503988664
1666091728356694423,0.647609531879425,0.0,0.0,0.0,0.0,-0.3490658503988664
1666091728403231877,0.6476805210113525,0.0,0.0,0.0,0.0,-0.3490658503988664
1666091728453256426,0.6476805210113525,0.0,0.0,0.0,0.0,-0.3490658503988664
1666091728503113378,0.6423578858375549,0.0,0.0,0.0,0.0,-0.3490658503988664
1666091728553353630,0.6285651922225952,0.0,0.0,0.0,0.0,-0.3490658503988664
1666091728603231312,0.6059516668319702,0.0,0.0,0.0,0.0,-0.3490658503988664
1666091728653249358,0.5829817056655884,0.0,0.0,0.0,0.0,-0.17453292519943345
1666091728703198223,0.5829817056655884,0.0,0.0,0.0,0.0,-0.17453292519943345
1666091728753328060,0.5717785954475403,0.0,0.0,0.0,0.0,-0.156623974442482
1666091728803154829,0.5717785954475403,0.0,0.0,0.0,0.0,-0.156623974442482
1666091728853326955,0.5620365738868712,0.0,0.0,0.0,0.0,-0.16012133657932281
1666091728903331895,0.5620365738868712,0.0,0.0,0.0,0.0,-0.16012133657932281
1666091728953566895,0.5393709540367126,0.0,0.0,0.0,0.0,-0.1659078449010849
1666091729003383798,0.5393709540367126,0.0,0.0,0.0,0.0,-0.1659078449010849
1666091729059784537,0.5178209543228149,0.0,0.0,0.0,0.0,-0.1676708161830902
1666091729103209816,0.5178209543228149,0.0,0.0,0.0,0.0,-0.1676708161830902
1666091729153200606,0.5178209543228149,0.0,0.0,0.0,0.0,-0.1676708161830902
1666091729203406452,0.4950864911079406,0.0,0.0,0.0,0.0,-0.1702130138874054
1666091729253579158,0.4950864911079406,0.0,0.0,0.0,0.0,-0.1702130138874054
1666091729303480390,0.47268030047416687,0.0,0.0,0.0,0.0,-0.17262406647205353
1666091729353661120,0.45060306787490845,0.0,0.0,0.0,0.0,-0.17188504338264465
1666091729403595700,0.45060306787490845,0.0,0.0,0.0,0.0,-0.17188504338264465
1666091729453611193,0.4086340665817261,0.0,0.0,0.0,0.0,-0.1696598380804062
1666091729503683874,0.3118373532986433,0.0,0.0,0.0,0.0,-0.26965983808040617
1666091729553704908,0.21504064001556056,0.0,0.0,0.0,0.0,-0.36965983808040614
1666091729603324091,0.11824392673247783,0.0,0.0,0.0,0.0,-0.4696598380804061
1666091729653290460,0.04453355046937588,0.0,0.0,0.0,0.0,-0.5696598380804061
1666091729706299599,0.0,0.0,0.0,0.0,0.0,-0.6293102365528559
1666091729753387719,0.0,0.0,0.0,0.0,0.0,-0.6649140715092747
1666091729803103529,0.0,0.0,0.0,0.0,0.0,-0.6649140715092747
1666091729853338550,0.0,0.0,0.0,0.0,0.0,-0.6351579253006872
1666091729903829178,0.0,0.0,0.0,0.0,0.0,-0.6351579253006872
1666091729953230129,0.0,0.0,0.0,0.0,0.0,-0.6126010601689534
1666091730003113378,0.0,0.0,0.0,0.0,0.0,-0.6126010601689534
1666091730053589245,0.0,0.0,0.0,0.0,0.0,-0.5784155133460045
1666091730104057962,0.0,0.0,0.0,0.0,0.0,-0.5784155133460045
1666091730153689883,0.0,0.0,0.0,0.0,0.0,-0.53918288400388
1666091730203465155,0.0,0.0,0.0,0.0,0.0,-0.5362312401630346
1666091730253804001,0.015,0.0,0.0,0.0,0.0,-0.5357713200044942
1666091730303696913,0.03,0.0,0.0,0.0,0.0,-0.5353113998459539
1666091730353194709,0.045,0.0,0.0,0.0,0.0,-0.534873191699397
1666091730403105516,0.06,0.0,0.0,0.0,0.0,-0.53443498355284
1666091730454134134,0.075,0.0,0.0,0.0,0.0,-0.5340175678861251
1666091730503248960,0.09,0.0,0.0,0.0,0.0,-0.5336001522194102
1666091730553294537,0.105,0.0,0.0,0.0,0.0,-0.5332101652945453
1666091730603356745,0.12,0.0,0.0,0.0,0.0,-0.5266468905550069
1666091730653293878,0.135,0.0,0.0,0.0,0.0,-0.5200836158154685
1666091730703074204,0.15000000000000002,0.0,0.0,0.0,0.0,-0.513948736542266
1666091730754276134,0.16500000000000004,0.0,0.0,0.0,0.0,-0.5077997640706498
1666091730805357543,0.18000000000000005,0.0,0.0,0.0,0.0,-0.49604389037844954
1666091730853933394,0.19500000000000006,0.0,0.0,0.0,0.0,-0.4842880166862493
1666091730903306985,0.21000000000000008,0.0,0.0,0.0,0.0,-0.47300466833420923
1666091730953331294,0.2250000000000001,0.0,0.0,0.0,0.0,-0.46172131998216914
1666091731003360408,0.2400000000000001,0.0,0.0,0.0,0.0,-0.45043797163012905
1666091731053060658,0.2550000000000001,0.0,0.0,0.0,0.0,-0.4353097384239824
1666091731103358931,0.27000000000000013,0.0,0.0,0.0,0.0,-0.4201675834421512
1666091731153241554,0.28500000000000014,0.0,0.0,0.0,0.0,-0.40502542846032
1666091731203686816,0.30000000000000016,0.0,0.0,0.0,0.0,-0.3916898612872781
1666091731253281028,0.31500000000000017,0.0,0.0,0.0,0.0,-0.3783542941142362
1666091731303152826,0.3300000000000002,0.0,0.0,0.0,0.0,-0.35996254205629435
1666091731353661024,0.3450000000000002,0.0,0.0,0.0,0.0,-0.34202977436019655
1666091731404121644,0.3600000000000002,0.0,0.0,0.0,0.0,-0.3240852014580091
1666091731453200930,0.3750000000000002,0.0,0.0,0.0,0.0,-0.3061180100034465
1666091731503218726,0.39000000000000024,0.0,0.0,0.0,0.0,-0.2881508185488839
1666091731554028866,0.40500000000000025,0.0,0.0,0.0,0.0,-0.2701836270943213
1666091731603185324,0.42000000000000026,0.0,0.0,0.0,0.0,-0.24509389582655505
1666091731653169646,0.4350000000000003,0.0,0.0,0.0,0.0,-0.21907417938352183
1666091731703556052,0.4500000000000003,0.0,0.0,0.0,0.0,-0.19250754333111628
1666091731753241367,0.4650000000000003,0.0,0.0,0.0,0.0,-0.16594090727871072
1666091731803092018,0.4800000000000003,0.0,0.0,0.0,0.0,-0.13937427122630516
1666091731853553335,0.49500000000000033,0.0,0.0,0.0,0.0,-0.10136270299403276
1666091731903317048,0.5100000000000003,0.0,0.0,0.0,0.0,-0.06335113476176035
1666091731953033426,0.5250000000000004,0.0,0.0,0.0,0.0,-0.022630077909794856
1666091732003020601,0.5400000000000004,0.0,0.0,0.0,0.0,0.018090978942170648
1666091732053393928,0.5550000000000004,0.0,0.0,0.0,0.0,0.08594928229710783
1666091732103101314,0.5700000000000004,0.0,0.0,0.0,0.0,0.153807585652045
1666091732153176197,0.5850000000000004,0.0,0.0,0.0,0.0,0.2216658890069822
1666091732204517443,0.593991709002007,0.0,0.0,0.0,0.0,0.32166588900698223
1666091732253146316,0.6029834180040136,0.0,0.0,0.0,0.0,0.4216658890069822
1666091732303822251,0.6053025071061038,0.0,0.0,0.0,0.0,0.5216658890069822
1666091732353096872,0.607621596208194,0.0,0.0,0.0,0.0,0.6216658890069822
1666091732403021584,0.6099406853102842,0.0,0.0,0.0,0.0,0.7216658890069821
1666091732453368972,0.6187362736105846,0.0,0.0,0.0,0.0,0.8216658890069821
1666091732503085128,0.627531861910885,0.0,0.0,0.0,0.0,0.9216658890069821
1666091732553096186,0.6363274502111852,0.0,0.0,0.0,0.0,1.021665889006982
1666091732603198281,0.4934919774532318,0.0,0.0,0.0,0.0,1.0471975511965972
1666091732653251499,0.4934919774532318,0.0,0.0,0.0,0.0,1.0471975511965972
1666091732703324898,0.4642951786518097,0.0,0.0,0.0,0.0,1.0471975511965972
1666091732753107494,0.4642951786518097,0.0,0.0,0.0,0.0,1.0471975511965972
1666091732803609489,0.4792951786518097,0.0,0.0,0.0,0.0,1.0471975511965972
1666091732853079917,0.4942951786518097,0.0,0.0,0.0,0.0,1.0471975511965972
1666091732903132342,0.5092951786518097,0.0,0.0,0.0,0.0,1.0471975511965972
1666091732953230254,0.410169243812561,0.0,0.0,0.0,0.0,1.0471975511965972
1666091733003068341,0.410169243812561,0.0,0.0,0.0,0.0,1.0471975511965972
1666091733053325592,0.3951902687549591,0.0,0.0,0.0,0.0,1.0471975511965972
1666091733103332307,0.3951902687549591,0.0,0.0,0.0,0.0,1.0471975511965972
1666091733153340973,0.381510466337204,0.0,0.0,0.0,0.0,1.0471975511965972
1666091733203183683,0.381510466337204,0.0,0.0,0.0,0.0,1.0471975511965972
1666091733253234213,0.381510466337204,0.0,0.0,0.0,0.0,1.0471975511965972
1666091733303184296,0.3581790030002594,0.0,0.0,0.0,0.0,1.0471975511965972
1666091733353744118,0.3376624882221222,0.0,0.0,0.0,0.0,1.0471975511965972
1666091733403311365,0.3376624882221222,0.0,0.0,0.0,0.0,1.0471975511965972
1666091733453017438,0.31952306628227234,0.0,0.0,0.0,0.0,1.0471975511965972
1666091733503199895,0.31952306628227234,0.0,0.0,0.0,0.0,1.0471975511965972
1666091733553295608,0.28738144040107727,0.0,0.0,0.0,0.0,1.0471975511965972
1666091733603317860,0.28738144040107727,0.0,0.0,0.0,0.0,1.0471975511965972
1666091733653885728,0.27274265885353083,0.0,0.0,0.0,0.0,1.0471975511965972
1666091733703507294,0.27274265885353083,0.0,0.0,0.0,0.0,1.0471975511965972
1666091733753559250,0.2604431211948395,0.0,0.0,0.0,0.0,1.0471975511965972
1666091733803824235,0.2754431211948395,0.0,0.0,0.0,0.0,1.0471975511965972
1666091733853126358,0.2904431211948395,0.0,0.0,0.0,0.0,1.0471975511965972
1666091733903316503,0.3054431211948395,0.0,0.0,0.0,0.0,1.0471975511965972
1666091733953056238,0.232081800699234,0.0,0.0,0.0,0.0,1.0471975511965972
1666091734003081499,0.232081800699234,0.0,0.0,0.0,0.0,1.0471975511965972
1666091734053379380,0.232081800699234,0.0,0.0,0.0,0.0,1.0471975511965972
1666091734103089048,0.08208180069923399,0.0,0.0,0.0,0.0,0.9616136465730349
1666091734153243499,0.0,0.0,0.0,0.0,0.0,0.8726646259971643
1666091734203457302,0.0,0.0,0.0,0.0,0.0,0.8726646259971643
1666091734253293019,0.0,0.0,0.0,0.0,0.0,0.8562267511555343
1666091734303183103,0.0,0.0,0.0,0.0,0.0,0.8562267511555343
1666091734353265751,0.0,0.0,0.0,0.0,0.0,0.8562267511555343
1666091734403169703,0.0,0.0,0.0,0.0,0.0,0.848628235722296
1666091734453183816,0.0,0.0,0.0,0.0,0.0,0.7537140471113447
1666091734503180199,0.0,0.0,0.0,0.0,0.0,0.7537140471113447
1666091734553877960,0.0,0.0,0.0,0.0,0.0,0.7537140471113447
1666091734603340253,0.0,0.0,0.0,0.0,0.0,0.7238979917075195
1666091734653189681,0.0,0.0,0.0,0.0,0.0,0.6551488859644558
1666091734703067504,0.0,0.0,0.0,0.0,0.0,0.6551488859644558
1666091734753014512,0.015,0.0,0.0,0.0,0.0,0.6571372262084388
1666091734803691749,0.03,0.0,0.0,0.0,0.0,0.6523129216322031
1666091734853168188,0.045,0.0,0.0,0.0,0.0,0.6474894737253869
1666091734903081939,0.06,0.0,0.0,0.0,0.0,0.6418525253856502
1666091734953349601,0.075,0.0,0.0,0.0,0.0,0.6362155770459135
1666091735003201893,0.09,0.0,0.0,0.0,0.0,0.6312780382162742
1666091735053068629,0.105,0.0,0.0,0.0,0.0,0.626878762362527
1666091735103185883,0.12,0.0,0.0,0.0,0.0,0.6224794865087799
1666091735153603178,0.135,0.0,0.0,0.0,0.0,0.6114694438651396
1666091735203023172,0.15000000000000002,0.0,0.0,0.0,0.0,0.6004594012214992
1666091735253207662,0.16500000000000004,0.0,0.0,0.0,0.0,0.5903976164780552
1666091735303309972,0.18000000000000005,0.0,0.0,0.0,0.0,0.5803358317346112
1666091735353026904,0.19500000000000006,0.0,0.0,0.0,0.0,0.5710949881332326
1666091735403286244,0.21000000000000008,0.0,0.0,0.0,0.0,0.562492851393537
1666091735453278900,0.2250000000000001,0.0,0.0,0.0,0.0,0.5545428588607839
1666091735503168023,0.2400000000000001,0.0,0.0,0.0,0.0,0.5465928663280308
1666091735553207991,0.2550000000000001,0.0,0.0,0.0,0.0,0.5332742484841927
1666091735603363067,0.27000000000000013,0.0,0.0,0.0,0.0,0.5199133215118196
1666091735653078389,0.28500000000000014,0.0,0.0,0.0,0.0,0.5065523945394464
1666091735703122502,0.30000000000000016,0.0,0.0,0.0,0.0,0.4872304226681255
1666091735753656623,0.31500000000000017,0.0,0.0,0.0,0.0,0.46847201912308234
1666091735803116253,0.3300000000000002,0.0,0.0,0.0,0.0,0.4497136155780392
1666091735853535483,0.18000000000000016,0.0,0.0,0.0,0.0,0.24529833576983961
1666091735903110239,0.19500000000000017,0.0,0.0,0.0,0.0,0.23791619554951562
1666091735953243510,0.2100000000000002,0.0,0.0,0.0,0.0,0.23052438318273671
1666091736003402348,0.2250000000000002,0.0,0.0,0.0,0.0,0.22291525633998135
1666091736053634606,0.2400000000000002,0.0,0.0,0.0,0.0,0.215306129497226
1666091736103257753,0.2550000000000002,0.0,0.0,0.0,0.0,0.20769700265447064
1666091736153260778,0.27000000000000024,0.0,0.0,0.0,0.0,0.19967055505644934
1666091736203223512,0.28500000000000025,0.0,0.0,0.0,0.0,0.19164410745842805
1666091736253410840,0.30000000000000027,0.0,0.0,0.0,0.0,0.17893402204846948
1666091736303183443,0.3150000000000003,0.0,0.0,0.0,0.0,0.1662239366385109
1666091736353102556,0.3300000000000003,0.0,0.0,0.0,0.0,0.15386089499846148
1666091736404232421,0.3450000000000003,0.0,0.0,0.0,0.0,0.14149785335841206
1666091736453164494,0.3600000000000003,0.0,0.0,0.0,0.0,0.12923539853882116
1666091736503118839,0.37500000000000033,0.0,0.0,0.0,0.0,0.11614396796707076
1666091736553138455,0.39000000000000035,0.0,0.0,0.0,0.0,0.10305253739532036
1666091736603178271,0.40500000000000036,0.0,0.0,0.0,0.0,0.08996110682356996
1666091736653290989,0.4200000000000004,0.0,0.0,0.0,0.0,0.06946807454309142
1666091736703194180,0.4350000000000004,0.0,0.0,0.0,0.0,0.048063542897873186
1666091736753704150,0.4500000000000004,0.0,0.0,0.0,0.0,0.02665901125265495
1666091736803754020,0.4650000000000004,0.0,0.0,0.0,0.0,0.003294522863611822
1666091736853061546,0.4800000000000004,0.0,0.0,0.0,0.0,-0.020069965525431305
1666091736903463985,0.49500000000000044,0.0,0.0,0.0,0.0,-0.050022756282863276
1666091736953703817,0.5100000000000005,0.0,0.0,0.0,0.0,-0.07997554704029525
1666091737003125427,0.5250000000000005,0.0,0.0,0.0,0.0,-0.10559009578865589
1666091737053362888,0.5400000000000005,0.0,0.0,0.0,0.0,-0.13291917204199746
1666091737103333912,0.5550000000000005,0.0,0.0,0.0,0.0,-0.1781327685857048
1666091737153429271,0.5700000000000005,0.0,0.0,0.0,0.0,-0.22328983639369648
1666091737203111602,0.5850000000000005,0.0,0.0,0.0,0.0,-0.26844690420168815
1666091737253411170,0.6000000000000005,0.0,0.0,0.0,0.0,-0.3136039720096799
1666091737303249400,0.6150000000000005,0.0,0.0,0.0,0.0,-0.3289814140815747
1666091737353423466,0.6232466101646423,0.0,0.0,0.0,0.0,-0.3490658503988664
1666091737403221190,0.607212483882904,0.0,0.0,0.0,0.0,-0.3490658503988664
1666091737453088099,0.607212483882904,0.0,0.0,0.0,0.0,-0.3490658503988664
1666091737503249543,0.555438220500946,0.0,0.0,0.0,0.0,-0.3490658503988664
1666091737553430068,0.555438220500946,0.0,0.0,0.0,0.0,-0.3490658503988664
1666091737603228279,0.5704382205009461,0.0,0.0,0.0,0.0,-0.3490658503988664
1666091737653183543,0.5606535077095032,0.0,0.0,0.0,0.0,-0.3490658503988664
1666091737703516645,0.5254358399903397,0.0,0.0,0.0,0.0,-0.4490658503988664
1666091737753134312,0.5392457842826843,0.0,0.0,0.0,0.0,-0.5235987755982994
1666091737803731816,0.5392457842826843,0.0,0.0,0.0,0.0,-0.5235987755982994
1666091737853714218,0.5353859066963196,0.0,0.0,0.0,0.0,-0.5235987755982994
1666091737903654830,0.5353859066963196,0.0,0.0,0.0,0.0,-0.5235987755982994
1666091737953147784,0.5274844169616699,0.0,0.0,0.0,0.0,-0.5235987755982994
1666091738003161380,0.4651179015636444,0.0,0.0,0.0,0.0,-0.5235987755982994
1666091738053121667,0.4651179015636444,0.0,0.0,0.0,0.0,-0.5235987755982994
1666091738103195644,0.4801179015636444,0.0,0.0,0.0,0.0,-0.5235987755982994
1666091738153464126,0.46198770403861994,0.0,0.0,0.0,0.0,-0.5235987755982994
1666091738203548665,0.4346235990524292,0.0,0.0,0.0,0.0,-0.5235987755982994
1666091738253257594,0.4346235990524292,0.0,0.0,0.0,0.0,-0.5235987755982994
1666091738303157466,0.41238275170326233,0.0,0.0,0.0,0.0,-0.5235987755982994
1666091738353347396,0.41238275170326233,0.0,0.0,0.0,0.0,-0.5235987755982994
1666091738403214986,0.2623827517032623,0.0,0.0,0.0,0.0,-0.5166042202886565
1666091738453122977,0.11238275170326228,0.0,0.0,0.0,0.0,-0.5070015124791754
1666091738503711920,0.0,0.0,0.0,0.0,0.0,-0.5453433764808028
1666091738553388143,0.0,0.0,0.0,0.0,0.0,-0.5727801656769045
1666091738603309944,0.0,0.0,0.0,0.0,0.0,-0.5727801656769045
1666091738653321776,0.0,0.0,0.0,0.0,0.0,-0.6164182452253828
1666091738703509430,0.0,0.0,0.0,0.0,0.0,-0.6440528217690714
1666091738754735105,0.0,0.0,0.0,0.0,0.0,-0.6440528217690714
1666091738803240565,0.0,0.0,0.0,0.0,0.0,-0.6981317007977323
1666091738853445748,0.0,0.0,0.0,0.0,0.0,-0.7165689432642312
1666091738903326943,0.0,0.0,0.0,0.0,0.0,-0.7354368497916
1666091738953351299,0.0,0.0,0.0,0.0,0.0,-0.7354368497916
1666091739004561976,0.0,0.0,0.0,0.0,0.0,-0.7767106325402096
1666091739053196574,0.0,0.0,0.0,0.0,0.0,-0.7767106325402096
1666091739103258265,0.0,0.0,0.0,0.0,0.0,-0.7405313831607708
1666091739153064340,0.0,0.0,0.0,0.0,0.0,-0.7405313831607708
1666091739203310889,0.0,0.0,0.0,0.0,0.0,-0.7405313831607708
1666091739253685718,0.0,0.0,0.0,0.0,0.0,-0.7480443884256762
1666091739304307038,0.0,0.0,0.0,0.0,0.0,-0.7190482822280408
1666091739353089319,0.0,0.0,0.0,0.0,0.0,-0.7190482822280408
1666091739403352005,0.0,0.0,0.0,0.0,0.0,-0.6981317007977323
1666091739453031065,0.0,0.0,0.0,0.0,0.0,-0.6981317007977323
1666091739503435232,0.0,0.0,0.0,0.0,0.0,-0.6219884968508935
1666091739553118962,0.0,0.0,0.0,0.0,0.0,-0.6219884968508935
1666091739603314680,0.0,0.0,0.0,0.0,0.0,-0.6219884968508935
1666091739653087882,0.0,0.0,0.0,0.0,0.0,-0.5235987755982994
1666091739703252809,0.0,0.0,0.0,0.0,0.0,-0.5235987755982994
1666091739753222474,0.015,0.0,0.0,0.0,0.0,-0.5105596968142454
1666091739803027162,0.03,0.0,0.0,0.0,0.0,-0.4975206180301915
1666091739853528415,0.045,0.0,0.0,0.0,0.0,-0.48507046860822534
1666091739903265978,0.06,0.0,0.0,0.0,0.0,-0.4726203191862592
1666091739953176763,0.075,0.0,0.0,0.0,0.0,-0.4606485798231241
1666091740003220483,0.09,0.0,0.0,0.0,0.0,-0.44929730837420234
1666091740053058695,0.105,0.0,0.0,0.0,0.0,-0.43794603692528056
1666091740103193102,0.12,0.0,0.0,0.0,0.0,-0.4265947654763588
1666091740153121710,0.135,0.0,0.0,0.0,0.0,-0.4158741782408372
1666091740203425300,0.15000000000000002,0.0,0.0,0.0,0.0,-0.40515359100531567
1666091740253448875,0.16500000000000004,0.0,0.0,0.0,0.0,-0.39466612006996227
1666091740303205082,0.18000000000000005,0.0,0.0,0.0,0.0,-0.37973761504738507
1666091740353134788,0.19500000000000006,0.0,0.0,0.0,0.0,-0.36480911002480787
1666091740404057886,0.21000000000000008,0.0,0.0,0.0,0.0,-0.35515110208271616
1666091740453126604,0.2250000000000001,0.0,0.0,0.0,0.0,-0.34549309414062446
1666091740504208510,0.2400000000000001,0.0,0.0,0.0,0.0,-0.33611447566110414
1666091740553089680,0.2550000000000001,0.0,0.0,0.0,0.0,-0.3268801675837119
1666091740603403582,0.27000000000000013,0.0,0.0,0.0,0.0,-0.3176458595063197
1666091740653131319,0.28500000000000014,0.0,0.0,0.0,0.0,-0.30836502580136704
1666091740703275352,0.30000000000000016,0.0,0.0,0.0,0.0,-0.2990841920964144
1666091740753218301,0.31500000000000017,0.0,0.0,0.0,0.0,-0.2878527573971171
1666091740803151358,0.3300000000000002,0.0,0.0,0.0,0.0,-0.27662132269781975
1666091740853351040,0.3450000000000002,0.0,0.0,0.0,0.0,-0.2633043694573172
1666091740903150981,0.3600000000000002,0.0,0.0,0.0,0.0,-0.2499874162168147
1666091740953164455,0.3750000000000002,0.0,0.0,0.0,0.0,-0.23667046297631217
1666091741003198705,0.39000000000000024,0.0,0.0,0.0,0.0,-0.22583984068860533
1666091741053043443,0.40500000000000025,0.0,0.0,0.0,0.0,-0.21500921840089848
1666091741103642384,0.42000000000000026,0.0,0.0,0.0,0.0,-0.2003670259630047
1666091741153545741,0.4350000000000003,0.0,0.0,0.0,0.0,-0.17943749652799854
1666091741203079292,0.4500000000000003,0.0,0.0,0.0,0.0,-0.15850796709299236
1666091741253022268,0.4650000000000003,0.0,0.0,0.0,0.0,-0.1375784376579862
1666091741304277690,0.4800000000000003,0.0,0.0,0.0,0.0,-0.11590261331499466
1666091741353117242,0.49500000000000033,0.0,0.0,0.0,0.0,-0.09422678897200312
1666091741403283253,0.5100000000000003,0.0,0.0,0.0,0.0,-0.07255096462901159
1666091741453096692,0.5250000000000004,0.0,0.0,0.0,0.0,-0.05087514028602004
1666091741503320638,0.5400000000000004,0.0,0.0,0.0,0.0,-0.028123114334565987
1666091741553107686,0.5550000000000004,0.0,0.0,0.0,0.0,-0.0043389596611473034
1666091741603351084,0.5700000000000004,0.0,0.0,0.0,0.0,0.01952035460383885
1666091741653213060,0.5850000000000004,0.0,0.0,0.0,0.0,0.04702069403431025
1666091741703153923,0.6000000000000004,0.0,0.0,0.0,0.0,0.07452103346478166
1666091741753165001,0.6150000000000004,0.0,0.0,0.0,0.0,0.10202137289525307
1666091741803383528,0.6300000000000004,0.0,0.0,0.0,0.0,0.12644612852165782
1666091741853139889,0.6450000000000005,0.0,0.0,0.0,0.0,0.15087088414806257
1666091741903264259,0.6067463755607604,0.0,0.0,0.0,0.0,0.17453292519943245
1666091741953825866,0.6067463755607604,0.0,0.0,0.0,0.0,0.17453292519943245
1666091742003417360,0.5828678607940674,0.0,0.0,0.0,0.0,0.17453292519943245
1666091742053221340,0.5828678607940674,0.0,0.0,0.0,0.0,0.17453292519943245
1666091742103488379,0.5800479650497437,0.0,0.0,0.0,0.0,0.17453292519943245
1666091742153011749,0.5800479650497437,0.0,0.0,0.0,0.0,0.17453292519943245
1666091742203240425,0.5291262269020081,0.0,0.0,0.0,0.0,0.17453292519943245
1666091742253334674,0.51967453956604,0.0,0.0,0.0,0.0,0.17453292519943245
1666091742304740009,0.51967453956604,0.0,0.0,0.0,0.0,0.17453292519943245
1666091742353173157,0.51445072889328,0.0,0.0,0.0,0.0,0.17453292519943245
1666091742403618479,0.4634939730167389,0.0,0.0,0.0,0.0,0.17453292519943245
1666091742453164015,0.4634939730167389,0.0,0.0,0.0,0.0,0.17453292519943245
1666091742503955084,0.43270957469940186,0.0,0.0,0.0,0.0,0.08324818313121796
1666091742553355773,0.3916889429092407,0.0,0.0,0.0,0.0,-4.996003610813204e-16
1666091742603274168,0.3916889429092407,0.0,0.0,0.0,0.0,-4.996003610813204e-16
1666091742653473966,0.2416889429092407,0.0,0.0,0.0,0.0,-4.996003610813204e-16
1666091742703489182,0.09168894290924068,0.0,0.0,0.0,0.0,-4.996003610813204e-16
1666091742753555657,0.0,0.0,0.0,0.0,0.0,-4.996003610813204e-16
1666091742803127858,0.0,0.0,0.0,0.0,0.0,-4.996003610813204e-16
1666091742853060838,0.0,0.0,0.0,0.0,0.0,-4.996003610813204e-16
1666091742903573635,0.0,0.0,0.0,0.0,0.0,-4.996003610813204e-16
1666091742953482725,0.0,0.0,0.0,0.0,0.0,-4.996003610813204e-16
1666091743003299356,0.0,0.0,0.0,0.0,0.0,-4.996003610813204e-16
1666091743053111184,0.0,0.0,0.0,0.0,0.0,-4.996003610813204e-16
1666091743103232150,0.0,0.0,0.0,0.0,0.0,-4.996003610813204e-16
1666091743153202901,0.0,0.0,0.0,0.0,0.0,-4.996003610813204e-16
1666091743204389404,0.0,0.0,0.0,0.0,0.0,-4.996003610813204e-16
1666091743253439216,0.0,0.0,0.0,0.0,0.0,-4.996003610813204e-16
1666091743304076485,0.0,0.0,0.0,0.0,0.0,-4.996003610813204e-16
1666091743353273662,0.0,0.0,0.0,0.0,0.0,-4.996003610813204e-16
1666091743403224400,0.0,0.0,0.0,0.0,0.0,-4.996003610813204e-16
1666091743454454983,0.0,0.0,0.0,0.0,0.0,-4.996003610813204e-16
1666091743503076778,0.0,0.0,0.0,0.0,0.0,-4.996003610813204e-16
1666091743553155561,0.0,0.0,0.0,0.0,0.0,-4.996003610813204e-16
1666091743603609452,0.0,0.0,0.0,0.0,0.0,-4.996003610813204e-16
1666091743653325483,0.0,0.0,0.0,0.0,0.0,-4.996003610813204e-16
1666091743703222929,0.015,0.0,0.0,0.0,0.0,-0.0026634479360582142
1666091743753257052,0.03,0.0,0.0,0.0,0.0,-0.005326895872115929
1666091743803432510,0.045,0.0,0.0,0.0,0.0,-0.00796330644536524
1666091743853117921,0.06,0.0,0.0,0.0,0.0,-0.010599717018614549
1666091743903898253,0.075,0.0,0.0,0.0,0.0,-0.010158680875928314
1666091743953334442,0.09,0.0,0.0,0.0,0.0,-0.009716279585671965
1666091744008832791,0.105,0.0,0.0,0.0,0.0,-0.012852167875870955
1666091744053406615,0.12,0.0,0.0,0.0,0.0,-0.01600357498983914
1666091744103342443,0.135,0.0,0.0,0.0,0.0,-0.01915498210380733
1666091744153746704,0.15000000000000002,0.0,0.0,0.0,0.0,-0.022306389217775516
1666091744203304052,0.16500000000000004,0.0,0.0,0.0,0.0,-0.025507667659879378
1666091744253533220,0.18000000000000005,0.0,0.0,0.0,0.0,-0.028795263881175176
1666091744303505761,0.19500000000000006,0.0,0.0,0.0,0.0,-0.03219168971653218
1666091744353147484,0.21000000000000008,0.0,0.0,0.0,0.0,-0.04029135705317413
1666091744403611177,0.2250000000000001,0.0,0.0,0.0,0.0,-0.04832791363680567
1666091744453942907,0.2400000000000001,0.0,0.0,0.0,0.0,-0.05636447022043721
1666091744503516900,0.2550000000000001,0.0,0.0,0.0,0.0,-0.06440102680406876
1666091744553116900,0.27000000000000013,0.0,0.0,0.0,0.0,-0.06698322086850332
1666091744603178305,0.28500000000000014,0.0,0.0,0.0,0.0,-0.06956541493293789
1666091744653210560,0.30000000000000016,0.0,0.0,0.0,0.0,-0.06351965284690704
1666091744703527652,0.31500000000000017,0.0,0.0,0.0,0.0,-0.057473890760876195
1666091744753045769,0.3300000000000002,0.0,0.0,0.0,0.0,-0.06213940588769831
1666091744803494309,0.3450000000000002,0.0,0.0,0.0,0.0,-0.06683817077917088
1666091744853207747,0.3600000000000002,0.0,0.0,0.0,0.0,-0.07158819564681497
1666091744903199457,0.3750000000000002,0.0,0.0,0.0,0.0,-0.07633822051445906
1666091744953109544,0.39000000000000024,0.0,0.0,0.0,0.0,-0.08196695466671076
1666091745003266671,0.40500000000000025,0.0,0.0,0.0,0.0,-0.08759510328870691
1666091745053242342,0.42000000000000026,0.0,0.0,0.0,0.0,-0.0723968017831262
1666091745103193969,0.4350000000000003,0.0,0.0,0.0,0.0,-0.057198500277545486
1666091745153130442,0.4500000000000003,0.0,0.0,0.0,0.0,-0.042000198771964765
1666091745203302830,0.4650000000000003,0.0,0.0,0.0,0.0,-0.06868189535259749
1666091745253248136,0.4800000000000003,0.0,0.0,0.0,0.0,-0.10712009129312408
1666091745303369306,0.4946797788143158,0.0,0.0,0.0,0.0,-0.14473770558834076
1666091745353149010,0.42211815714836115,0.0,0.0,0.0,0.0,-0.03901829943060875
1666091745403757357,0.43711815714836116,0.0,0.0,0.0,0.0,-0.075466610593397
1666091745453107170,0.4521181571483612,0.0,0.0,0.0,0.0,-0.11191492175618528
1666091745503427716,0.45383045077323914,0.0,0.0,0.0,0.0,-0.15401165187358856
1666091745553163151,0.45383045077323914,0.0,0.0,0.0,0.0,-0.15401165187358856
1666091745603226385,0.41429281234741205,0.0,0.0,0.0,0.0,-0.15769663453102112
1666091745653251768,0.4146482050418854,0.0,0.0,0.0,0.0,-0.15781879425048828
1666091745703585082,0.4146482050418854,0.0,0.0,0.0,0.0,-0.15781879425048828
1666091745754058355,0.3957091271877289,0.0,0.0,0.0,0.0,-0.15939904749393463
1666091745803327625,0.29982749449074225,0.0,0.0,0.0,0.0,-0.2593990474939346
1666091745853061513,0.20394586179375562,0.0,0.0,0.0,0.0,-0.3593990474939346
1666091745903263216,0.108064229096769,0.0,0.0,0.0,0.0,-0.45939904749393456
1666091745953310279,0.057602156248909325,0.0,0.0,0.0,0.0,-0.5593990474939345
1666091746003237036,0.01608189776818114,0.0,0.0,0.0,0.0,-0.6593990474939345
1666091746053407369,0.0,0.0,0.0,0.0,0.0,-0.6981317007977323
1666091746103468579,0.0,0.0,0.0,0.0,0.0,-0.7427065895637248
1666091746153381850,0.0,0.0,0.0,0.0,0.0,-0.7427065895637248
1666091746203358082,0.0,0.0,0.0,0.0,0.0,-0.7814789155199088
1666091746253196192,0.0,0.0,0.0,0.0,0.0,-0.8019977352694915
1666091746303361728,0.0,0.0,0.0,0.0,0.0,-0.8019977352694915
1666091746353283527,0.0,0.0,0.0,0.0,0.0,-0.8019977352694915
1666091746403285893,0.0,0.0,0.0,0.0,0.0,-0.8429208625140936
1666091746454472672,0.0,0.0,0.0,0.0,0.0,-0.8429208625140936
1666091746503474383,0.0,0.0,0.0,0.0,0.0,-0.8258128380492716
1666091746553035018,0.0,0.0,0.0,0.0,0.0,-0.8086965774002605
1666091746606289065,0.0,0.0,0.0,0.0,0.0,-0.8086965774002605
1666091746653254229,0.0,0.0,0.0,0.0,0.0,-0.8086965774002605
1666091746703433370,0.0,0.0,0.0,0.0,0.0,-0.7634492425066088
1666091746753212490,0.0,0.0,0.0,0.0,0.0,-0.7576993445806234
1666091746803070598,0.0,0.0,0.0,0.0,0.0,-0.7204245941424042
1666091746853039650,0.0,0.0,0.0,0.0,0.0,-0.7204245941424042
1666091746903254179,0.0,0.0,0.0,0.0,0.0,-0.6579540517546635
1666091746953501936,0.0,0.0,0.0,0.0,0.0,-0.642411675027446
1666091747003294929,0.0,0.0,0.0,0.0,0.0,-0.642411675027446
1666091747054158596,0.015,0.0,0.0,0.0,0.0,-0.6139527619235936
1666091747103476216,0.03,0.0,0.0,0.0,0.0,-0.5854938488197412
1666091747153204780,0.045,0.0,0.0,0.0,0.0,-0.5700618774434679
1666091747203274596,0.06,0.0,0.0,0.0,0.0,-0.5546299060671948
1666091747254191164,0.075,0.0,0.0,0.0,0.0,-0.5401711577394702
1666091747303194435,0.09,0.0,0.0,0.0,0.0,-0.5257124094117457
1666091747353311223,0.105,0.0,0.0,0.0,0.0,-0.5112536610840211
1666091747403080375,0.12,0.0,0.0,0.0,0.0,-0.4976332878572266
1666091747453743810,0.135,0.0,0.0,0.0,0.0,-0.4848222669240832
1666091747503221488,0.15000000000000002,0.0,0.0,0.0,0.0,-0.4726310070019756
1666091747553555986,0.16500000000000004,0.0,0.0,0.0,0.0,-0.46043974707986796
1666091747603531584,0.18000000000000005,0.0,0.0,0.0,0.0,-0.4487144213049714
1666091747653776262,0.19500000000000006,0.0,0.0,0.0,0.0,-0.43698909553007487
1666091747703088209,0.21000000000000008,0.0,0.0,0.0,0.0,-0.415802152328337
1666091747753179761,0.1,0.0,0.0,0.0,0.0,-0.3490658503988664
1666091747803160617,0.115,0.0,0.0,0.0,0.0,-0.342762070236172
1666091747853062617,0.13,0.0,0.0,0.0,0.0,-0.3364582900734776
1666091747903402527,0.14500000000000002,0.0,0.0,0.0,0.0,-0.32999713675220743
1666091747953213407,0.16000000000000003,0.0,0.0,0.0,0.0,-0.32353598343093726
1666091748003057098,0.17500000000000004,0.0,0.0,0.0,0.0,-0.3170748301096671
1666091748053134773,0.19000000000000006,0.0,0.0,0.0,0.0,-0.3100651301712358
1666091748103096973,0.20500000000000007,0.0,0.0,0.0,0.0,-0.30305543023280457
1666091748153198915,0.22000000000000008,0.0,0.0,0.0,0.0,-0.2956624843845173
1666091748203235424,0.2350000000000001,0.0,0.0,0.0,0.0,-0.2882826222289242
1666091748253919621,0.2500000000000001,0.0,0.0,0.0,0.0,-0.27547743790006496
1666091748303241827,0.2650000000000001,0.0,0.0,0.0,0.0,-0.2626722535712057
1666091748353795803,0.1150000000000001,0.0,0.0,0.0,0.0,-0.10271159971503185
1666091748403026875,0.1,0.0,0.0,0.0,0.0,-0.08671553432941437
1666091748453076044,0.1,0.0,0.0,0.0,0.0,-0.08671553432941437
1666091748503175659,0.1,0.0,0.0,0.0,0.0,-0.07968824356794357
1666091748553998302,0.1,0.0,0.0,0.0,0.0,-0.07915417104959488
1666091748603226249,0.1,0.0,0.0,0.0,0.0,-0.06399265676736832
1666091748653136753,0.1,0.0,0.0,0.0,0.0,-0.06399265676736832
1666091748703037467,0.1,0.0,0.0,0.0,0.0,-4.996003610813204e-16
1666091748753108828,0.1,0.0,0.0,0.0,0.0,-4.996003610813204e-16
1666091748803071534,0.1,0.0,0.0,0.0,0.0,-4.996003610813204e-16
1666091748853064707,0.1,0.0,0.0,0.0,0.0,-4.996003610813204e-16
1666091748903081814,0.1,0.0,0.0,0.0,0.0,-4.996003610813204e-16
1666091748953148714,0.1,0.0,0.0,0.0,0.0,-4.996003610813204e-16
1666091749003576351,0.115,0.0,0.0,0.0,0.0,0.011870382370750518
1666091749053382665,0.13,0.0,0.0,0.0,0.0,0.02391183968129619
1666091749103091616,0.14500000000000002,0.0,0.0,0.0,0.0,0.03595329699184186
1666091749153482779,0.16000000000000003,0.0,0.0,0.0,0.0,0.04806619700010374
1666091749203072194,0.17500000000000004,0.0,0.0,0.0,0.0,0.06017909700836563
1666091749253403264,0.19000000000000006,0.0,0.0,0.0,0.0,0.07219802117067112
1666091749303840423,0.20500000000000007,0.0,0.0,0.0,0.0,0.0842169453329766
1666091749353238652,0.1,0.0,0.0,0.0,0.0,0.07138964533805847
1666091749403502912,0.115,0.0,0.0,0.0,0.0,0.07498121039734859
1666091749453311468,0.13,0.0,0.0,0.0,0.0,0.07857277545663871
1666091749503009702,0.14500000000000002,0.0,0.0,0.0,0.0,0.08216434051592883
1666091749553710577,0.16000000000000003,0.0,0.0,0.0,0.0,0.08566001666949495
1666091749603362951,0.17500000000000004,0.0,0.0,0.0,0.0,0.09619313862836945
1666091749653329701,0.19000000000000006,0.0,0.0,0.0,0.0,0.10672626058724395
1666091749703828869,0.20500000000000007,0.0,0.0,0.0,0.0,0.11677147966441216
1666091749753225489,0.22000000000000008,0.0,0.0,0.0,0.0,0.12681669874158039
1666091749803172407,0.2350000000000001,0.0,0.0,0.0,0.0,0.1368619178187486
1666091749853648873,0.1363604352828191,0.0,0.0,0.0,0.0,0.03686191781874859
1666091749903435444,0.1,0.0,0.0,0.0,0.0,-4.996003610813204e-16
1666091749953238255,0.115,0.0,0.0,0.0,0.0,0.010970379657581684
1666091750003278018,0.1,0.0,0.0,0.0,0.0,-4.996003610813204e-16
1666091750053182988,0.1,0.0,0.0,0.0,0.0,-4.996003610813204e-16
1666091750103236344,0.1,0.0,0.0,0.0,0.0,0.07966726273298264
1666091750153745989,0.1,0.0,0.0,0.0,0.0,0.07966726273298264
1666091750203230302,0.1,0.0,0.0,0.0,0.0,0.17453292519943245
1666091750253198239,0.1,0.0,0.0,0.0,0.0,0.17453292519943245
1666091750303334127,0.1,0.0,0.0,0.0,0.0,0.17453292519943245
1666091750353317510,0.1,0.0,0.0,0.0,0.0,0.17453292519943245
1666091750403029791,0.1,0.0,0.0,0.0,0.0,0.17453292519943245
1666091750454952735,0.1,0.0,0.0,0.0,0.0,0.17453292519943245
1666091750503344174,0.1,0.0,0.0,0.0,0.0,0.17453292519943245
1666091750553664278,0.1,0.0,0.0,0.0,0.0,0.17453292519943245
1666091750603396739,0.1,0.0,0.0,0.0,0.0,0.17453292519943245
1666091750654790402,0.1,0.0,0.0,0.0,0.0,0.17453292519943245
1666091750703666327,0.1,0.0,0.0,0.0,0.0,0.17453292519943245
1666091750753522054,0.1,0.0,0.0,0.0,0.0,0.17453292519943245
1666091750803142444,0.1,0.0,0.0,0.0,0.0,0.17453292519943245
1666091750854390369,0.1,0.0,0.0,0.0,0.0,0.17453292519943245
1666091750903189130,0.1,0.0,0.0,0.0,0.0,0.27453292519943245
1666091750953350115,0.1,0.0,0.0,0.0,0.0,0.3490658503988654
1666091751003298367,0.1,0.0,0.0,0.0,0.0,0.3490658503988654
1666091751053155202,0.1,0.0,0.0,0.0,0.0,0.3490658503988654
1666091751103267493,0.1,0.0,0.0,0.0,0.0,0.3490658503988654
1666091751153477580,0.1,0.0,0.0,0.0,0.0,0.4490658503988654
1666091751203196232,0.1,0.0,0.0,0.0,0.0,0.5490658503988654
1666091751253354665,0.1,0.0,0.0,0.0,0.0,0.6490658503988653
1666091751303397815,0.1,0.0,0.0,0.0,0.0,0.7490658503988653
1666091751353655586,0.1,0.0,0.0,0.0,0.0,0.8490658503988653
1666091751403100555,0.1,0.0,0.0,0.0,0.0,0.8726646259971643
1666091751453208652,0.1,0.0,0.0,0.0,0.0,0.8726646259971643
1666091751503129418,0.1,0.0,0.0,0.0,0.0,0.8726646259971643
1666091751553458137,0.1,0.0,0.0,0.0,0.0,0.9726646259971643
1666091751603267020,0.1,0.0,0.0,0.0,0.0,1.0726646259971644
1666091751653663600,0.115,0.0,0.0,0.0,0.0,1.0571589379486295
1666091751703226763,0.13,0.0,0.0,0.0,0.0,1.0416532499000946
1666091751753112185,0.14500000000000002,0.0,0.0,0.0,0.0,1.0261475618515596
1666091751803116184,0.16000000000000003,0.0,0.0,0.0,0.0,1.0106418738030247
1666091751853547438,0.17500000000000004,0.0,0.0,0.0,0.0,0.9910455703201281
1666091751903238909,0.19000000000000006,0.0,0.0,0.0,0.0,0.9714492668372314
1666091751953642176,0.20500000000000007,0.0,0.0,0.0,0.0,0.9518529633543348
1666091752003628038,0.22000000000000008,0.0,0.0,0.0,0.0,0.9322566598714381
1666091752053466307,0.2350000000000001,0.0,0.0,0.0,0.0,0.9126603563885414
1666091752103106994,0.2500000000000001,0.0,0.0,0.0,0.0,0.8930640529056446
1666091752154153096,0.2650000000000001,0.0,0.0,0.0,0.0,0.8687077605536725
1666091752203132166,0.28000000000000014,0.0,0.0,0.0,0.0,0.8443514682017004
1666091752253194907,0.29500000000000015,0.0,0.0,0.0,0.0,0.8183010429892649
1666091752303753772,0.31000000000000016,0.0,0.0,0.0,0.0,0.7888109251222738
1666091752353239267,0.3250000000000002,0.0,0.0,0.0,0.0,0.7593208072552827
1666091752403546013,0.3400000000000002,0.0,0.0,0.0,0.0,0.7298306893882917
1666091752453113098,0.3550000000000002,0.0,0.0,0.0,0.0,0.7003405715213006
1666091752503041478,0.3700000000000002,0.0,0.0,0.0,0.0,0.6708504536543095
1666091752553430220,0.38500000000000023,0.0,0.0,0.0,0.0,0.6352719779315242
1666091752603596992,0.40000000000000024,0.0,0.0,0.0,0.0,0.593385083225627
1666091752653222688,0.41500000000000026,0.0,0.0,0.0,0.0,0.5514981885197298
1666091752703238242,0.43000000000000027,0.0,0.0,0.0,0.0,0.5096112938138325
1666091752753133724,0.4450000000000003,0.0,0.0,0.0,0.0,0.46772439910793523
1666091752804784757,0.4600000000000003,0.0,0.0,0.0,0.0,0.4184628737598084
1666091752853314466,0.4750000000000003,0.0,0.0,0.0,0.0,0.36920134841168156
1666091752903368662,0.4900000000000003,0.0,0.0,0.0,0.0,0.31993982306355473
1666091752953099676,0.5050000000000003,0.0,0.0,0.0,0.0,0.27067829771542784
1666091753004867174,0.5200000000000004,0.0,0.0,0.0,0.0,0.22141677236730098
1666091753053161467,0.5350000000000004,0.0,0.0,0.0,0.0,0.1628052688834902
1666091753103086671,0.5500000000000004,0.0,0.0,0.0,0.0,0.10419376539967942
1666091753153447318,0.5650000000000004,0.0,0.0,0.0,0.0,0.04558226191586864
1666091753203153924,0.5800000000000004,0.0,0.0,0.0,0.0,-0.013029241567942156
1666091753253345138,0.5950000000000004,0.0,0.0,0.0,0.0,-0.08354071722444159
1666091753303210393,0.6100000000000004,0.0,0.0,0.0,0.0,-0.15405219288094102
1666091753354214957,0.6250000000000004,0.0,0.0,0.0,0.0,-0.23186926307284658
1666091753403195885,0.6400000000000005,0.0,0.0,0.0,0.0,-0.30968633326475214
1666091753453223408,0.6527699070163625,0.0,0.0,0.0,0.0,-0.4096863332647521
1666091753503063941,0.6655398140327246,0.0,0.0,0.0,0.0,-0.5096863332647521
1666091753553675158,0.6749000294961115,0.0,0.0,0.0,0.0,-0.6096863332647521
1666091753603042138,0.6842602449594984,0.0,0.0,0.0,0.0,-0.7096863332647521
1666091753653276109,0.6992602449594985,0.0,0.0,0.0,0.0,-0.7789107758247876
1666091753703099988,0.7142602449594985,0.0,0.0,0.0,0.0,-0.8481352183848233
1666091753753202611,0.7292602449594985,0.0,0.0,0.0,0.0,-0.917359660944859
1666091753803184549,0.7442602449594985,0.0,0.0,0.0,0.0,-0.9963979979592339
1666091753853209276,0.7528753824926138,0.0,0.0,0.0,0.0,-1.096397997959234
1666091753904009973,0.761490520025729,0.0,0.0,0.0,0.0,-1.196397997959234
1666091753953308433,0.736770510673523,0.0,0.0,0.0,0.0,-1.2217304763960313
1666091754003169661,0.736770510673523,0.0,0.0,0.0,0.0,-1.2217304763960313
1666091754053466886,0.7237859368324279,0.0,0.0,0.0,0.0,-1.2217304763960313
1666091754103375889,0.7241412401199341,0.0,0.0,0.0,0.0,-1.2217304763960313
1666091754153270949,0.7241412401199341,0.0,0.0,0.0,0.0,-1.2217304763960313
1666091754203259554,0.704835057258606,0.0,0.0,0.0,0.0,-1.2217304763960313
1666091754253798063,0.6851341128349304,0.0,0.0,0.0,0.0,-1.2217304763960313
1666091754303103996,0.6851341128349304,0.0,0.0,0.0,0.0,-1.2217304763960313
1666091754353245065,0.6851341128349304,0.0,0.0,0.0,0.0,-1.2217304763960313
1666091754404269984,0.6649745106697081,0.0,0.0,0.0,0.0,-1.2217304763960313
1666091754453086435,0.6649745106697081,0.0,0.0,0.0,0.0,-1.2217304763960313
1666091754503848838,0.5383912324905396,0.0,0.0,0.0,0.0,-1.2217304763960313
1666091754553400164,0.5068407654762268,0.0,0.0,0.0,0.0,-1.2217304763960313
1666091754603131635,0.5068407654762268,0.0,0.0,0.0,0.0,-1.2217304763960313
1666091754653696970,0.5218407654762268,0.0,0.0,0.0,0.0,-1.2217304763960313
1666091754703067818,0.5368407654762268,0.0,0.0,0.0,0.0,-1.2217304763960313
1666091754753203074,0.5518407654762268,0.0,0.0,0.0,0.0,-1.2217304763960313
1666091754803540667,0.5668407654762269,0.0,0.0,0.0,0.0,-1.2217304763960313
1666091754853644346,0.5524185492022159,0.0,0.0,0.0,0.0,-1.3217304763960314
1666091754903081954,0.5416692495346069,0.0,0.0,0.0,0.0,-1.3962634015954642
1666091754953315176,0.3916692495346069,0.0,0.0,0.0,0.0,-1.2777134287028478
1666091755003226710,0.2416692495346069,0.0,0.0,0.0,0.0,-1.1591634558102313
1666091755053305872,0.2566692495346069,0.0,0.0,0.0,0.0,-1.1631428060808566
1666091755103141674,0.2716692495346069,0.0,0.0,0.0,0.0,-1.167122156351482
1666091755154338147,0.1216692495346069,0.0,0.0,0.0,0.0,-0.9098330397922374
1666091755203095026,0.1,0.0,0.0,0.0,0.0,-0.8726646259971653
1666091755253642273,0.1,0.0,0.0,0.0,0.0,-0.8726646259971653
1666091755303247060,0.1,0.0,0.0,0.0,0.0,-0.8726646259971653
1666091755353794750,0.0,0.0,0.0,0.0,0.0,-0.5677890237411163
1666091755403093618,0.0,0.0,0.0,0.0,0.0,-0.4436132231719268
1666091755453081055,0.0,0.0,0.0,0.0,0.0,-0.4436132231719268
1666091755503021974,0.0,0.0,0.0,0.0,0.0,-0.4436132231719268
1666091755553783308,0.0,0.0,0.0,0.0,0.0,-0.17453292519943345
1666091755603055958,0.0,0.0,0.0,0.0,0.0,-0.17453292519943345
1666091755653059478,0.0,0.0,0.0,0.0,0.0,-0.17453292519943345
1666091755703252355,0.0,0.0,0.0,0.0,0.0,-4.996003610813204e-16
1666091755753333692,0.0,0.0,0.0,0.0,0.0,-4.996003610813204e-16
1666091755803133314,0.0,0.0,0.0,0.0,0.0,0.0999999999999995
1666091755853115624,0.0,0.0,0.0,0.0,0.0,0.17453292519943245
1666091755903176748,0.0,0.0,0.0,0.0,0.0,0.25746800711228524
1666091755953412734,0.0,0.0,0.0,0.0,0.0,0.33068962403780755
1666091756003028325,0.0,0.0,0.0,0.0,0.0,0.33068962403780755
1666091756053940208,0.0,0.0,0.0,0.0,0.0,0.33068962403780755
1666091756103402140,0.015,0.0,0.0,0.0,0.0,0.3380699464165054
1666091756153410014,0.03,0.0,0.0,0.0,0.0,0.34545862480277356
1666091756203346932,0.045,0.0,0.0,0.0,0.0,0.35150998782108644
1666091756253280779,0.06,0.0,0.0,0.0,0.0,0.35756135083939933
1666091756303039567,0.075,0.0,0.0,0.0,0.0,0.3644191571429737
1666091756353474379,0.09,0.0,0.0,0.0,0.0,0.37127696344654804
1666091756403653122,0.105,0.0,0.0,0.0,0.0,0.37806319176184533
1666091756453178887,0.12,0.0,0.0,0.0,0.0,0.38486896858239666
1666091756503076465,0.135,0.0,0.0,0.0,0.0,0.3998973800420618
1666091756553145174,0.15000000000000002,0.0,0.0,0.0,0.0,0.414925791501727
1666091756603190662,0.16500000000000004,0.0,0.0,0.0,0.0,0.4265923930224495
1666091756653505632,0.18000000000000005,0.0,0.0,0.0,0.0,0.438258994543172
1666091756703106666,0.19500000000000006,0.0,0.0,0.0,0.0,0.45279578766625117
1666091756753129239,0.21000000000000008,0.0,0.0,0.0,0.0,0.4673325807893303
1666091756803147667,0.2250000000000001,0.0,0.0,0.0,0.0,0.48186937391240947
1666091756853261834,0.2400000000000001,0.0,0.0,0.0,0.0,0.49547988083425526
1666091756903525081,0.2550000000000001,0.0,0.0,0.0,0.0,0.5085744412725968
1666091756956632932,0.27000000000000013,0.0,0.0,0.0,0.0,0.5182796289778847
1666091757003434470,0.28500000000000014,0.0,0.0,0.0,0.0,0.5279997294329446
1666091757053627551,0.30000000000000016,0.0,0.0,0.0,0.0,0.5411462474787486
1666091757103184536,0.31500000000000017,0.0,0.0,0.0,0.0,0.5542927655245526
1666091757154800976,0.3300000000000002,0.0,0.0,0.0,0.0,0.5674338881391258
1666091757203386894,0.3450000000000002,0.0,0.0,0.0,0.0,0.5805750107536989
1666091757253576586,0.3600000000000002,0.0,0.0,0.0,0.0,0.5932055670610842
1666091757303616315,0.3750000000000002,0.0,0.0,0.0,0.0,0.6049028503544659
1666091757353383727,0.39000000000000024,0.0,0.0,0.0,0.0,0.6166001336478476
1666091757403208098,0.40500000000000025,0.0,0.0,0.0,0.0,0.6046774079379272
1666091757453206795,0.42000000000000026,0.0,0.0,0.0,0.0,0.5931340745912059
1666091757503076008,0.4350000000000003,0.0,0.0,0.0,0.0,0.5815907412444845
1666091757553153328,0.4500000000000003,0.0,0.0,0.0,0.0,0.5700474078977632
1666091757603173435,0.4650000000000003,0.0,0.0,0.0,0.0,0.5583941166492599
1666091757653556868,0.4800000000000003,0.0,0.0,0.0,0.0,0.5467408254007564
1666091757703329931,0.49500000000000033,0.0,0.0,0.0,0.0,0.5354245563812675
1666091757753379668,0.5100000000000003,0.0,0.0,0.0,0.0,0.5237373475017771
1666091757803141289,0.507668673992157,0.0,0.0,0.0,0.0,0.5235987755982984
1666091757853367551,0.5021729469299316,0.0,0.0,0.0,0.0,0.5235987755982984
1666091757903167782,0.5021729469299316,0.0,0.0,0.0,0.0,0.5235987755982984
1666091757953373185,0.5171729469299317,0.0,0.0,0.0,0.0,0.5235987755982984
1666091758003388393,0.48234373331069946,0.0,0.0,0.0,0.0,0.5235987755982984
1666091758053253221,0.48234373331069946,0.0,0.0,0.0,0.0,0.5235987755982984
1666091758103266002,0.4973437333106995,0.0,0.0,0.0,0.0,0.5235987755982984
1666091758153319267,0.5104310512542725,0.0,0.0,0.0,0.0,0.5235987755982984
1666091758204375327,0.4170795679092407,0.0,0.0,0.0,0.0,0.5235987755982984
1666091758253750459,0.4170795679092407,0.0,0.0,0.0,0.0,0.5235987755982984
1666091758303186231,0.39965125918388367,0.0,0.0,0.0,0.0,0.5235987755982984
1666091758353250652,0.40149927139282227,0.0,0.0,0.0,0.0,0.5235987755982984
1666091758403024882,0.3870324194431305,0.0,0.0,0.0,0.0,0.5235987755982984
1666091758453402736,0.37022873759269714,0.0,0.0,0.0,0.0,0.3490658503988654
1666091758503077822,0.37022873759269714,0.0,0.0,0.0,0.0,0.3490658503988654
1666091758553470453,0.22022873759269712,0.0,0.0,0.0,0.0,0.34180939890567535
1666091758604597895,0.0702287375926971,0.0,0.0,0.0,0.0,0.3184635811668739
1666091758653093607,0.0,0.0,0.0,0.0,0.0,0.3045042947640415
1666091758703309726,0.0,0.0,0.0,0.0,0.0,0.3049412186422997
1666091758754963678,0.0,0.0,0.0,0.0,0.0,0.3049412186422997
1666091758803311692,0.0,0.0,0.0,0.0,0.0,0.3049412186422997
1666091758855567316,0.0,0.0,0.0,0.0,0.0,0.2917936213315147
1666091758903169352,0.0,0.0,0.0,0.0,0.0,0.2709191833612661
1666091758953280737,0.0,0.0,0.0,0.0,0.0,0.2709191833612661
1666091759003236806,0.0,0.0,0.0,0.0,0.0,0.2607230946883809
1666091759053599327,0.0,0.0,0.0,0.0,0.0,0.2477000994344856
1666091759103124818,0.0,0.0,0.0,0.0,0.0,0.2477000994344856
1666091759153306674,0.0,0.0,0.0,0.0,0.0,0.2477000994344856
1666091759203411809,0.0,0.0,0.0,0.0,0.0,0.22202570643616676
1666091759253354492,0.0,0.0,0.0,0.0,0.0,0.22202570643616676
1666091759304068133,0.0,0.0,0.0,0.0,0.0,0.17453292519943245
1666091759353352323,0.0,0.0,0.0,0.0,0.0,0.17453292519943245
1666091759403064217,0.0,0.0,0.0,0.0,0.0,0.17453292519943245
1666091759454042121,0.0,0.0,0.0,0.0,0.0,0.17453292519943245
1666091759503825499,0.0,0.0,0.0,0.0,0.0,0.17453292519943245
1666091759553177581,0.0,0.0,0.0,0.0,0.0,0.07453292519943244
1666091759603137437,0.0,0.0,0.0,0.0,0.0,-4.996003610813204e-16
1666091759653401886,0.0,0.0,0.0,0.0,0.0,-4.996003610813204e-16
1666091759703449042,0.0,0.0,0.0,0.0,0.0,-4.996003610813204e-16
1666091759753388515,0.0,0.0,0.0,0.0,0.0,-4.996003610813204e-16
1666091759803429886,0.0,0.0,0.0,0.0,0.0,-4.996003610813204e-16
1666091759853744609,0.0,0.0,0.0,0.0,0.0,-4.996003610813204e-16
1666091759903069288,0.0,0.0,0.0,0.0,0.0,-4.996003610813204e-16
1666091759953353885,0.0,0.0,0.0,0.0,0.0,-4.996003610813204e-16
1666091760003775984,0.0,0.0,0.0,0.0,0.0,-4.996003610813204e-16
1666091760053373987,0.0,0.0,0.0,0.0,0.0,-4.996003610813204e-16
1666091760103867401,0.0,0.0,0.0,0.0,0.0,-4.996003610813204e-16
1666091760153364018,0.0,0.0,0.0,0.0,0.0,-4.996003610813204e-16
1666091760203299452,0.0,0.0,0.0,0.0,0.0,-4.996003610813204e-16
1666091760253313423,0.0,0.0,0.0,0.0,0.0,-4.996003610813204e-16
1666091760303249480,0.0,0.0,0.0,0.0,0.0,-4.996003610813204e-16
1666091760353375657,0.0,0.0,0.0,0.0,0.0,-4.996003610813204e-16
1666091760403496184,0.0,0.0,0.0,0.0,0.0,-4.996003610813204e-16
1666091760453551207,0.0,0.0,0.0,0.0,0.0,-4.996003610813204e-16
1666091760503024712,0.0,0.0,0.0,0.0,0.0,-4.996003610813204e-16
1666091760553409995,0.0,0.0,0.0,0.0,0.0,-4.996003610813204e-16
1666091760603224293,0.0,0.0,0.0,0.0,0.0,-4.996003610813204e-16
1666091760653579256,0.0,0.0,0.0,0.0,0.0,0.0999999999999995
1666091760703783860,0.0,0.0,0.0,0.0,0.0,0.17453292519943245
1666091760753303523,0.0,0.0,0.0,0.0,0.0,0.17453292519943245
1666091760803048764,0.0,0.0,0.0,0.0,0.0,0.17453292519943245
1666091760853621516,0.0,0.0,0.0,0.0,0.0,0.17453292519943245
1666091760903242852,0.0,0.0,0.0,0.0,0.0,0.17453292519943245
1666091760954401440,0.0,0.0,0.0,0.0,0.0,0.17453292519943245
1666091761003507438,0.0,0.0,0.0,0.0,0.0,0.17453292519943245
1666091761053304250,0.0,0.0,0.0,0.0,0.0,0.17453292519943245
1666091761103234738,0.0,0.0,0.0,0.0,0.0,0.17453292519943245
1666091761153342770,0.0,0.0,0.0,0.0,0.0,0.17453292519943245
1666091761203398574,0.0,0.0,0.0,0.0,0.0,0.17453292519943245
1666091761253355963,0.0,0.0,0.0,0.0,0.0,0.17453292519943245
1666091761303339127,0.0,0.0,0.0,0.0,0.0,0.17453292519943245
1666091761354101776,0.0,0.0,0.0,0.0,0.0,0.17453292519943245
1666091761403336732,0.0,0.0,0.0,0.0,0.0,0.17453292519943245
1666091761453574465,0.0,0.0,0.0,0.0,0.0,0.17453292519943245
1666091761503244261,0.0,0.0,0.0,0.0,0.0,0.17453292519943245
1666091761553460166,0.0,0.0,0.0,0.0,0.0,0.17453292519943245
1666091761603450973,0.0,0.0,0.0,0.0,0.0,0.17453292519943245
