%time,field.x,field.y,field.z
1666091717759374392,0.8163845254885201,-1.0168155744302785,0.0
1666091717817315595,0.7779137598519125,-1.0673724727499279,0.0
1666091717888816892,0.7548488683370596,-1.104767130320471,0.0
1666091717987155933,0.7507824730462858,-1.133616949717666,0.0
1666091718045248351,0.7331779212450995,-1.174503910353788,0.0
1666091718193358224,0.7389965017351695,-1.1580212716035583,0.0
1666091718194494043,0.7334118261902961,-1.1426405234313064,0.0
1666091718280042046,0.7343837496495245,-1.1372868516519508,0.0
1666091718341786748,0.7474564111348295,-1.134821033337134,0.0
1666091718459907749,0.7406522288044116,-1.147269838266738,0.0
1666091718554256272,0.7423304416152511,-1.1541204204507631,0.0
1666091718555853118,0.741034224926274,-1.1503407933751242,0.0
1666091718657612104,0.7338606197275702,-1.1777784384210972,0.0
1666091718722296702,0.7345474998473459,-1.1764704386536375,0.0
1666091718790648422,0.73052146298993,-1.1728360681761547,0.0
1666091718891321750,0.7298752807663539,-1.1831705800875127,0.0
1666091718959249264,0.7280299457464995,-1.1891621310363392,0.0
1666091719061156757,0.7157590335035876,-1.1993423349842194,0.0
1666091719139980792,0.7088792706661227,-1.1957378531069314,0.0
1666091719267200789,0.6812079545439027,-1.218073128436847,0.0
1666091719299731111,0.6872737692723954,-1.2078007479414292,0.0
1666091719365952635,0.6881635773902657,-1.190702397914989,0.0
1666091719431735057,0.7049233797205352,-1.1747776554674463,0.0
1666091719536206800,0.6925440469161188,-1.1749048672706721,0.0
1666091719600162244,0.6901767796412446,-1.1569573710965881,0.0
1666091719707771980,0.6929359351938037,-1.136692565297366,0.0
1666091719729537608,0.7248201234729785,-1.1037684591103938,0.0
1666091719803297652,0.734644598912502,-1.0830528904684311,0.0
1666091719929250122,0.7516012829911985,-1.0655746177354546,0.0
1666091720013568414,0.7762974889759702,-1.047017850565686,0.0
1666091720053039977,0.8065785477820238,-1.0224816235785297,0.0
1666091720117716383,0.8292391770509902,-1.0072256953385497,0.0
1666091720195514506,0.8423257509178049,-0.9944402258030554,0.0
1666091720243247275,0.8554899297870524,-0.9832243917028383,0.0
1666091720303669133,0.8631099720786266,-0.9758576834053714,0.0
1666091720368340569,0.8717017828965975,-0.9744708254459558,0.0
1666091720470650388,0.8748007135399944,-0.9729123440268532,0.0
1666091720532539570,0.8839712252021048,-0.9708815840343816,0.0
1666091720617732225,0.8885428365454544,-0.9723208370609882,0.0
1666091720661508428,0.8929045739528465,-0.9744094332569393,0.0
1666091720769408381,0.8921236906972247,-0.9784941453692406,0.0
1666091720800641361,0.8867181765749823,-0.9831937294152562,0.0
1666091720907038566,0.8770005323159482,-0.9929584354315806,0.0
1666091720976689681,0.8699830325485096,-1.0024491069171138,0.0
1666091721038037860,0.8601648678621794,-1.012538911947627,0.0
1666091721142021569,0.851134069222732,-1.016560984301986,0.0
1666091721225010398,0.8397729013700597,-1.0205753330255782,0.0
1666091721272582849,0.8312676513806303,-1.017152490897622,0.0
1666091721365300476,0.8193105968832672,-1.0158961684785905,0.0
1666091721407870317,0.7965755007085464,-1.0003420548085984,0.0
1666091721497235653,0.7774964597315134,-0.9831410158021647,0.0
1666091721620381499,0.7561736577576037,-0.9708240730674222,0.0
1666091721666944078,0.7282069942349028,-0.9551569726258766,0.0
1666091721776377229,0.6992618470087288,-0.943666667098837,0.0
1666091721812322111,0.6645584777210749,-0.9375537429375758,0.0
1666091721920849137,0.6369560950659112,-0.9246681802150041,0.0
1666091721999152288,0.6035760513986326,-0.9106383965034646,0.0
1666091722066898751,0.5805080686318689,-0.8951267285432496,0.0
1666091722186713018,0.5574998765246908,-0.8839399323119819,0.0
1666091722240617494,0.5431111166801494,-0.8708236986772704,0.0
1666091722301099233,0.5258877805239512,-0.859769431791001,0.0
1666091722380049472,0.5135382431932446,-0.8477511883342688,0.0
1666091722480712978,0.5028913052580485,-0.838418180780534,0.0
1666091722539379553,0.49889985754729393,-0.828773085439547,0.0
1666091722626108468,0.49611949912932807,-0.8178025067690089,0.0
1666091722677963082,0.49749157497502905,-0.8114208155229385,0.0
1666091722769107536,0.49860644773022433,-0.8060423445690399,0.0
1666091722815291069,0.4981402579414498,-0.7987931263682785,0.0
1666091722903041049,0.49969596753435563,-0.794700720132895,0.0
1666091722976513525,0.5039795234655298,-0.7924829387049128,0.0
1666091723042925671,0.509426707666945,-0.7916879797818533,0.0
1666091723105434483,0.5165902376309097,-0.7919060579846195,0.0
1666091723148494725,0.5245986368844113,-0.7932802327030162,0.0
1666091723238882032,0.5321634047602606,-0.7954104153752644,0.0
1666091723302052134,0.539659066050461,-0.7976720657317946,0.0
1666091723343693280,0.5497862965089467,-0.8011030699093136,0.0
1666091723439886226,0.5575034942173627,-0.8074083970794856,0.0
1666091723469206862,0.5654696097399237,-0.8149962780695477,0.0
1666091723541675102,0.5736670328254452,-0.8236155399566549,0.0
1666091723598004815,0.5822964094081371,-0.8287546478111523,0.0
1666091723704797665,0.5910930577156325,-0.8366438280681789,0.0
1666091723782096362,0.6007892862630425,-0.8551289330824233,0.0
1666091723897293186,0.6143534519153502,-0.8760067330670299,0.0
1666091723898515156,0.6270110598563714,-0.8961577956510045,0.0
1666091723990390321,0.6357558910859027,-0.9131941635132509,0.0
1666091724092662774,0.640006845624609,-0.9284795078452309,0.0
1666091724192434077,0.6458620322008242,-0.9410391624031252,0.0
1666091724287798033,0.6490393590471586,-0.9555787186117826,0.0
1666091724378440589,0.6496348223671652,-0.9721314432780384,0.0
1666091724511592664,0.6465973257259112,-0.9882556552005128,0.0
1666091724592910564,0.6418013304369372,-1.0115430955106852,0.0
1666091724713004807,0.635077539004822,-1.0357561543057359,0.0
1666091724817426919,0.6258861314602642,-1.0589021614393654,0.0
1666091724889930013,0.6160832539591421,-1.0832505336016984,0.0
1666091724891253158,0.6092669092472898,-1.1005689133428262,0.0
1666091724985916115,0.5914302634467623,-1.1136605231478525,0.0
1666091725059339416,0.5774653533449651,-1.1232894883614795,0.0
1666091725132825915,0.5625119595602708,-1.132798629852895,0.0
1666091725219757890,0.5506760858950166,-1.1531370870582034,0.0
1666091725290460886,0.5430442417006716,-1.1796902991068148,0.0
1666091725414299990,0.530850290022256,-1.1998186620809097,0.0
1666091725486724343,0.5204357810326865,-1.2198460925849086,0.0
1666091725515932465,0.5208969946868447,-1.2299446016113995,0.0
1666091725630810630,0.5037119099813301,-1.249927604422602,0.0
1666091725632790468,0.5087950480544994,-1.2552781798915287,0.0
1666091725732344897,0.498599867129067,-1.2727705151026185,0.0
1666091725813524600,0.49521147241929153,-1.2988877059890767,0.0
1666091725910162869,0.4857277671026873,-1.3274856309155172,0.0
1666091725964198504,0.48533476645641516,-1.3566217590795364,0.0
1666091726031301447,0.4874489838598427,-1.393524233234554,0.0
1666091726094812285,0.4853099550637175,-1.4249452657339914,0.0
1666091726164245887,0.4850590431089185,-1.4570341893898713,0.0
1666091726273227210,0.4902384301721342,-1.477576753543354,0.0
1666091726340575331,0.5012819394342134,-1.4997655850342062,0.0
1666091726413264565,0.5070536848965894,-1.523940136626166,0.0
1666091726530703388,0.49624954523601317,-1.5561857379295265,0.0
1666091726568211995,0.5026582629300385,-1.5742614095250194,0.0
1666091726634143870,0.5096412651112603,-1.6024180340356158,0.0
1666091726753872319,0.5084356084791402,-1.6331765509765188,0.0
1666091726848037610,0.5018371825116501,-1.6562141710303928,0.0
1666091726867491590,0.5100309903837511,-1.6754870283507386,0.0
1666091726939875657,0.5113461214064755,-1.6961288119388713,0.0
1666091727022380026,0.5071136151988177,-1.7235307488137532,0.0
1666091727159646337,0.49338099696129945,-1.7719119923820241,0.0
1666091727230042111,0.48899250435669506,-1.7866191770921747,0.0
1666091727308486951,0.4850935812332023,-1.7986811806582612,0.0
1666091727318350644,0.4861605035290557,-1.7836958805265564,0.0
1666091727384617172,0.4851097651637673,-1.7929016827049833,0.0
1666091727509671535,0.47782538303948946,-1.8213735643145188,0.0
1666091727589779051,0.47438388210433974,-1.8399673572264525,0.0
1666091727637720039,0.4748147024132059,-1.8600340284664056,0.0
1666091727701735256,0.480313652188314,-1.8861412260470516,0.0
1666091727781290505,0.48736739091232806,-1.921845371222553,0.0
1666091727878469312,0.49538918684502514,-1.9726229470438934,0.0
1666091727969138819,0.5013332180418341,-2.026130548832594,0.0
1666091728033930301,0.5015305809881456,-2.065410365250107,0.0
1666091728081217562,0.5001198953793144,-2.0954772103492942,0.0
1666091728157430377,0.5020458368986969,-2.1466951929673037,0.0
1666091728205844994,0.49811283871427564,-2.187408454611728,0.0
1666091728302739396,0.4986038576801462,-2.226688888400352,0.0
1666091728344969591,0.49195773855564356,-2.2609496702981704,0.0
1666091728440032710,0.4859998765971948,-2.299101982520381,0.0
1666091728474167453,0.4752774495550088,-2.3072134073719193,0.0
1666091728536904567,0.4660015995619396,-2.3167599915628605,0.0
1666091728608333541,0.4585129637981352,-2.3357254873269997,0.0
1666091728724904586,0.4519016884274977,-2.384789066366803,0.0
1666091728765172665,0.4384150863883195,-2.3953783906715023,0.0
1666091728885751095,0.43618346542202946,-2.438770448894159,0.0
1666091728894834066,0.4192158286696741,-2.428786244626399,0.0
1666091729035249714,0.4139694354640946,-2.4702566322761372,0.0
1666091729105297435,0.400053412281133,-2.48079661985859,0.0
1666091729225080202,0.38374623573155375,-2.506221130719682,0.0
1666091729304470353,0.3650998099655038,-2.51213538387163,0.0
1666091729392223944,0.35360387041847274,-2.5185432636394167,0.0
1666091729394200398,0.34278909156492476,-2.492706723565999,0.0
1666091729466605033,0.3352748498478548,-2.498024474951888,0.0
1666091729570348848,0.33136858733769714,-2.508641121505248,0.0
1666091729662530074,0.32094996307124,-2.507926525881786,0.0
1666091729735977696,0.3031851896643156,-2.490920285632682,0.0
1666091729737293375,0.29605525699556345,-2.4750178604801474,0.0
1666091729804379662,0.2981191371785898,-2.4891024255521645,0.0
1666091729877751710,0.2964339131139574,-2.4967404883858095,0.0
1666091730008013209,0.2693513644408565,-2.4987161430500673,0.0
1666091730086035374,0.2368624853456167,-2.4957988852473414,0.0
1666091730124669575,0.24425456919007904,-2.5234904530755076,0.0
1666091730182549341,0.2581619413468505,-2.5504963545161523,0.0
1666091730274312282,0.2540331594852024,-2.571742350479379,0.0
1666091730344392476,0.24835098850428544,-2.580241880574463,0.0
1666091730408475746,0.23966259910570847,-2.5926778358963634,0.0
1666091730493930216,0.23508961615991064,-2.6242273625310975,0.0
1666091730572979730,0.23101208945903895,-2.6571881482450586,0.0
1666091730574372890,0.26022912076186766,-2.6952805162946474,0.0
1666091730694003387,0.239671696249445,-2.730250096093714,0.0
1666091730782483940,0.24305508103986562,-2.7839753441463158,0.0
1666091730854400521,0.2431438965235178,-2.837417847086753,0.0
1666091730974465326,0.219903481688271,-2.891491593137871,0.0
1666091730975765113,0.2512122084668421,-2.935801009898693,0.0
1666091731050071348,0.2504548029076091,-2.9803823907691416,0.0
1666091731141998713,0.24606683623928743,-3.0216678506402213,0.0
1666091731248100545,0.2088909181047892,-3.053654612547743,0.0
1666091731249617294,0.2447144304040425,-3.084671824033394,0.0
1666091731312644155,0.2491102093335958,-3.1184617415910107,0.0
1666091731392779459,0.2520550900474544,-3.14806418558776,0.0
1666091731527062706,0.2172303960478319,-3.1917090307080533,0.0
1666091731590826540,0.22878054012514848,-3.2104168697679247,0.0
1666091731684487594,0.2517015375908188,-3.249582874457306,0.0
1666091731799681914,0.2690947266243814,-3.2989105658683138,0.0
1666091731868993474,0.29581453176453193,-3.3346434206616378,0.0
1666091732001506066,0.31852755039762515,-3.3819747011283905,0.0
1666091732037940294,0.37129880054284214,-3.4083076588871783,0.0
1666091732170749854,0.3926222387668183,-3.466858061343062,0.0
1666091732172850024,0.4445805720860309,-3.456992095717139,0.0
1666091732273174363,0.4657449514941445,-3.4851345238733855,0.0
1666091732401206230,0.47713587094889354,-3.5229548956315346,0.0
1666091732402870272,0.5164559638253857,-3.497745555122731,0.0
1666091732571522571,0.507467555725865,-3.559668325345905,0.0
1666091732573075165,0.5316544556963476,-3.5355117882010556,0.0
1666091732671189871,0.5350752960543108,-3.550735837469829,0.0
1666091732755891716,0.5484621497396646,-3.55846100191092,0.0
1666091732909633350,0.5735003823740243,-3.5981785769605623,0.0
1666091732940529596,0.5973227274403531,-3.5878897801139145,0.0
1666091733007042445,0.6219831995766711,-3.5953326935787535,0.0
1666091733089390222,0.6447836399766211,-3.595135877572823,0.0
1666091733219936107,0.6645547032620889,-3.594489609479458,0.0
1666091733295493076,0.6715416515467936,-3.586060715946649,0.0
1666091733372501624,0.679764178501322,-3.579153006514777,0.0
1666091733467501719,0.7034713515630556,-3.572877882727323,0.0
1666091733479177323,0.6955845144199567,-3.5536328345783588,0.0
1666091733603403138,0.7217926852628049,-3.548914506880246,0.0
1666091733689149435,0.7400877017449059,-3.539998794075167,0.0
1666091733729607497,0.7388567708474736,-3.5288923283792197,0.0
1666091733785643155,0.7467138232258358,-3.522335779112038,0.0
1666091733857433187,0.7512591598317144,-3.5156096481578056,0.0
1666091734013652024,0.7905120988855748,-3.507499110961414,0.0
1666091734045815802,0.7938849747696691,-3.4978556831746257,0.0
1666091734113559051,0.8111484111600825,-3.4969288232340565,0.0
1666091734189138190,0.8163674922844507,-3.4950205731402746,0.0
1666091734318056735,0.8519117069119556,-3.4586116528786497,0.0
1666091734371082387,0.8569890721622648,-3.4467112640508137,0.0
1666091734443206180,0.863946079704539,-3.445937403548293,0.0
1666091734532252219,0.8687241576951682,-3.4551420434747495,0.0
1666091734605161795,0.8702233910915803,-3.462898156453924,0.0
1666091734651655415,0.8588763608789803,-3.4927858073063605,0.0
1666091734747076623,0.8583090186703886,-3.506607768933775,0.0
1666091734785899207,0.8557586116437315,-3.534146988516218,0.0
1666091734853999429,0.8688118804029946,-3.548764887437412,0.0
1666091734922422388,0.890214138595089,-3.5823605306344257,0.0
1666091734991323993,0.9186755495036689,-3.608751766517347,0.0
1666091735106571859,0.9641853212527333,-3.6194623393166365,0.0
1666091735199730149,0.9944282881003814,-3.638839942467336,0.0
1666091735253227315,1.0242167046705208,-3.6560227445122693,0.0
1666091735352306316,1.0668597011170888,-3.664300542459279,0.0
1666091735421776844,1.0942829291934144,-3.685985812596282,0.0
1666091735462930576,1.102437427690922,-3.7089384341804457,0.0
1666091735544452416,1.1250253659305456,-3.7354257222707443,0.0
1666091735652800907,1.1708544828567475,-3.742632208510414,0.0
1666091735704992847,1.1827005787632827,-3.765722631276036,0.0
1666091735807319697,1.2255767993087727,-3.7827361309548464,0.0
1666091735818154043,1.2196768416504584,-3.8142296810014478,0.0
1666091735896364584,1.250010926679031,-3.830641012654896,0.0
1666091735962823576,1.2529685761885654,-3.845201730773015,0.0
1666091736091821258,1.270877038447162,-3.8679324041089274,0.0
1666091736144942825,1.245845968264621,-3.8892966215609643,0.0
1666091736204923851,1.2224677032483464,-3.9125224835309007,0.0
1666091736290265213,1.2221181069409865,-3.941899331120731,0.0
1666091736326032161,1.2183529982741572,-3.95670782478248,0.0
1666091736383472835,1.2228446509650572,-3.9793207714797703,0.0
1666091736452256039,1.2311624545860944,-4.000393811121959,0.0
1666091736578674508,1.2496614432229536,-4.030023967143567,0.0
1666091736648537328,1.2550721428677432,-4.044392837181626,0.0
1666091736716011418,1.256200258490574,-4.0564568414300854,0.0
1666091736784494596,1.2573637269141942,-4.070502615506869,0.0
1666091736851620175,1.2717408703649293,-4.092273509894789,0.0
1666091736887150844,1.2634023416292683,-4.0982950196555645,0.0
1666091736996812353,1.2880338029467395,-4.130267565343895,0.0
1666091737019273242,1.2829105149487305,-4.134621143962512,0.0
1666091737096712327,1.3002235646217581,-4.152314051426984,0.0
1666091737217850470,1.3324790377108378,-4.182151859323591,0.0
1666091737294308716,1.3532053372396513,-4.201767180288426,0.0
1666091737372847148,1.3731447898609987,-4.218258501668521,0.0
1666091737452118360,1.3953859891711378,-4.237505541620064,0.0
1666091737519834148,1.4026142967131237,-4.251428081703527,0.0
1666091737593392612,1.4118171439686527,-4.268202203624648,0.0
1666091737662618116,1.4157763004379906,-4.283448723585945,0.0
1666091737714206315,1.424446419820057,-4.304313042368692,0.0
1666091737789917955,1.4381690196457704,-4.3343659721711605,0.0
1666091737877386901,1.465961367118544,-4.349425985990853,0.0
1666091737950792256,1.4908507767017758,-4.36132315479456,0.0
1666091738020780137,1.4842108225412658,-4.360906057724052,0.0
1666091738089204539,1.475820110607897,-4.362616685379367,0.0
1666091738184436413,1.4812384681700403,-4.374935555625086,0.0
1666091738233511181,1.4689738402911847,-4.381629366379668,0.0
1666091738325220270,1.4445787424266594,-4.400709434606612,0.0
1666091738370813252,1.4175419441948565,-4.409208341833054,0.0
1666091738456085733,1.3981273315532685,-4.422505172256356,0.0
1666091738523433236,1.3769198108426444,-4.426650876083865,0.0
1666091738594761073,1.341628080908043,-4.4228757894635775,0.0
1666091738638214067,1.310442008694052,-4.421037963300407,0.0
1666091738726832567,1.2760405419702765,-4.4222149553506895,0.0
1666091738792743930,1.2361160968704474,-4.42122001787721,0.0
1666091738843542225,1.209054976036483,-4.417648084301645,0.0
1666091738960982076,1.1575020869331274,-4.422771688779006,0.0
1666091738962880013,1.147430462908608,-4.422618502170364,0.0
1666091739081210528,1.1277622292564016,-4.435768962710545,0.0
1666091739146420667,1.1036941547963774,-4.438916854627781,0.0
1666091739238040352,1.0695936518153366,-4.450316032070045,0.0
1666091739239938904,1.0839139599925494,-4.450770882221755,0.0
1666091739367566841,1.0602352483483288,-4.454458317934373,0.0
1666091739451351550,1.04501017143119,-4.463352886503891,0.0
1666091739453223397,1.0791294660473874,-4.491272128808939,0.0
1666091739610640782,1.0695851856609275,-4.5236166525182275,0.0
1666091739611964121,1.1098865483186173,-4.552472134218469,0.0
1666091739710351687,1.148867763718651,-4.590804934258386,0.0
1666091739802510818,1.161191000564238,-4.6163146141504505,0.0
1666091739886330497,1.174500979375678,-4.641045840035823,0.0
1666091739976091536,1.1944011399344556,-4.672751949765234,0.0
1666091740073637553,1.2055126686573598,-4.712012023557407,0.0
1666091740179221710,1.2105783037298334,-4.741903180810094,0.0
1666091740277006987,1.227735314277068,-4.777620759525366,0.0
1666091740363925010,1.2449512435819585,-4.813880555953059,0.0
1666091740457367557,1.260812490336367,-4.859365061889397,0.0
1666091740536609927,1.285797938446383,-4.898441631590648,0.0
1666091740610606464,1.31047241650899,-4.932824693051864,0.0
1666091740716544754,1.3365063281925846,-4.9670827841034395,0.0
1666091740817785507,1.3525860023676475,-4.994206375998569,0.0
1666091740908242904,1.3710886125206951,-5.016199210426802,0.0
1666091741051707429,1.389812479887282,-5.06228196563707,0.0
1666091741053081157,1.4066322463614434,-5.0543315325085745,0.0
1666091741131386030,1.4194910672218812,-5.076017561699144,0.0
1666091741243568875,1.4302779130770589,-5.108421763572255,0.0
1666091741288579142,1.444357558131041,-5.118750382773248,0.0
1666091741414119023,1.458039735667103,-5.1736794654583,0.0
1666091741415361920,1.4590585788705202,-5.168300492979533,0.0
1666091741524664425,1.4659125429051656,-5.206681418988598,0.0
1666091741607225692,1.462765218067845,-5.231559509793949,0.0
1666091741754655312,1.4687472283542278,-5.298282646685706,0.0
1666091741785671045,1.4659614388932998,-5.2951454897250425,0.0
1666091741855857499,1.467379867491116,-5.318630335737779,0.0
1666091741945460883,1.4705585302365851,-5.338746636294957,0.0
1666091742072095783,1.475393872555657,-5.386601747095599,0.0
1666091742121138857,1.4703090761061093,-5.379398774559348,0.0
1666091742213709218,1.4709934662256106,-5.421173897057383,0.0
1666091742282523604,1.4616393425582364,-5.4237133642459545,0.0
1666091742358712674,1.4534017622398396,-5.432592192410314,0.0
1666091742398779384,1.4435626502590886,-5.43001720469808,0.0
1666091742460372060,1.432183814717385,-5.432417367646912,0.0
1666091742529318078,1.4024182451282698,-5.436962086650146,0.0
1666091742594140036,1.3848976394650634,-5.446425124299405,0.0
1666091742677714424,1.3740024022675785,-5.4556201075698345,0.0
1666091742798555287,1.3682981824639864,-5.4570148943958765,0.0
1666091742847756840,1.3551974956826078,-5.4444837971006335,0.0
1666091742940348848,1.3410915622251254,-5.431941736842859,0.0
1666091742982113782,1.3395396807973952,-5.4229674136036765,0.0
1666091743044801692,1.3359878608175875,-5.414624039021284,0.0
1666091743120399774,1.3339445604624631,-5.409385320251793,0.0
1666091743162906354,1.3348252528820805,-5.419490149729358,0.0
1666091743228838657,1.3342030054782799,-5.433055560959796,0.0
1666091743287921563,1.3316603366342885,-5.448564929843573,0.0
1666091743356261063,1.3296288204245634,-5.468031033548973,0.0
1666091743422406562,1.3263581798129285,-5.487714007508004,0.0
1666091743527325745,1.3197917494621476,-5.502347532179328,0.0
1666091743616577777,1.3131045493140878,-5.522668275511402,0.0
1666091743668726168,1.3052555981499538,-5.534116422583367,0.0
1666091743759356792,1.297160787175275,-5.548700071714113,0.0
1666091743801001219,1.2862605449905398,-5.553773558844757,0.0
1666091743861780354,1.27640640312123,-5.560612032776697,0.0
1666091743933070611,1.2648647668643438,-5.567140391935574,0.0
1666091744016308462,1.2522015035358312,-5.585417622906235,0.0
1666091744117307196,1.2396360716825532,-5.604416081848159,0.0
1666091744202902950,1.2282483909992092,-5.618766390637003,0.0
1666091744267437718,1.2167642655782982,-5.6316843089653155,0.0
1666091744316987754,1.2065010810707681,-5.648716821078594,0.0
1666091744383543776,1.1966259231018044,-5.660641639906231,0.0
1666091744484532703,1.1874825873545476,-5.6793834020516165,0.0
1666091744612685973,1.180213041708972,-5.705316948530986,0.0
1666091744645121772,1.1663162706198924,-5.718008802252889,0.0
1666091744750334468,1.1539395404284178,-5.744753510948094,0.0
1666091744813844974,1.1416916171966334,-5.778110219489797,0.0
1666091744899230094,1.1288076689512392,-5.794427980669072,0.0
1666091744938021940,1.1124701502902088,-5.811524411466137,0.0
1666091745000296814,1.092692607900655,-5.823523600033039,0.0
1666091745138729935,1.078267659403958,-5.859077397020969,0.0
1666091745202010772,1.061064501705431,-5.867130674328854,0.0
1666091745285119257,1.0472801674864776,-5.88301086773163,0.0
1666091745320730764,1.0297781382561042,-5.880207525785172,0.0
1666091745438444825,1.0165769470322317,-5.905734124587293,0.0
1666091745455487454,0.9976022752119714,-5.8889049173880785,0.0
1666091745582736948,0.9858224527452443,-5.908724192094602,0.0
1666091745667069821,0.968208314681052,-5.9104752136633865,0.0
1666091745762835186,0.9534993386154316,-5.908991705210569,0.0
1666091745878902361,0.9396867877588575,-5.914418540409686,0.0
1666091745880118186,0.9154547246844412,-5.882523057927438,0.0
1666091745989134602,0.8912236476283503,-5.869377155896879,0.0
1666091746042198086,0.8643563232643048,-5.83942326547569,0.0
1666091746116354917,0.8382083116662327,-5.810744385247841,0.0
1666091746195535199,0.8104677870709528,-5.782093995697566,0.0
1666091746311656832,0.7629431615264674,-5.744076200945836,0.0
1666091746402681636,0.7418674642878039,-5.7284819403595435,0.0
1666091746425573299,0.7357882333790137,-5.72799726968562,0.0
1666091746544913415,0.7090758098692613,-5.703699804431931,0.0
1666091746552461028,0.7144989482293813,-5.716806327335648,0.0
1666091746658376328,0.6889761619331894,-5.711341332620138,0.0
1666091746724792126,0.6766592633861138,-5.723836067475146,0.0
1666091746855362712,0.6398297057625322,-5.724823841869441,0.0
1666091746866187886,0.638882509490148,-5.7647551161677075,0.0
1666091746941630593,0.6069131049162826,-5.767036676829341,0.0
1666091747002881902,0.5955286073639496,-5.789427242423887,0.0
1666091747091499887,0.5795232598285253,-5.8086219592294475,0.0
1666091747209598007,0.5612982545819168,-5.834498993752661,0.0
1666091747317870252,0.5397727239012091,-5.854759861601518,0.0
1666091747401585764,0.5217924077595877,-5.879079014731754,0.0
1666091747447196498,0.508613067731591,-5.899098941372877,0.0
1666091747519632438,0.48445794341496184,-5.912419355883482,0.0
1666091747630262540,0.4595600151782693,-5.92815418003946,0.0
1666091747696934324,0.4420961476000793,-5.940747608912278,0.0
1666091747775353468,0.4327105499267293,-5.952110317247499,0.0
1666091747847800972,0.4363364754682094,-5.976700340052375,0.0
1666091747995782015,0.4224081220862953,-5.99062765787285,0.0
1666091747997236999,0.4420752005315879,-6.017793473125681,0.0
1666091748126196957,0.4393398137814518,-6.036690259134055,0.0
1666091748212981275,0.4325479349708201,-6.055298691241484,0.0
1666091748303850538,0.42809284274857007,-6.072367605989066,0.0
1666091748305830751,0.45138258960656386,-6.089835982285076,0.0
1666091748456169121,0.4402731109545124,-6.109520138474991,0.0
1666091748559636295,0.44769274187329,-6.12467142165608,0.0
1666091748561896876,0.4696903187538094,-6.134016543257104,0.0
1666091748672206693,0.4868528638566365,-6.141290332600321,0.0
1666091748760227110,0.5027042759945372,-6.153829412977358,0.0
1666091748798688896,0.5189201669519365,-6.164387136676175,0.0
1666091748927654521,0.5280411319743574,-6.175293936204726,0.0
1666091748929145528,0.5346195043440711,-6.18120486115089,0.0
1666091749015360763,0.5354476581996452,-6.185819334284822,0.0
1666091749123241548,0.5318713280561551,-6.193253647996931,0.0
1666091749199472381,0.5251788852915349,-6.2042840555821535,0.0
1666091749282605433,0.5192677170417305,-6.212915025891706,0.0
1666091749323006594,0.5164448658195332,-6.215734283188544,0.0
1666091749384538238,0.5102595530788803,-6.22268131119143,0.0
1666091749497564886,0.5017765249261616,-6.233407473441241,0.0
1666091749516600785,0.49828895483369373,-6.233568528153861,0.0
1666091749593867849,0.4856332261498595,-6.2431668943907095,0.0
1666091749657977866,0.47437010629752163,-6.256038080864318,0.0
1666091749774150883,0.4626353577200588,-6.283388959263522,0.0
1666091749880212520,0.4483288903727959,-6.31422121008718,0.0
1666091749923571642,0.4424067883713232,-6.333678407006026,0.0
1666091749988938118,0.43989797167360745,-6.353445766472358,0.0
1666091750052458191,0.4398617913148921,-6.369960147948553,0.0
1666091750132235095,0.43507003550273415,-6.387466586620565,0.0
1666091750208452877,0.4394915801466849,-6.404243914013034,0.0
1666091750281198568,0.4514104599507288,-6.4226020703626885,0.0
1666091750397792429,0.4495742680739714,-6.4462256092636885,0.0
1666091750432933340,0.45166957983873623,-6.4623735083845055,0.0
1666091750517268492,0.44825877711712525,-6.48761808910742,0.0
1666091750584174305,0.4468442486289601,-6.509529551294367,0.0
1666091750684451835,0.4416686262460572,-6.533779891262901,0.0
1666091750764321110,0.4377618187932826,-6.561540199763659,0.0
1666091750823412234,0.4378346353922212,-6.58565495151123,0.0
1666091750871109035,0.43658711483296897,-6.6095132885581025,0.0
1666091750961810776,0.42963758128919927,-6.636443025717911,0.0
1666091751009479517,0.42502377135220404,-6.6576707047067885,0.0
1666091751088350681,0.41469483723777845,-6.680647695129054,0.0
1666091751152895013,0.40827076777930504,-6.699369688266991,0.0
1666091751234330071,0.4023056795199079,-6.719178352895685,0.0
1666091751288114275,0.4027680990067921,-6.731633766127565,0.0
1666091751374813760,0.4051056973656857,-6.746178007708006,0.0
1666091751425031056,0.4127284076255875,-6.760504643358097,0.0
1666091751515478086,0.44253609426981066,-6.804062452931232,0.0
1666091751604519641,0.48476824513625816,-6.839686683028117,0.0
1666091751683801761,0.5411858902521622,-6.881959575388639,0.0
1666091751697172106,0.5248457182429741,-6.898421500387147,0.0
1666091751825629307,0.5876832804364448,-6.95172893468339,0.0
1666091751909762412,0.6031531142587615,-6.979075753413121,0.0
1666091752025663495,0.6420628445386837,-7.021445710754642,0.0
1666091752078708914,0.6255830418316989,-7.041017550995624,0.0
1666091752198623994,0.6283580728094806,-7.062226599003246,0.0
1666091752201239302,0.5789078005601677,-7.074948222574088,0.0
1666091752269447150,0.5527111631565007,-7.08968322987294,0.0
1666091752363242432,0.5556389706626245,-7.1362559909828525,0.0
1666091752444705945,0.5465218067280044,-7.172380055205069,0.0
1666091752495113360,0.5063548137672471,-7.169542401736348,0.0
1666091752539740821,0.48013162691299877,-7.167610028048301,0.0
1666091752627754513,0.463837309087634,-7.196997237873005,0.0
1666091752677786429,0.43466383548872856,-7.21980024147232,0.0
1666091752768133480,0.42018710165705153,-7.251891023173889,0.0
1666091752806969943,0.3825447026706458,-7.254581697405046,0.0
1666091752885121228,0.3658216746522217,-7.264032271540354,0.0
1666091752976238149,0.35246832504164793,-7.296897003128184,0.0
1666091752978155144,0.3103813087884414,-7.275909509870754,0.0
1666091753053936122,0.26699742182613584,-7.291724642871426,0.0
1666091753127543514,0.24456426158089528,-7.301761958657011,0.0
1666091753203577858,0.2271372805073043,-7.318079623753353,0.0
1666091753268402888,0.18929291195001996,-7.326528284266959,0.0
1666091753388558015,0.19344928769881353,-7.356001231519698,0.0
1666091753410803603,0.16369013499059581,-7.345368714922593,0.0
1666091753530011774,0.14126150504225665,-7.395887142125767,0.0
1666091753532144511,0.11322485165982676,-7.386581825512769,0.0
1666091753631306393,0.09391186465614332,-7.433107244051296,0.0
1666091753728962513,0.07979494800069165,-7.475942153421495,0.0
1666091753810647562,0.06674816753404844,-7.502022787523817,0.0
1666091753812182659,0.05851174015815197,-7.486584404194962,0.0
1666091753922548334,0.06043454229890788,-7.537786271857563,0.0
1666091753924263335,0.0569485481313563,-7.519931655543565,0.0
1666091754030004384,0.058783666277870905,-7.5588893617771875,0.0
1666091754145221350,0.05759570222456778,-7.594550820735231,0.0
1666091754229671254,0.050516455286426454,-7.602915007245307,0.0
1666091754339226562,0.03169437135375541,-7.621502728097944,0.0
1666091754450025075,0.03644734662478433,-7.624547895907232,0.0
1666091754523639323,0.04845476274398619,-7.619646795081519,0.0
1666091754598593053,0.06529190217157976,-7.617946631014595,0.0
1666091754694922060,0.06667835638446618,-7.597797261913156,0.0
1666091754784606983,0.07773071541026955,-7.571837019068037,0.0
1666091754899501480,0.07025038098491942,-7.531010518977416,0.0
1666091754993936356,0.11504848265554257,-7.521416120136856,0.0
1666091755113811430,0.15487029120977192,-7.509502180234454,0.0
1666091755199676426,0.19715635628913997,-7.495043713978277,0.0
1666091755312184033,0.2657005732400116,-7.508173730359042,0.0
1666091755366667108,0.3352763435918926,-7.544817404679803,0.0
1666091755494002039,0.37984390219905895,-7.601028977117417,0.0
1666091755535660690,0.4410181914929342,-7.649722740034777,0.0
1666091755662294034,0.5070813951203533,-7.676735605374327,0.0
1666091755663540840,0.575645208331117,-7.723673388050452,0.0
1666091755758494384,0.6364532858668925,-7.771710726986786,0.0
1666091755851981439,0.6912905606563002,-7.818659473993258,0.0
1666091755923544427,0.7411637667110214,-7.85655204248939,0.0
1666091756031471597,0.759251706278367,-7.894411043886312,0.0
1666091756081429564,0.7773264387539154,-7.919208539030814,0.0
1666091756149608013,0.7905230040454334,-7.942744990706626,0.0
1666091756294878413,0.8153404188811776,-7.967544323364502,0.0
1666091756296470688,0.8228750583205892,-7.978125561519095,0.0
1666091756396367202,0.8332374567464542,-7.988354344849881,0.0
1666091756469788468,0.840014732452198,-8.003847307518916,0.0
1666091756547960956,0.8462439111680897,-8.023299575694324,0.0
1666091756672597398,0.8495260534101698,-8.044063751225792,0.0
1666091756709756229,0.8491190889789306,-8.05651542490215,0.0
1666091756828988460,0.8549755335894816,-8.081650394935195,0.0
1666091756830356649,0.8506700920871175,-8.090218213938453,0.0
1666091756927391994,0.8535464702706368,-8.114487095789142,0.0
1666091756999334905,0.8589301576861084,-8.129700980762122,0.0
1666091757107975391,0.867111903963355,-8.151149698088961,0.0
1666091757190827602,0.8774629003679344,-8.175525637559398,0.0
1666091757263801310,0.8850145817250967,-8.20511262266786,0.0
1666091757359904936,0.9005750652175237,-8.238071561886715,0.0
1666091757361535403,0.8960422461695163,-8.24311521059735,0.0
1666091757438224916,0.9029359646929989,-8.26920551949724,0.0
1666091757564492459,0.9107370060202702,-8.307341239345568,0.0
1666091757599683173,0.9114433405093874,-8.321490876979448,0.0
1666091757682324687,0.9128286493671152,-8.346850144970652,0.0
1666091757732096768,0.9079561582726566,-8.35820597691782,0.0
1666091757825196982,0.9182021377914924,-8.391332271841383,0.0
1666091757892251046,0.9196837939965106,-8.403947677369576,0.0
1666091757939611009,0.9221874655214337,-8.407512459023796,0.0
1666091758008139644,0.9275692862075471,-8.422731150464964,0.0
1666091758057821072,0.9346201685368449,-8.429090097752733,0.0
1666091758161590995,0.9467601664945174,-8.447201055007447,0.0
1666091758163270670,0.9361670470508736,-8.429027751295507,0.0
1666091758279038109,0.9500639576969638,-8.45427564401945,0.0
1666091758339176060,0.9560433402691005,-8.459102907737085,0.0
1666091758402333178,0.9608849711926486,-8.460742761395913,0.0
1666091758494478684,0.9666862224775805,-8.465026690276321,0.0
1666091758501760456,0.9530905699376799,-8.449250836297836,0.0
1666091758573448316,0.9421350074593964,-8.449292495883025,0.0
1666091758675460025,0.9462053412449437,-8.443885059209197,0.0
1666091758734038998,0.9445962469537982,-8.427056411174872,0.0
1666091758827243873,0.9482485701703247,-8.409505446240804,0.0
1666091758833903417,0.9401413681019979,-8.390787748839234,0.0
1666091758952527002,0.9439179614432391,-8.371789868165427,0.0
1666091759005415342,0.9375270019961379,-8.355946424479546,0.0
1666091759156563061,0.9223213595274354,-8.357221603799353,0.0
1666091759192585927,0.9049148271729954,-8.359784115458812,0.0
1666091759269168685,0.8955795493802783,-8.359741334247982,0.0
1666091759311508891,0.8889626983676641,-8.35743587557755,0.0
1666091759389972939,0.88643923736434,-8.34808472854097,0.0
1666091759465902744,0.8824622077088851,-8.344923438865571,0.0
1666091759477574632,0.8784391130496857,-8.352666476657053,0.0
1666091759551834235,0.8767728797692316,-8.351990938716506,0.0
1666091759660694095,0.8781650544537739,-8.360874244616356,0.0
1666091759724552855,0.8782635243421577,-8.354140836116523,0.0
1666091759777972027,0.8770918720251175,-8.363899226303708,0.0
1666091759839566179,0.8750209583485982,-8.370603862486405,0.0
1666091759971914341,0.8732338835629304,-8.376666974527744,0.0
1666091760043877955,0.873575734623572,-8.374600961917105,0.0
1666091760146284675,0.8751508010271102,-8.372751311663759,0.0
1666091760209902330,0.8773893225202659,-8.369345780553868,0.0
1666091760274068468,0.877565716824563,-8.379658747831817,0.0
1666091760362810931,0.8797443870713186,-8.387669360093556,0.0
1666091760393682299,0.8827044853963237,-8.386512809273874,0.0
1666091760501457293,0.883965999725505,-8.393183469907372,0.0
1666091760554436780,0.8877307466361918,-8.394717557843673,0.0
1666091760628645317,0.8910487641619751,-8.394681586051794,0.0
1666091760683966830,0.8915514951737759,-8.400186370919975,0.0
1666091760795033089,0.8925100478246832,-8.396455793792661,0.0
1666091760796487182,0.8964693245994406,-8.393790209859883,0.0
1666091760884648765,0.8999906637930164,-8.391629968505015,0.0
1666091760979277953,0.9013645022632963,-8.395486857439941,0.0
1666091761037831563,0.9047926866318998,-8.393296881674036,0.0
1666091761157771247,0.9075692993008033,-8.392450935335907,0.0
1666091761210623066,0.9105690192353406,-8.389553103265719,0.0
1666091761277514191,0.9147403507922778,-8.393978241039395,0.0
1666091761378714276,0.9168592763022007,-8.390541413499193,0.0
1666091761478354378,0.9181470476748794,-8.386680199224417,0.0
1666091761494181238,0.911125669408259,-8.39196793551793,0.0
1666091761566836558,0.9055647742662676,-8.395978102438443,0.0
1666091761668219351,0.9081161895286763,-8.39286024137754,0.0
1666091761731057131,0.9106225598454072,-8.39045067834576,0.0
1666091761837181184,0.912667104931855,-8.388115039920704,0.0
1666091761896194439,0.9049240971575319,-8.396822264690863,0.0
1666091761966602875,0.9021101789179837,-8.40496678488928,0.0
1666091762064971943,0.9043318094454704,-8.403893526373082,0.0
1666091762193337279,0.9064593667844882,-8.40020672936016,0.0
1666091762264170793,0.9084567338710612,-8.394873625603804,0.0
1666091762265529723,0.910381163051095,-8.394283892334442,0.0
1666091762371502360,0.9120368207647859,-8.39278587569436,0.0
1666091762373264241,0.9135557337298035,-8.388545877326484,0.0
1666091762515102796,0.916140210725933,-8.391622483507021,0.0
1666091762543552125,0.909031066390513,-8.396886437992048,0.0
1666091762610727609,0.9033329401924142,-8.397921266195267,0.0
1666091762684210129,0.9000578572607802,-8.404453078407466,0.0
1666091762781662664,0.902205769870982,-8.403713012254823,0.0
1666091762879253098,0.9049532776289835,-8.40130066517475,0.0
1666091762963426490,0.9073179540721523,-8.399888533187813,0.0
1666091763035163246,0.9099672995794943,-8.394854402150973,0.0
1666091763120513543,0.9123482051885035,-8.394648259516135,0.0
1666091763188584326,0.9147174145155581,-8.392270012875198,0.0
1666091763308171720,0.9162502705942318,-8.387668456885343,0.0
1666091763344351842,0.9151531330261378,-8.387872857834065,0.0
1666091763403966639,0.917079280187098,-8.387105855598335,0.0
1666091763491018547,0.9160694641111892,-8.381951685571622,0.0
1666091763634258802,0.9171510244596169,-8.375904410546594,0.0
1666091763635569192,0.9205828330923037,-8.380583819658494,0.0
1666091763715375566,0.9217670556667573,-8.375453266158129,0.0
1666091763807934013,0.9231233923947169,-8.377040971481325,0.0
1666091763869635046,0.9242046974626231,-8.377457343821412,0.0
1666091763939674743,0.9248536875290928,-8.376942676696926,0.0
1666091764069137059,0.9264139229455537,-8.380129455855158,0.0
1666091764165733387,0.9265390868479222,-8.378041496321512,0.0
1666091764167377176,0.9265621866145062,-8.374998411950918,0.0
1666091764229436844,0.9265682847181519,-8.37394583499939,0.0
1666091764301355390,0.9275038108566532,-8.377121824094415,0.0
1666091764438577471,0.9274801661263049,-8.37812815007474,0.0
1666091764475199808,0.927022358865983,-8.377196954179468,0.0
1666091764571690793,0.9265127543743132,-8.373271384467587,0.0
1666091764573212571,0.9257805852408509,-8.372804957160644,0.0
1666091764682436831,0.9133140211446186,-8.380735834392327,0.0
1666091764784612124,0.9052665691062408,-8.389901254825444,0.0
1666091764786049664,0.899751051300387,-8.400565605766124,0.0
1666091764854544283,0.8987906801841521,-8.40478493098565,0.0
1666091764954544250,0.8949643422641209,-8.413288982128645,0.0
1666091765049567975,0.8955168732070447,-8.416822674144747,0.0
1666091765061219443,0.8962701775924585,-8.41760497626628,0.0
1666091765140332146,0.8924750189631694,-8.41988999625339,0.0
1666091765244934915,0.8934934596522748,-8.42378189445593,0.0
1666091765359960731,0.8959231286255755,-8.426541143484426,0.0
1666091765376208253,0.8973226050263965,-8.430452928722316,0.0
1666091765451234925,0.8994108078669754,-8.434162849279435,0.0
1666091765530203485,0.9017530389054081,-8.435930079853932,0.0
1666091765651490703,0.9045694126810025,-8.434485559998617,0.0
1666091765711301531,0.9057547737979045,-8.431008264971311,0.0
1666091765811542821,0.9072936072796698,-8.426144856287257,0.0
1666091765899677949,0.9082475615890676,-8.420975268397706,0.0
1666091765946551152,0.9098810581998206,-8.420255672359405,0.0
1666091766033852055,0.9106941490182028,-8.417521677594456,0.0
1666091766069543998,0.9112909381992911,-8.413411459033899,0.0
1666091766146544911,0.9135834908913967,-8.413740347719965,0.0
1666091766214155859,0.9145830029976174,-8.410645907822184,0.0
1666091766265167252,0.9167749075836252,-8.407889900700464,0.0
1666091766315070891,0.9207752233262984,-8.40626320822348,0.0
1666091766375407148,0.9261576817546905,-8.405420151185997,0.0
1666091766441588782,0.9301167146814857,-8.406203142995485,0.0
1666091766505316793,0.9321001291593011,-8.40748328610486,0.0
1666091766575280919,0.9339835739307729,-8.402738851442338,0.0
1666091766702046417,0.9354260397895382,-8.399560091635436,0.0
1666091766757556485,0.9377298368620861,-8.402713733201168,0.0
1666091766832714409,0.9385590739619786,-8.406166172118091,0.0
1666091766882516966,0.9349633688760827,-8.405536861375461,0.0
1666091766968870910,0.9328596502955089,-8.406915903605338,0.0
1666091767012533774,0.930469399360343,-8.404177670952867,0.0
1666091767117847991,0.9278119166914311,-8.399936947218666,0.0
1666091767147463171,0.9267971766376877,-8.397734937854281,0.0
1666091767213439519,0.9236196902146695,-8.394266258541384,0.0
