%time,field.linear.x,field.linear.y,field.linear.z,field.angular.x,field.angular.y,field.angular.z
1666090912937560155,0.015,0.0,0.0,0.0,0.0,-0.045484249778770545
1666090912987474219,0.03,0.0,0.0,0.0,0.0,-0.09096849955754108
1666090913037561135,0.045,0.0,0.0,0.0,0.0,-0.16185538095383728
1666090913087683176,0.06,0.0,0.0,0.0,0.0,-0.23274226235013346
1666090913137587647,0.075,0.0,0.0,0.0,0.0,-0.27473456813683494
1666090913187457237,0.09,0.0,0.0,0.0,0.0,-0.31672687392353643
1666090913237782235,0.105,0.0,0.0,0.0,0.0,-0.38855064863356636
1666090913287577322,0.12,0.0,0.0,0.0,0.0,-0.436679035387147
1666090913338072014,0.135,0.0,0.0,0.0,0.0,-0.48614231194623886
1666090913387446563,0.15000000000000002,0.0,0.0,0.0,0.0,-0.5356055885053308
1666090913437527020,0.16500000000000004,0.0,0.0,0.0,0.0,-0.5850688650644227
1666090913488329726,0.18000000000000005,0.0,0.0,0.0,0.0,-0.6243530858109052
1666090913537472216,0.19500000000000006,0.0,0.0,0.0,0.0,-0.6636373065573877
1666090913588290100,0.21000000000000008,0.0,0.0,0.0,0.0,-0.7030352019435745
1666090913638095807,0.2250000000000001,0.0,0.0,0.0,0.0,-0.7424330973297613
1666090913687453648,0.2400000000000001,0.0,0.0,0.0,0.0,-0.7828754242375502
1666090913737796398,0.2550000000000001,0.0,0.0,0.0,0.0,-0.8233177511453391
1666090913787543926,0.27000000000000013,0.0,0.0,0.0,0.0,-0.863760078053128
1666090913837721266,0.28500000000000014,0.0,0.0,0.0,0.0,-0.9042075981698827
1666090913887579750,0.30000000000000016,0.0,0.0,0.0,0.0,-0.9446551182866375
1666090913937609058,0.31500000000000017,0.0,0.0,0.0,0.0,-0.9851026384033923
1666090913987774137,0.3300000000000002,0.0,0.0,0.0,0.0,-1.0249593046552012
1666090914038665135,0.3450000000000002,0.0,0.0,0.0,0.0,-1.063518057452639
1666090914087763415,0.3600000000000002,0.0,0.0,0.0,0.0,-1.1020768102500769
1666090914137985242,0.3750000000000002,0.0,0.0,0.0,0.0,-1.1406355630475147
1666090914187625426,0.39000000000000024,0.0,0.0,0.0,0.0,-1.1778533448406365
1666090914237576773,0.40500000000000025,0.0,0.0,0.0,0.0,-1.0660226320742794
1666090914287605842,0.4075250327587127,0.0,0.0,0.0,0.0,-1.0471975511965983
1666090914337777586,0.40210676193237305,0.0,0.0,0.0,0.0,-1.0471975511965983
1666090914387566135,0.40210676193237305,0.0,0.0,0.0,0.0,-1.0471975511965983
1666090914437827261,0.3961540162563324,0.0,0.0,0.0,0.0,-1.0471975511965983
1666090914487503841,0.3961540162563324,0.0,0.0,0.0,0.0,-1.0471975511965983
1666090914537714124,0.3791272044181823,0.0,0.0,0.0,0.0,-0.2037764936685562
1666090914587531396,0.3791272044181823,0.0,0.0,0.0,0.0,-0.2037764936685562
1666090914637611858,0.3791272044181823,0.0,0.0,0.0,0.0,-0.2037764936685562
1666090914687548091,0.29043375950662664,0.0,0.0,0.0,0.0,-0.3037764936685562
1666090914737876327,0.18548600629428458,0.0,0.0,0.0,0.0,-0.40377649366855617
1666090914787639350,0.08167109799815894,0.0,0.0,0.0,0.0,-0.5037764936685561
1666090914839803179,0.0,0.0,0.0,0.0,0.0,-0.5329527629700832
1666090914887473124,0.0,0.0,0.0,0.0,0.0,-0.5329527629700832
1666090914939527732,0.0,0.0,0.0,0.0,0.0,-0.5329527629700832
1666090914987453084,0.0,0.0,0.0,0.0,0.0,-0.42541844200338247
1666090915037728403,0.0,0.0,0.0,0.0,0.0,-0.42541844200338247
1666090915087488560,0.0,0.0,0.0,0.0,0.0,-0.42541844200338247
1666090915137800255,0.0,0.0,0.0,0.0,0.0,-0.41204593078232343
1666090915187598604,0.0,0.0,0.0,0.0,0.0,-0.41204593078232343
1666090915237703998,0.0,0.0,0.0,0.0,0.0,-0.3855930457385986
1666090915287973622,0.0,0.0,0.0,0.0,0.0,-0.35492667260395955
1666090915337748467,0.0,0.0,0.0,0.0,0.0,-0.35492667260395955
1666090915388262242,0.0,0.0,0.0,0.0,0.0,-0.32593476137907307
1666090915437609527,0.0,0.0,0.0,0.0,0.0,-0.32593476137907307
1666090915487607033,0.0,0.0,0.0,0.0,0.0,-0.32593476137907307
1666090915537876219,0.0,0.0,0.0,0.0,0.0,-0.2996584356601179
1666090915589098110,0.0,0.0,0.0,0.0,0.0,-0.26733259070413173
1666090915637640743,0.0,0.0,0.0,0.0,0.0,-0.26733259070413173
1666090915687700144,0.0,0.0,0.0,0.0,0.0,-0.24330534306306617
1666090915737668875,0.0,0.0,0.0,0.0,0.0,-0.24330534306306617
1666090915787567854,0.0,0.0,0.0,0.0,0.0,-0.24330534306306617
1666090915837688865,0.0,0.0,0.0,0.0,0.0,-0.22506822334767315
1666090915887710658,0.0,0.0,0.0,0.0,0.0,-0.17453292519943345
1666090915937695469,0.0,0.0,0.0,0.0,0.0,-0.17453292519943345
1666090915987570851,0.0,0.0,0.0,0.0,0.0,-0.17453292519943345
1666090916037682271,0.0,0.0,0.0,0.0,0.0,-0.17453292519943345
1666090916087702102,0.0,0.0,0.0,0.0,0.0,-0.17453292519943345
1666090916137468158,0.0,0.0,0.0,0.0,0.0,-0.17453292519943345
1666090916187533927,0.0,0.0,0.0,0.0,0.0,-0.17453292519943345
1666090916237798945,0.0,0.0,0.0,0.0,0.0,-0.17453292519943345
1666090916288076267,0.0,0.0,0.0,0.0,0.0,-0.17453292519943345
1666090916337560431,0.0,0.0,0.0,0.0,0.0,-0.17453292519943345
1666090916387535828,0.0,0.0,0.0,0.0,0.0,-0.2254241283651607
1666090916437622123,0.0,0.0,0.0,0.0,0.0,-0.2410558107292274
1666090916487449805,0.0,0.0,0.0,0.0,0.0,-0.2410558107292274
1666090916537584456,0.0,0.0,0.0,0.0,0.0,-0.25614902550944063
1666090916587555348,0.0,0.0,0.0,0.0,0.0,-0.25614902550944063
1666090916637793038,0.0,0.0,0.0,0.0,0.0,-0.2756259522039707
1666090916687531292,0.0,0.0,0.0,0.0,0.0,-0.29583066357112797
1666090916737503140,0.0,0.0,0.0,0.0,0.0,-0.29583066357112797
1666090916787687907,0.0,0.0,0.0,0.0,0.0,-0.3160831775943548
1666090916837809409,0.0,0.0,0.0,0.0,0.0,-0.3160831775943548
1666090916887833735,0.0,0.0,0.0,0.0,0.0,-0.3382504894649677
1666090916937650078,0.0,0.0,0.0,0.0,0.0,-0.3382504894649677
1666090916987494106,0.0,0.0,0.0,0.0,0.0,-0.37697703878596833
1666090917038445839,0.0,0.0,0.0,0.0,0.0,-0.41067655638290335
1666090917091407189,0.0,0.0,0.0,0.0,0.0,-0.41067655638290335
1666090917137686812,0.0,0.0,0.0,0.0,0.0,-0.4566185199968545
1666090917188941788,0.0,0.0,0.0,0.0,0.0,-0.5235987755982994
1666090917237569776,0.0,0.0,0.0,0.0,0.0,-0.5235987755982994
1666090917287753434,0.0,0.0,0.0,0.0,0.0,-0.5551573209267269
1666090917337627527,0.0,0.0,0.0,0.0,0.0,-0.5551573209267269
1666090917387741003,0.0,0.0,0.0,0.0,0.0,-0.602741634468917
1666090917437570412,0.0,0.0,0.0,0.0,0.0,-0.6128436535355649
1666090917487580685,0.0,0.0,0.0,0.0,0.0,-0.6128436535355649
1666090917540915284,0.0,0.0,0.0,0.0,0.0,-0.6278750289378677
1666090917587561330,0.0,0.0,0.0,0.0,0.0,-0.6278750289378677
1666090917637680287,0.0,0.0,0.0,0.0,0.0,-0.6401579023561358
1666090917687580477,0.0,0.0,0.0,0.0,0.0,-0.6401579023561358
1666090917738132039,0.0,0.0,0.0,0.0,0.0,-0.6401256124187293
1666090917788159553,0.015,0.0,0.0,0.0,0.0,-0.6112519071267704
1666090917840566953,0.03,0.0,0.0,0.0,0.0,-0.5953848016020269
1666090917887630088,0.045,0.0,0.0,0.0,0.0,-0.5795176960772833
1666090917937569023,0.06,0.0,0.0,0.0,0.0,-0.5658349797708537
1666090917987628287,0.075,0.0,0.0,0.0,0.0,-0.5521522634644241
1666090918037859642,0.09,0.0,0.0,0.0,0.0,-0.5393774107404142
1666090918087498154,0.105,0.0,0.0,0.0,0.0,-0.5266025580164043
1666090918137587930,0.12,0.0,0.0,0.0,0.0,-0.5155393592657357
1666090918188116224,0.135,0.0,0.0,0.0,0.0,-0.50502734486011
1666090918237677122,0.15000000000000002,0.0,0.0,0.0,0.0,-0.49451533045448437
1666090918287914036,0.16500000000000004,0.0,0.0,0.0,0.0,-0.48439920486619875
1666090918337663638,0.18000000000000005,0.0,0.0,0.0,0.0,-0.47428307927791313
1666090918388579602,0.19500000000000006,0.0,0.0,0.0,0.0,-0.46416695368962746
1666090918437794918,0.21000000000000008,0.0,0.0,0.0,0.0,-0.4541839912842624
1666090918487558325,0.2250000000000001,0.0,0.0,0.0,0.0,-0.4445934028165576
1666090918537595017,0.2400000000000001,0.0,0.0,0.0,0.0,-0.43500281434885285
1666090918588121925,0.2550000000000001,0.0,0.0,0.0,0.0,-0.4189669366807058
1666090918637749963,0.27000000000000013,0.0,0.0,0.0,0.0,-0.4029310590125587
1666090918687820526,0.28500000000000014,0.0,0.0,0.0,0.0,-0.3949037026632557
1666090918737815937,0.30000000000000016,0.0,0.0,0.0,0.0,-0.38686323047685156
1666090918787722306,0.31500000000000017,0.0,0.0,0.0,0.0,-0.3788227582904474
1666090918837521993,0.3300000000000002,0.0,0.0,0.0,0.0,-0.3717365895203378
1666090918887581720,0.3450000000000002,0.0,0.0,0.0,0.0,-0.3646078932469797
1666090918937602974,0.3600000000000002,0.0,0.0,0.0,0.0,-0.3639079719286247
1666090918988465122,0.3750000000000002,0.0,0.0,0.0,0.0,-0.3632588503945358
1666090919037842189,0.39000000000000024,0.0,0.0,0.0,0.0,-0.36260972886044696
1666090919087718778,0.40500000000000025,0.0,0.0,0.0,0.0,-0.36937182530654006
1666090919137813218,0.42000000000000026,0.0,0.0,0.0,0.0,-0.37613392175263316
1666090919187960588,0.4350000000000003,0.0,0.0,0.0,0.0,-0.38239506645582727
1666090919237566678,0.4500000000000003,0.0,0.0,0.0,0.0,-0.3886562111590214
1666090919287670771,0.4650000000000003,0.0,0.0,0.0,0.0,-0.39465066944840466
1666090919338609452,0.4800000000000003,0.0,0.0,0.0,0.0,-0.40042446524616115
1666090919387618020,0.49500000000000033,0.0,0.0,0.0,0.0,-0.40619826104391765
1666090919438126841,0.5100000000000003,0.0,0.0,0.0,0.0,-0.41245482976779896
1666090919487938640,0.5250000000000004,0.0,0.0,0.0,0.0,-0.4185520128352689
1666090919537650991,0.5400000000000004,0.0,0.0,0.0,0.0,-0.4246491959027388
1666090919587875353,0.5550000000000004,0.0,0.0,0.0,0.0,-0.43074637897020873
1666090919637612917,0.5700000000000004,0.0,0.0,0.0,0.0,-0.43643121958009184
1666090919688084524,0.5850000000000004,0.0,0.0,0.0,0.0,-0.43073347811175106
1666090919737776206,0.6000000000000004,0.0,0.0,0.0,0.0,-0.42503573664341027
1666090919787729349,0.6150000000000004,0.0,0.0,0.0,0.0,-0.43242796456502697
1666090919839387090,0.6300000000000004,0.0,0.0,0.0,0.0,-0.43982019248664367
1666090919887584813,0.6450000000000005,0.0,0.0,0.0,0.0,-0.43181245642007504
1666090919937667642,0.6600000000000005,0.0,0.0,0.0,0.0,-0.4238047203535064
1666090919987507990,0.6750000000000005,0.0,0.0,0.0,0.0,-0.4157969842869378
1666090920038521653,0.6900000000000005,0.0,0.0,0.0,0.0,-0.40778924822036916
1666090920088303892,0.7050000000000005,0.0,0.0,0.0,0.0,-0.39978151215380053
1666090920137786084,0.7200000000000005,0.0,0.0,0.0,0.0,-0.39177377608723196
1666090920187586745,0.7350000000000005,0.0,0.0,0.0,0.0,-0.38376604002066333
1666090920237632574,0.7500000000000006,0.0,0.0,0.0,0.0,-0.41603513284627197
1666090920287547773,0.7650000000000006,0.0,0.0,0.0,0.0,-0.44935383160120534
1666090920337851597,0.7800000000000006,0.0,0.0,0.0,0.0,-0.48117309331424624
1666090920387602440,0.7879207730293274,0.0,0.0,0.0,0.0,-0.5235987755982994
1666090920444378597,0.7879207730293274,0.0,0.0,0.0,0.0,-0.5235987755982994
1666090920487655223,0.7999999999999999,0.0,0.0,0.0,0.0,-0.5235987755982994
1666090920537522320,0.7999999999999999,0.0,0.0,0.0,0.0,-0.5235987755982994
1666090920587524213,0.7747515439987183,0.0,0.0,0.0,0.0,-0.5235987755982994
1666090920637607979,0.7897515439987183,0.0,0.0,0.0,0.0,-0.5235987755982994
1666090920687744902,0.7999999999999999,0.0,0.0,0.0,0.0,-0.5235987755982994
1666090920738007187,0.7999999999999999,0.0,0.0,0.0,0.0,-0.5235987755982994
1666090920787556576,0.7592254281044006,0.0,0.0,0.0,0.0,-0.5235987755982994
1666090920837702490,0.7742254281044006,0.0,0.0,0.0,0.0,-0.5235987755982994
1666090920887548667,0.7892254281044007,0.0,0.0,0.0,0.0,-0.5235987755982994
1666090920937902898,0.7337671518325806,0.0,0.0,0.0,0.0,-0.5235987755982994
1666090920987940024,0.7487671518325806,0.0,0.0,0.0,0.0,-0.5235987755982994
1666090921038026541,0.7637671518325806,0.0,0.0,0.0,0.0,-0.5235987755982994
1666090921087574913,0.7492992281913757,0.0,0.0,0.0,0.0,-0.5235987755982994
1666090921137589239,0.7492992281913757,0.0,0.0,0.0,0.0,-0.5235987755982994
1666090921187553475,0.6685960888862609,0.0,0.0,0.0,0.0,-0.5235987755982994
1666090921237811242,0.64581298828125,0.0,0.0,0.0,0.0,-0.5235987755982994
1666090921287480226,0.64581298828125,0.0,0.0,0.0,0.0,-0.5235987755982994
1666090921338318292,0.66081298828125,0.0,0.0,0.0,0.0,-0.5968031902278679
1666090921387687906,0.67581298828125,0.0,0.0,0.0,0.0,-0.6700076048574364
1666090921438984938,0.6815757751464843,0.0,0.0,0.0,0.0,-0.6981317007977323
1666090921487544498,0.6615462899208069,0.0,0.0,0.0,0.0,-0.6981317007977323
1666090921537847635,0.6494851708412169,0.0,0.0,0.0,0.0,-0.6981317007977323
1666090921588778610,0.6494851708412169,0.0,0.0,0.0,0.0,-0.6981317007977323
1666090921637611511,0.5906364321708679,0.0,0.0,0.0,0.0,-0.6981317007977323
1666090921688577269,0.5906364321708679,0.0,0.0,0.0,0.0,-0.6981317007977323
1666090921738219464,0.4406364321708679,0.0,0.0,0.0,0.0,-0.6447725593575435
1666090921787500832,0.2906364321708679,0.0,0.0,0.0,0.0,-0.5914134179173547
1666090921837823775,0.14063643217086785,0.0,0.0,0.0,0.0,-0.5380542764771659
1666090921887768331,0.1,0.0,0.0,0.0,0.0,-0.5235987755982994
1666090921937617710,0.1,0.0,0.0,0.0,0.0,-0.5235987755982994
1666090921987739897,0.1,0.0,0.0,0.0,0.0,-0.5235987755982994
1666090922037857583,0.1,0.0,0.0,0.0,0.0,-0.3490658503988664
1666090922087915956,0.1,0.0,0.0,0.0,0.0,-0.3490658503988664
1666090922137722253,0.1,0.0,0.0,0.0,0.0,-0.3490658503988664
1666090922187585494,0.1,0.0,0.0,0.0,0.0,-0.3490658503988664
1666090922237585851,0.1,0.0,0.0,0.0,0.0,-0.3490658503988664
1666090922287666338,0.1,0.0,0.0,0.0,0.0,-0.3490658503988664
1666090922337798820,0.1,0.0,0.0,0.0,0.0,-0.17453292519943345
1666090922387547924,0.1,0.0,0.0,0.0,0.0,-0.17453292519943345
1666090922439233801,0.1,0.0,0.0,0.0,0.0,-0.17453292519943345
1666090922488050019,0.1,0.0,0.0,0.0,0.0,-0.17453292519943345
1666090922537863301,0.1,0.0,0.0,0.0,0.0,-0.17453292519943345
1666090922587547521,0.1,0.0,0.0,0.0,0.0,-0.17453292519943345
1666090922637688294,0.1,0.0,0.0,0.0,0.0,-0.17453292519943345
1666090922687653960,0.1,0.0,0.0,0.0,0.0,-0.17453292519943345
1666090922737871270,0.1,0.0,0.0,0.0,0.0,-0.27453292519943345
1666090922787603382,0.1,0.0,0.0,0.0,0.0,-0.3745329251994335
1666090922840128987,0.1,0.0,0.0,0.0,0.0,-0.47453292519943346
1666090922888134989,0.1,0.0,0.0,0.0,0.0,-0.5745329251994334
1666090922937548894,0.1,0.0,0.0,0.0,0.0,-0.6745329251994334
1666090922988264999,0.1,0.0,0.0,0.0,0.0,-0.7745329251994334
1666090923037726709,0.1,0.0,0.0,0.0,0.0,-0.8745329251994334
1666090923087984012,0.1,0.0,0.0,0.0,0.0,-0.8726646259971653
1666090923137610093,0.1,0.0,0.0,0.0,0.0,-0.8726646259971653
1666090923187526902,0.1,0.0,0.0,0.0,0.0,-0.8726646259971653
1666090923237671515,0.1,0.0,0.0,0.0,0.0,-0.8726646259971653
1666090923287495500,0.1,0.0,0.0,0.0,0.0,-0.8726646259971653
1666090923337723482,0.1,0.0,0.0,0.0,0.0,-0.8726646259971653
1666090923387884803,0.1,0.0,0.0,0.0,0.0,-0.7726646259971653
1666090923437437428,0.1,0.0,0.0,0.0,0.0,-0.6726646259971654
1666090923487594716,0.115,0.0,0.0,0.0,0.0,-0.6694703577743325
1666090923537516357,0.13,0.0,0.0,0.0,0.0,-0.6662760895514996
1666090923588477609,0.14500000000000002,0.0,0.0,0.0,0.0,-0.6470321511267512
1666090923637598155,0.16000000000000003,0.0,0.0,0.0,0.0,-0.6277882127020027
1666090923687701428,0.17500000000000004,0.0,0.0,0.0,0.0,-0.6094583553934612
1666090923738139472,0.19000000000000006,0.0,0.0,0.0,0.0,-0.5911284980849196
1666090923787502472,0.20500000000000007,0.0,0.0,0.0,0.0,-0.5706111780390523
1666090923837590643,0.22000000000000008,0.0,0.0,0.0,0.0,-0.5500938579931849
1666090923887625714,0.2350000000000001,0.0,0.0,0.0,0.0,-0.5295765379473175
1666090923937763326,0.2500000000000001,0.0,0.0,0.0,0.0,-0.5062497488761799
1666090923988131861,0.2650000000000001,0.0,0.0,0.0,0.0,-0.4829229598050423
1666090924037551212,0.28000000000000014,0.0,0.0,0.0,0.0,-0.45996096147158727
1666090924087699315,0.29500000000000015,0.0,0.0,0.0,0.0,-0.43578646453517345
1666090924137446863,0.31000000000000016,0.0,0.0,0.0,0.0,-0.4116119675987596
1666090924187512227,0.3250000000000002,0.0,0.0,0.0,0.0,-0.38635052735464437
1666090924237678380,0.3400000000000002,0.0,0.0,0.0,0.0,-0.3568054521281028
1666090924287944442,0.3550000000000002,0.0,0.0,0.0,0.0,-0.3271958516269551
1666090924337455825,0.3700000000000002,0.0,0.0,0.0,0.0,-0.2975862511258074
1666090924387765828,0.38500000000000023,0.0,0.0,0.0,0.0,-0.264009514099373
1666090924438138357,0.40000000000000024,0.0,0.0,0.0,0.0,-0.21908532596046054
1666090924487600884,0.41500000000000026,0.0,0.0,0.0,0.0,-0.18049022819076604
1666090924537490503,0.43000000000000027,0.0,0.0,0.0,0.0,-0.14189513042107155
1666090924587438516,0.44386045907426225,0.0,0.0,0.0,0.0,-0.04189513042107154
1666090924637695626,0.4577209181485242,0.0,0.0,0.0,0.0,0.058104869578928464
1666090924689583745,0.46461134891290184,0.0,0.0,0.0,0.0,0.15810486957892847
1666090924738116774,0.47150177967727946,0.0,0.0,0.0,0.0,0.2581048695789285
1666090924787482946,0.4751735159741066,0.0,0.0,0.0,0.0,0.3581048695789285
1666090924837427705,0.4788452522709338,0.0,0.0,0.0,0.0,0.4581048695789285
1666090924887613741,0.4795261591267908,0.0,0.0,0.0,0.0,0.5581048695789285
1666090924937646205,0.47743471541405247,0.0,0.0,0.0,0.0,0.6581048695789284
1666090924987567224,0.47534327170131413,0.0,0.0,0.0,0.0,0.7581048695789284
1666090925037665842,0.4706369380287364,0.0,0.0,0.0,0.0,0.8581048695789284
1666090925087781237,0.4659306043561587,0.0,0.0,0.0,0.0,0.9581048695789284
1666090925137473909,0.4545796602850685,0.0,0.0,0.0,0.0,1.0581048695789284
1666090925188097648,0.44321837770760547,0.0,0.0,0.0,0.0,1.1581048695789284
1666090925237488124,0.44403554804114903,0.0,0.0,0.0,0.0,1.2581048695789285
1666090925288818692,0.4449985968676983,0.0,0.0,0.0,0.0,1.3581048695789286
1666090925337949624,0.4142227547586125,0.0,0.0,0.0,0.0,1.4581048695789287
1666090925387516735,0.38344691264952663,0.0,0.0,0.0,0.0,1.5581048695789288
1666090925437986869,0.3526710705404408,0.0,0.0,0.0,0.0,1.6581048695789289
1666090925487793898,0.3676710705404408,0.0,0.0,0.0,0.0,1.6824533507073194
1666090925537871077,0.3826710705404408,0.0,0.0,0.0,0.0,1.7068018318357099
1666090925587672738,0.3928596079349518,0.0,0.0,0.0,0.0,1.745329251994329
1666090925638917483,0.38780784606933594,0.0,0.0,0.0,0.0,1.745329251994329
1666090925687753007,0.38780784606933594,0.0,0.0,0.0,0.0,1.745329251994329
1666090925737451645,0.3091162443161011,0.0,0.0,0.0,0.0,1.745329251994329
1666090925787700092,0.3088319003582001,0.0,0.0,0.0,0.0,1.745329251994329
1666090925838433952,0.3238319003582001,0.0,0.0,0.0,0.0,1.745329251994329
1666090925888389451,0.3388319003582001,0.0,0.0,0.0,0.0,1.745329251994329
1666090925937630586,0.3538319003582001,0.0,0.0,0.0,0.0,1.745329251994329
1666090925988599892,0.3688319003582001,0.0,0.0,0.0,0.0,1.745329251994329
1666090926037609323,0.38383190035820014,0.0,0.0,0.0,0.0,1.745329251994329
1666090926087873261,0.39883190035820015,0.0,0.0,0.0,0.0,1.723449128027518
1666090926137587950,0.41383190035820017,0.0,0.0,0.0,0.0,1.710434357968009
1666090926187735584,0.4288319003582002,0.0,0.0,0.0,0.0,1.698358328938383
1666090926237794602,0.4438319003582002,0.0,0.0,0.0,0.0,1.686282299908757
1666090926287543467,0.4588319003582002,0.0,0.0,0.0,0.0,1.6792260068003937
1666090926338073214,0.4738319003582002,0.0,0.0,0.0,0.0,1.6721697136920304
1666090926388159544,0.48883190035820023,0.0,0.0,0.0,0.0,1.6655196181273257
1666090926437924685,0.5038319003582002,0.0,0.0,0.0,0.0,1.6588695225626209
1666090926488708702,0.5188319003582003,0.0,0.0,0.0,0.0,1.648167896354053
1666090926538919170,0.5338319003582003,0.0,0.0,0.0,0.0,1.6175304655381786
1666090926587639080,0.5488319003582003,0.0,0.0,0.0,0.0,1.5868930347223043
1666090926637836986,0.5638319003582003,0.0,0.0,0.0,0.0,1.531926548617777
1666090926687677853,0.5788319003582003,0.0,0.0,0.0,0.0,1.4786145755626334
1666090926738441146,0.5938319003582003,0.0,0.0,0.0,0.0,1.4230525700246652
1666090926788189431,0.6088319003582003,0.0,0.0,0.0,0.0,1.367490564486697
1666090926837900600,0.6238319003582004,0.0,0.0,0.0,0.0,1.3012746170715972
1666090926887732375,0.6388319003582004,0.0,0.0,0.0,0.0,1.2350586696564974
1666090926938333300,0.6538319003582004,0.0,0.0,0.0,0.0,1.1847967770277605
1666090926987533957,0.6688319003582004,0.0,0.0,0.0,0.0,1.124502028547634
1666090927037745490,0.6838319003582004,0.0,0.0,0.0,0.0,1.0642072800675073
1666090927088238407,0.6988319003582004,0.0,0.0,0.0,0.0,1.002135507298796
1666090927137515606,0.7138319003582004,0.0,0.0,0.0,0.0,0.9400637345300848
1666090927188117462,0.7288319003582004,0.0,0.0,0.0,0.0,0.8758063557351965
1666090927238061822,0.7438319003582005,0.0,0.0,0.0,0.0,0.8115489769403081
1666090927289047103,0.7588319003582005,0.0,0.0,0.0,0.0,0.7394917263915342
1666090927337626163,0.7738319003582005,0.0,0.0,0.0,0.0,0.6629939130458542
1666090927387591187,0.7888319003582005,0.0,0.0,0.0,0.0,0.5864960997001742
1666090927438744005,0.7999999999999999,0.0,0.0,0.0,0.0,0.516776978969574
1666090927487908033,0.7999999999999999,0.0,0.0,0.0,0.0,0.516776978969574
1666090927537774759,0.7999999999999999,0.0,0.0,0.0,0.0,0.5048903822898865
1666090927587561965,0.7999999999999999,0.0,0.0,0.0,0.0,0.5424322485923767
1666090927637658328,0.7999999999999999,0.0,0.0,0.0,0.0,0.53154057264328
1666090927687806197,0.7999999999999999,0.0,0.0,0.0,0.0,0.53154057264328
1666090927738413181,0.7999999999999999,0.0,0.0,0.0,0.0,0.4716208577156067
1666090927787573093,0.7999999999999999,0.0,0.0,0.0,0.0,0.4716208577156067
1666090927839153918,0.7999999999999999,0.0,0.0,0.0,0.0,0.4716208577156067
1666090927887533410,0.7999999999999999,0.0,0.0,0.0,0.0,0.4607096314430237
1666090927937739035,0.7999999999999999,0.0,0.0,0.0,0.0,0.5607096314430237
1666090927987832694,0.7999999999999999,0.0,0.0,0.0,0.0,0.6607096314430236
1666090928037924017,0.7999999999999999,0.0,0.0,0.0,0.0,0.6981317007977313
1666090928087520640,0.7999999999999999,0.0,0.0,0.0,0.0,0.6981317007977313
1666090928137553542,0.7999999999999999,0.0,0.0,0.0,0.0,0.6981317007977313
1666090928187548101,0.7999999999999999,0.0,0.0,0.0,0.0,0.6981317007977313
1666090928238260163,0.7999999999999999,0.0,0.0,0.0,0.0,0.6981317007977313
1666090928287853450,0.7999999999999999,0.0,0.0,0.0,0.0,0.6981317007977313
1666090928338396460,0.6499999999999999,0.0,0.0,0.0,0.0,0.5672320068981567
1666090928387675730,0.4999999999999999,0.0,0.0,0.0,0.0,0.436332312998582
1666090928437601163,0.34999999999999987,0.0,0.0,0.0,0.0,0.3054326190990073
1666090928487654459,0.19999999999999984,0.0,0.0,0.0,0.0,0.1745329251994327
1666090928537821690,0.04999999999999982,0.0,0.0,0.0,0.0,0.04363323129985805
1666090928587620165,0.0,0.0,0.0,0.0,0.0,0.0
1666090928837547574,0.015,0.0,0.0,0.0,0.0,-0.008572095260024072
1666090928887492727,0.03,0.0,0.0,0.0,0.0,-0.016479317601888803
1666090928937607906,0.045,0.0,0.0,0.0,0.0,-0.024386539943753536
1666090928987748794,0.06,0.0,0.0,0.0,0.0,-0.03358216286616972
1666090929037489487,0.075,0.0,0.0,0.0,0.0,-0.04309805423108779
1666090929087527169,0.09,0.0,0.0,0.0,0.0,-0.052613945596005865
1666090929137515757,0.105,0.0,0.0,0.0,0.0,-0.062326359771013695
1666090929188047716,0.12,0.0,0.0,0.0,0.0,-0.07203877394602153
1666090929237483661,0.135,0.0,0.0,0.0,0.0,-0.08072095821245082
1666090929287571834,0.15000000000000002,0.0,0.0,0.0,0.0,-0.08940314247888011
1666090929337904820,0.16500000000000004,0.0,0.0,0.0,0.0,-0.09847622707291853
1666090929388263632,0.18000000000000005,0.0,0.0,0.0,0.0,-0.10754931166695697
1666090929439263274,0.19500000000000006,0.0,0.0,0.0,0.0,-0.11662239626099541
1666090929487751511,0.21000000000000008,0.0,0.0,0.0,0.0,-0.12597860611961936
1666090929537592027,0.2250000000000001,0.0,0.0,0.0,0.0,-0.13533481597824332
1666090929591249648,0.2400000000000001,0.0,0.0,0.0,0.0,-0.14469102583686727
1666090929638315836,0.2550000000000001,0.0,0.0,0.0,0.0,-0.1557014785261083
1666090929688200768,0.27000000000000013,0.0,0.0,0.0,0.0,-0.16703565497775655
1666090929737811331,0.28500000000000014,0.0,0.0,0.0,0.0,-0.17903453174408854
1666090929787601274,0.30000000000000016,0.0,0.0,0.0,0.0,-0.19103340851042053
1666090929837656185,0.31500000000000017,0.0,0.0,0.0,0.0,-0.2020797935164986
1666090929887782971,0.3300000000000002,0.0,0.0,0.0,0.0,-0.21311991819143264
1666090929937642716,0.3450000000000002,0.0,0.0,0.0,0.0,-0.22470430682783402
1666090929987574096,0.3600000000000002,0.0,0.0,0.0,0.0,-0.2362886954642354
1666090930038088902,0.3750000000000002,0.0,0.0,0.0,0.0,-0.24787308410063677
1666090930087707478,0.39000000000000024,0.0,0.0,0.0,0.0,-0.2621077056130865
1666090930137718089,0.40500000000000025,0.0,0.0,0.0,0.0,-0.27688554423209955
1666090930187850324,0.42000000000000026,0.0,0.0,0.0,0.0,-0.2916633828511126
1666090930237924454,0.4350000000000003,0.0,0.0,0.0,0.0,-0.30739728310940945
1666090930287459215,0.4500000000000003,0.0,0.0,0.0,0.0,-0.3231311833677063
1666090930338278668,0.4650000000000003,0.0,0.0,0.0,0.0,-0.3393375151494625
1666090930387670054,0.4800000000000003,0.0,0.0,0.0,0.0,-0.35554384693121865
1666090930437592799,0.49500000000000033,0.0,0.0,0.0,0.0,-0.3797838834499349
1666090930487718070,0.5100000000000003,0.0,0.0,0.0,0.0,-0.40402391996865117
1666090930537565541,0.5250000000000004,0.0,0.0,0.0,0.0,-0.4282639564873675
1666090930587497756,0.5400000000000004,0.0,0.0,0.0,0.0,-0.45250399300608374
1666090930637429243,0.5550000000000004,0.0,0.0,0.0,0.0,-0.4767440295248
1666090930687824971,0.5700000000000004,0.0,0.0,0.0,0.0,-0.5223554446393652
1666090930737490724,0.5850000000000004,0.0,0.0,0.0,0.0,-0.5679668597539305
1666090930787636434,0.6000000000000004,0.0,0.0,0.0,0.0,-0.6135782748684957
1666090930837514423,0.6150000000000004,0.0,0.0,0.0,0.0,-0.6591896899830609
1666090930887461703,0.6300000000000004,0.0,0.0,0.0,0.0,-0.7189524233570397
1666090930937430638,0.6450000000000005,0.0,0.0,0.0,0.0,-0.7787151567310185
1666090930988254199,0.6600000000000005,0.0,0.0,0.0,0.0,-0.8384778901049974
1666090931037486921,0.6750000000000005,0.0,0.0,0.0,0.0,-0.8982406234789763
1666090931087589095,0.6900000000000005,0.0,0.0,0.0,0.0,-0.9580033568529551
1666090931137617646,0.7050000000000005,0.0,0.0,0.0,0.0,-1.0177660902269339
1666090931187666609,0.7200000000000005,0.0,0.0,0.0,0.0,-1.0775288236009126
1666090931237442424,0.7350000000000005,0.0,0.0,0.0,0.0,-1.1372915569748916
1666090931287640018,0.7500000000000006,0.0,0.0,0.0,0.0,-1.1970542903488703
1666090931337489446,0.7650000000000006,0.0,0.0,0.0,0.0,-1.2568170237228493
1666090931388038562,0.7800000000000006,0.0,0.0,0.0,0.0,-1.3165797570968283
1666090931437734401,0.7950000000000006,0.0,0.0,0.0,0.0,-1.3763424904708073
1666090931487794307,0.7999999999999999,0.0,0.0,0.0,0.0,-1.3962634015954642
1666090931537563075,0.7999999999999999,0.0,0.0,0.0,0.0,-1.3962634015954642
1666090931587892612,0.7999999999999999,0.0,0.0,0.0,0.0,-1.3962634015954642
1666090931637526866,0.7999999999999999,0.0,0.0,0.0,0.0,-1.3962634015954642
1666090931687653240,0.7999999999999999,0.0,0.0,0.0,0.0,-1.3962634015954642
1666090931737769022,0.7999999999999999,0.0,0.0,0.0,0.0,-1.3962634015954642
1666090931787648811,0.7999999999999999,0.0,0.0,0.0,0.0,-1.3962634015954642
1666090931838018769,0.7999999999999999,0.0,0.0,0.0,0.0,-1.3962634015954642
1666090931888025939,0.7999999999999999,0.0,0.0,0.0,0.0,-1.3962634015954642
1666090931937503213,0.7999999999999999,0.0,0.0,0.0,0.0,-1.3962634015954642
1666090931987665859,0.7999999999999999,0.0,0.0,0.0,0.0,-1.3962634015954642
1666090932037876456,0.7999999999999999,0.0,0.0,0.0,0.0,-1.3962634015954642
1666090932087961999,0.7999999999999999,0.0,0.0,0.0,0.0,-1.3962634015954642
1666090932137553771,0.7999999999999999,0.0,0.0,0.0,0.0,-1.3962634015954642
1666090932187733535,0.7999999999999999,0.0,0.0,0.0,0.0,-1.3962634015954642
1666090932237842447,0.7999999999999999,0.0,0.0,0.0,0.0,-1.3962634015954642
1666090932287570616,0.7999999999999999,0.0,0.0,0.0,0.0,-1.3962634015954642
1666090932337608511,0.7999999999999999,0.0,0.0,0.0,0.0,-1.3962634015954642
1666090932387916695,0.7999999999999999,0.0,0.0,0.0,0.0,-1.3962634015954642
1666090932437570506,0.6499999999999999,0.0,0.0,0.0,0.0,-1.3588634890527287
1666090932487766186,0.4999999999999999,0.0,0.0,0.0,0.0,-1.3214635765099931
1666090932537809291,0.34999999999999987,0.0,0.0,0.0,0.0,-1.2840636639672574
1666090932587687001,0.19999999999999984,0.0,0.0,0.0,0.0,-1.2466637514245216
1666090932637650359,0.1,0.0,0.0,0.0,0.0,-1.2217304763960313
1666090932687938308,0.1,0.0,0.0,0.0,0.0,-1.2217304763960313
1666090932737698674,0.1,0.0,0.0,0.0,0.0,-1.2217304763960313
1666090932788608189,0.1,0.0,0.0,0.0,0.0,-1.3217304763960314
1666090932837578077,0.1,0.0,0.0,0.0,0.0,-1.4217304763960315
1666090932887808115,0.0,0.0,0.0,0.0,0.0,-1.1453409003645219
1666090932937493048,0.0,0.0,0.0,0.0,0.0,-1.1453409003645219
1666090932987763647,0.0,0.0,0.0,0.0,0.0,-1.1453409003645219
1666090933037632235,0.0,0.0,0.0,0.0,0.0,-1.1023701506181969
1666090933090131444,0.0,0.0,0.0,0.0,0.0,-1.061235454704707
1666090933137693778,0.0,0.0,0.0,0.0,0.0,-1.061235454704707
1666090933188059660,0.015,0.0,0.0,0.0,0.0,-1.0853097079584055
1666090933237523176,0.03,0.0,0.0,0.0,0.0,-1.1093839612121041
1666090933287495088,0.045,0.0,0.0,0.0,0.0,-1.0960583019230672
1666090933343575778,0.06,0.0,0.0,0.0,0.0,-1.0985551000914042
1666090933387828945,0.075,0.0,0.0,0.0,0.0,-1.1010518982597413
1666090933437517908,0.09,0.0,0.0,0.0,0.0,-1.1035486964280783
1666090933487824952,0.105,0.0,0.0,0.0,0.0,-1.1060454945964153
1666090933537750412,0.12,0.0,0.0,0.0,0.0,-1.1085422927647524
1666090933587553556,0.135,0.0,0.0,0.0,0.0,-1.107189099936043
1666090933637448835,0.15000000000000002,0.0,0.0,0.0,0.0,-1.1058359071073336
1666090933688552662,0.16500000000000004,0.0,0.0,0.0,0.0,-1.1044827142786242
1666090933737746530,0.18000000000000005,0.0,0.0,0.0,0.0,-1.1031295214499148
1666090933788216510,0.19500000000000006,0.0,0.0,0.0,0.0,-1.1017763286212054
1666090933838025249,0.21000000000000008,0.0,0.0,0.0,0.0,-1.1004231357924963
1666090933887755458,0.2250000000000001,0.0,0.0,0.0,0.0,-1.0946326652044793
1666090933937514277,0.2400000000000001,0.0,0.0,0.0,0.0,-1.0830799716745347
1666090933988359566,0.2550000000000001,0.0,0.0,0.0,0.0,-1.0724719777044829
1666090934037618893,0.27000000000000013,0.0,0.0,0.0,0.0,-1.061863983734431
1666090934094068091,0.28500000000000014,0.0,0.0,0.0,0.0,-1.051058623040905
1666090934137744647,0.30000000000000016,0.0,0.0,0.0,0.0,-1.0400502217290377
1666090934187682615,0.31500000000000017,0.0,0.0,0.0,0.0,-1.0290418204171705
1666090934237622791,0.16500000000000015,0.0,0.0,0.0,0.0,-0.539021905932804
1666090934287770636,0.015000000000000124,0.0,0.0,0.0,0.0,-0.04900199144843759
1666090934337687037,0.0,0.0,0.0,0.0,0.0,-4.996003610813204e-16
1666090934387775161,0.0,0.0,0.0,0.0,0.0,-4.996003610813204e-16
1666090934438209849,0.0,0.0,0.0,0.0,0.0,0.0
1666090935137742779,0.015,0.0,0.0,0.0,0.0,0.06286027352773635
1666090935188485174,0.03,0.0,0.0,0.0,0.0,0.11962260028488815
1666090935237664062,0.045,0.0,0.0,0.0,0.0,0.17638492704203995
1666090935287601433,0.06,0.0,0.0,0.0,0.0,0.23418227846848255
1666090935337621084,0.075,0.0,0.0,0.0,0.0,0.29197962989492515
1666090935387627469,0.09,0.0,0.0,0.0,0.0,0.36727121594351314
1666090935438099564,0.105,0.0,0.0,0.0,0.0,0.4433578901501227
1666090935487639078,0.12,0.0,0.0,0.0,0.0,0.5207111873048035
1666090935538313962,0.135,0.0,0.0,0.0,0.0,0.5980644844594842
1666090935588531595,0.15000000000000002,0.0,0.0,0.0,0.0,0.6547496512372996
1666090935637622528,0.16500000000000004,0.0,0.0,0.0,0.0,0.7396729267824853
1666090935687628429,0.18000000000000005,0.0,0.0,0.0,0.0,0.8245962023276711
1666090935737778157,0.19500000000000006,0.0,0.0,0.0,0.0,0.8798105710145517
1666090935787648619,0.21000000000000008,0.0,0.0,0.0,0.0,0.9350249397014324
1666090935838105827,0.2250000000000001,0.0,0.0,0.0,0.0,1.032459231822356
1666090935887705322,0.2400000000000001,0.0,0.0,0.0,0.0,1.1298935239432797
1666090935937884289,0.2550000000000001,0.0,0.0,0.0,0.0,1.2194105561892004
1666090935987720270,0.27000000000000013,0.0,0.0,0.0,0.0,1.2969590514815255
1666090936037488225,0.28500000000000014,0.0,0.0,0.0,0.0,1.3745075467738506
1666090936087632045,0.30000000000000016,0.0,0.0,0.0,0.0,1.4325162207585211
1666090936138322213,0.31500000000000017,0.0,0.0,0.0,0.0,1.4905248947431917
1666090936187538568,0.3300000000000002,0.0,0.0,0.0,0.0,1.4973627862841696
1666090936237624557,0.3450000000000002,0.0,0.0,0.0,0.0,1.5042006778251473
1666090936288052349,0.3600000000000002,0.0,0.0,0.0,0.0,1.5106834827077265
1666090936337761331,0.3750000000000002,0.0,0.0,0.0,0.0,1.5171662875903056
1666090936388265299,0.39000000000000024,0.0,0.0,0.0,0.0,1.4070010462850193
1666090936437589739,0.40500000000000025,0.0,0.0,0.0,0.0,1.3987648470015688
1666090936488415439,0.4095557034015655,0.0,0.0,0.0,0.0,1.3962634015954631
1666090936537857361,0.4245557034015655,0.0,0.0,0.0,0.0,1.3962634015954631
1666090936587521509,0.4395557034015655,0.0,0.0,0.0,0.0,1.3962634015954631
1666090936637629133,0.45455570340156554,0.0,0.0,0.0,0.0,1.3962634015954631
1666090936687731307,0.46955570340156555,0.0,0.0,0.0,0.0,1.3796134574934678
1666090936737516256,0.48455570340156556,0.0,0.0,0.0,0.0,1.3348933688805753
1666090936788318906,0.4995557034015656,0.0,0.0,0.0,0.0,1.2901732802676829
1666090936837530320,0.5145557034015655,0.0,0.0,0.0,0.0,1.1620665193904385
1666090936887983770,0.5295557034015655,0.0,0.0,0.0,0.0,1.033959758513194
1666090936937909842,0.5445557034015656,0.0,0.0,0.0,0.0,0.8810303349705757
1666090936987922663,0.5595557034015656,0.0,0.0,0.0,0.0,0.7281009114279573
1666090937038618270,0.5745557034015656,0.0,0.0,0.0,0.0,0.681896436797387
1666090937087554293,0.5895557034015656,0.0,0.0,0.0,0.0,0.572825395080816
1666090937137890330,0.6045557034015656,0.0,0.0,0.0,0.0,0.48286730273753414
1666090937189827950,0.6195557034015656,0.0,0.0,0.0,0.0,0.4225232849659719
1666090937237664607,0.6345557034015656,0.0,0.0,0.0,0.0,0.3621792671944096
1666090937287861145,0.6495557034015657,0.0,0.0,0.0,0.0,0.31153710449357624
1666090937337806344,0.6645557034015657,0.0,0.0,0.0,0.0,0.22008854178024229
1666090937388516069,0.6795557034015657,0.0,0.0,0.0,0.0,0.12863997906690827
1666090937437546486,0.6945557034015657,0.0,0.0,0.0,0.0,0.030769431982811554
1666090937493086101,0.6968024969100952,0.0,0.0,0.0,0.0,-0.05985792353749275
1666090937538086063,0.6968024969100952,0.0,0.0,0.0,0.0,-0.05985792353749275
1666090937588415611,0.6620394365025467,0.0,0.0,0.0,0.0,-0.15985792353749276
1666090937638307233,0.6395404250822346,0.0,0.0,0.0,0.0,-0.25985792353749276
1666090937688058560,0.6194695234298706,0.0,0.0,0.0,0.0,-0.3490658503988664
1666090937737519552,0.5860670208930969,0.0,0.0,0.0,0.0,-0.3490658503988664
1666090937788085906,0.5485958456993102,0.0,0.0,0.0,0.0,-0.3490658503988664
1666090937837514007,0.5485958456993102,0.0,0.0,0.0,0.0,-0.3490658503988664
1666090937887829625,0.5485958456993102,0.0,0.0,0.0,0.0,-0.3490658503988664
1666090937939466084,0.5258470468949366,0.0,0.0,0.0,0.0,-0.4490658503988664
1666090937987806961,0.5088917016983032,0.0,0.0,0.0,0.0,-0.5235987755982994
1666090938037467146,0.46701088547706604,0.0,0.0,0.0,0.0,-0.5235987755982994
1666090938087731442,0.317010885477066,0.0,0.0,0.0,0.0,-0.4788564335120424
1666090938137767719,0.167010885477066,0.0,0.0,0.0,0.0,-0.4311271460170085
1666090938190591445,0.017010885477065973,0.0,0.0,0.0,0.0,-0.38339785852197467
1666090938237777827,0.0,0.0,0.0,0.0,0.0,-0.38967852259533714
1666090938287527461,0.0,0.0,0.0,0.0,0.0,-0.38967852259533714
1666090938337500832,0.0,0.0,0.0,0.0,0.0,-0.4121122221984542
1666090938388020064,0.0,0.0,0.0,0.0,0.0,-0.4121122221984542
1666090938438013248,0.0,0.0,0.0,0.0,0.0,-0.38239537018425657
1666090938487525711,0.0,0.0,0.0,0.0,0.0,-0.38239537018425657
1666090938537452376,0.0,0.0,0.0,0.0,0.0,-0.38239537018425657
1666090938588056124,0.0,0.0,0.0,0.0,0.0,-0.37959172647535894
1666090938637453176,0.0,0.0,0.0,0.0,0.0,-0.2664111965513269
1666090938687678504,0.0,0.0,0.0,0.0,0.0,-0.264215402363105
1666090938737901527,0.0,0.0,0.0,0.0,0.0,-0.264215402363105
1666090938787822357,0.0,0.0,0.0,0.0,0.0,-0.17453292519943345
1666090938837515528,0.0,0.0,0.0,0.0,0.0,-0.17453292519943345
1666090938887652329,0.0,0.0,0.0,0.0,0.0,-0.17453292519943345
1666090938937795712,0.0,0.0,0.0,0.0,0.0,-0.17453292519943345
1666090938987662116,0.0,0.0,0.0,0.0,0.0,-4.996003610813204e-16
1666090939037740568,0.0,0.0,0.0,0.0,0.0,-4.996003610813204e-16
1666090939087916352,0.0,0.0,0.0,0.0,0.0,-4.996003610813204e-16
1666090939137632741,0.0,0.0,0.0,0.0,0.0,-4.996003610813204e-16
1666090939188115597,0.0,0.0,0.0,0.0,0.0,-4.996003610813204e-16
1666090939237788236,0.0,0.0,0.0,0.0,0.0,-4.996003610813204e-16
1666090939287553496,0.0,0.0,0.0,0.0,0.0,-4.996003610813204e-16
1666090939337637304,0.0,0.0,0.0,0.0,0.0,-4.996003610813204e-16
1666090939387527875,0.0,0.0,0.0,0.0,0.0,-4.996003610813204e-16
1666090939437585507,0.0,0.0,0.0,0.0,0.0,-4.996003610813204e-16
1666090939487654218,0.0,0.0,0.0,0.0,0.0,-4.996003610813204e-16
1666090939537505130,0.0,0.0,0.0,0.0,0.0,-4.996003610813204e-16
1666090939587546819,0.0,0.0,0.0,0.0,0.0,-4.996003610813204e-16
1666090939638060214,0.0,0.0,0.0,0.0,0.0,-4.996003610813204e-16
1666090939687487877,0.0,0.0,0.0,0.0,0.0,-4.996003610813204e-16
1666090939737646090,0.0,0.0,0.0,0.0,0.0,-4.996003610813204e-16
1666090939787494342,0.0,0.0,0.0,0.0,0.0,-4.996003610813204e-16
1666090939837573453,0.0,0.0,0.0,0.0,0.0,-4.996003610813204e-16
1666090939887459008,0.0,0.0,0.0,0.0,0.0,-4.996003610813204e-16
1666090939940482393,0.0,0.0,0.0,0.0,0.0,-4.996003610813204e-16
1666090939987885706,0.0,0.0,0.0,0.0,0.0,-4.996003610813204e-16
1666090940037436170,0.0,0.0,0.0,0.0,0.0,-4.996003610813204e-16
1666090940087634811,0.0,0.0,0.0,0.0,0.0,-4.996003610813204e-16
1666090940138039792,0.0,0.0,0.0,0.0,0.0,-4.996003610813204e-16
1666090940187930071,0.0,0.0,0.0,0.0,0.0,-4.996003610813204e-16
1666090940237588079,0.0,0.0,0.0,0.0,0.0,-4.996003610813204e-16
1666090940288159746,0.0,0.0,0.0,0.0,0.0,-4.996003610813204e-16
1666090940337468658,0.0,0.0,0.0,0.0,0.0,-4.996003610813204e-16
1666090940387517644,0.0,0.0,0.0,0.0,0.0,-4.996003610813204e-16
1666090940437831915,0.0,0.0,0.0,0.0,0.0,-4.996003610813204e-16
1666090940488531043,0.0,0.0,0.0,0.0,0.0,-4.996003610813204e-16
1666090940537660078,0.0,0.0,0.0,0.0,0.0,-4.996003610813204e-16
1666090940587522941,0.0,0.0,0.0,0.0,0.0,-4.996003610813204e-16
1666090940637470825,0.0,0.0,0.0,0.0,0.0,-4.996003610813204e-16
1666090940687515753,0.0,0.0,0.0,0.0,0.0,-4.996003610813204e-16
1666090940737551778,0.0,0.0,0.0,0.0,0.0,-4.996003610813204e-16
1666090940787469971,0.0,0.0,0.0,0.0,0.0,-4.996003610813204e-16
1666090940837468386,0.0,0.0,0.0,0.0,0.0,-4.996003610813204e-16
1666090940887494911,0.0,0.0,0.0,0.0,0.0,-4.996003610813204e-16
1666090940937513586,0.0,0.0,0.0,0.0,0.0,-4.996003610813204e-16
1666090940988105176,0.0,0.0,0.0,0.0,0.0,-4.996003610813204e-16
1666090941037753177,0.0,0.0,0.0,0.0,0.0,-4.996003610813204e-16
1666090941087875843,0.0,0.0,0.0,0.0,0.0,-4.996003610813204e-16
1666090941137476419,0.0,0.0,0.0,0.0,0.0,-4.996003610813204e-16
1666090941187632272,0.0,0.0,0.0,0.0,0.0,-4.996003610813204e-16
1666090941238068752,0.0,0.0,0.0,0.0,0.0,-4.996003610813204e-16
1666090941287911071,0.0,0.0,0.0,0.0,0.0,-4.996003610813204e-16
1666090941337493155,0.0,0.0,0.0,0.0,0.0,-4.996003610813204e-16
1666090941387572198,0.0,0.0,0.0,0.0,0.0,-4.996003610813204e-16
1666090941439302121,0.0,0.0,0.0,0.0,0.0,-4.996003610813204e-16
1666090941487457133,0.0,0.0,0.0,0.0,0.0,-4.996003610813204e-16
1666090941537635958,0.0,0.0,0.0,0.0,0.0,-4.996003610813204e-16
1666090941587698883,0.0,0.0,0.0,0.0,0.0,-4.996003610813204e-16
1666090941637520013,0.0,0.0,0.0,0.0,0.0,-4.996003610813204e-16
1666090941688078329,0.0,0.0,0.0,0.0,0.0,-4.996003610813204e-16
1666090941738055742,0.0,0.0,0.0,0.0,0.0,-4.996003610813204e-16
1666090941787525449,0.0,0.0,0.0,0.0,0.0,-4.996003610813204e-16
1666090941837751033,0.0,0.0,0.0,0.0,0.0,-4.996003610813204e-16
1666090941887614231,0.0,0.0,0.0,0.0,0.0,-4.996003610813204e-16
1666090941937929892,0.0,0.0,0.0,0.0,0.0,-4.996003610813204e-16
1666090941988332250,0.0,0.0,0.0,0.0,0.0,-4.996003610813204e-16
1666090942037783166,0.0,0.0,0.0,0.0,0.0,-4.996003610813204e-16
1666090942087515084,0.0,0.0,0.0,0.0,0.0,-4.996003610813204e-16
1666090942137728424,0.0,0.0,0.0,0.0,0.0,-4.996003610813204e-16
1666090942187698259,0.0,0.0,0.0,0.0,0.0,-4.996003610813204e-16
1666090942237518214,0.0,0.0,0.0,0.0,0.0,-4.996003610813204e-16
1666090942287590699,0.0,0.0,0.0,0.0,0.0,-4.996003610813204e-16
1666090942337714101,0.0,0.0,0.0,0.0,0.0,-4.996003610813204e-16
1666090942387555190,0.0,0.0,0.0,0.0,0.0,-4.996003610813204e-16
1666090942437780009,0.0,0.0,0.0,0.0,0.0,-4.996003610813204e-16
1666090942487564276,0.0,0.0,0.0,0.0,0.0,-4.996003610813204e-16
1666090942538136461,0.0,0.0,0.0,0.0,0.0,-4.996003610813204e-16
1666090942587649649,0.0,0.0,0.0,0.0,0.0,-4.996003610813204e-16
1666090942638323025,0.0,0.0,0.0,0.0,0.0,-4.996003610813204e-16
1666090942687501127,0.0,0.0,0.0,0.0,0.0,-4.996003610813204e-16
1666090942737610968,0.0,0.0,0.0,0.0,0.0,-4.996003610813204e-16
1666090942787693108,0.0,0.0,0.0,0.0,0.0,-4.996003610813204e-16
1666090942837641105,0.0,0.0,0.0,0.0,0.0,-4.996003610813204e-16
1666090942887914589,0.0,0.0,0.0,0.0,0.0,-4.996003610813204e-16
1666090942937594939,0.0,0.0,0.0,0.0,0.0,-4.996003610813204e-16
1666090942987586119,0.0,0.0,0.0,0.0,0.0,-4.996003610813204e-16
1666090943037525001,0.0,0.0,0.0,0.0,0.0,-4.996003610813204e-16
1666090943087488935,0.0,0.0,0.0,0.0,0.0,-4.996003610813204e-16
1666090943138164958,0.0,0.0,0.0,0.0,0.0,-4.996003610813204e-16
1666090943187727439,0.0,0.0,0.0,0.0,0.0,-4.996003610813204e-16
1666090943237549842,0.0,0.0,0.0,0.0,0.0,-4.996003610813204e-16
1666090943287519128,0.0,0.0,0.0,0.0,0.0,-4.996003610813204e-16
1666090943337908794,0.0,0.0,0.0,0.0,0.0,-4.996003610813204e-16
1666090943387714342,0.0,0.0,0.0,0.0,0.0,-4.996003610813204e-16
1666090943437579312,0.0,0.0,0.0,0.0,0.0,-4.996003610813204e-16
1666090943489721546,0.0,0.0,0.0,0.0,0.0,-4.996003610813204e-16
1666090943537775382,0.0,0.0,0.0,0.0,0.0,-4.996003610813204e-16
1666090943587678056,0.0,0.0,0.0,0.0,0.0,-4.996003610813204e-16
1666090943637534209,0.0,0.0,0.0,0.0,0.0,-4.996003610813204e-16
1666090943687568925,0.0,0.0,0.0,0.0,0.0,-4.996003610813204e-16
1666090943738377227,0.0,0.0,0.0,0.0,0.0,-4.996003610813204e-16
1666090943787530004,0.0,0.0,0.0,0.0,0.0,-4.996003610813204e-16
1666090943838027901,0.0,0.0,0.0,0.0,0.0,-4.996003610813204e-16
1666090943887618729,0.0,0.0,0.0,0.0,0.0,-4.996003610813204e-16
1666090943937612495,0.0,0.0,0.0,0.0,0.0,-4.996003610813204e-16
1666090943988369471,0.0,0.0,0.0,0.0,0.0,-4.996003610813204e-16
1666090944037513077,0.0,0.0,0.0,0.0,0.0,-4.996003610813204e-16
1666090944087477878,0.0,0.0,0.0,0.0,0.0,-4.996003610813204e-16
1666090944137519192,0.0,0.0,0.0,0.0,0.0,-4.996003610813204e-16
1666090944187599245,0.0,0.0,0.0,0.0,0.0,-4.996003610813204e-16
1666090944237895076,0.0,0.0,0.0,0.0,0.0,0.0999999999999995
1666090944288195081,0.0,0.0,0.0,0.0,0.0,0.17453292519943245
1666090944337552277,0.0,0.0,0.0,0.0,0.0,0.17453292519943245
1666090944387518828,0.0,0.0,0.0,0.0,0.0,0.17453292519943245
1666090944438436879,0.0,0.0,0.0,0.0,0.0,0.17453292519943245
1666090944487460745,0.0,0.0,0.0,0.0,0.0,0.17453292519943245
1666090944537787056,0.0,0.0,0.0,0.0,0.0,0.17453292519943245
1666090944588337985,0.0,0.0,0.0,0.0,0.0,0.07453292519943244
1666090944637567035,0.0,0.0,0.0,0.0,0.0,-4.996003610813204e-16
1666090944687449277,0.0,0.0,0.0,0.0,0.0,-4.996003610813204e-16
1666090944737476204,0.0,0.0,0.0,0.0,0.0,-4.996003610813204e-16
1666090944787511515,0.0,0.0,0.0,0.0,0.0,-4.996003610813204e-16
1666090944837563479,0.0,0.0,0.0,0.0,0.0,-4.996003610813204e-16
1666090944887454112,0.0,0.0,0.0,0.0,0.0,-4.996003610813204e-16
1666090944937860458,0.0,0.0,0.0,0.0,0.0,-4.996003610813204e-16
1666090944988156781,0.0,0.0,0.0,0.0,0.0,-4.996003610813204e-16
1666090945037615565,0.0,0.0,0.0,0.0,0.0,-4.996003610813204e-16
1666090945087629791,0.0,0.0,0.0,0.0,0.0,-4.996003610813204e-16
1666090945137576987,0.0,0.0,0.0,0.0,0.0,-4.996003610813204e-16
1666090945187425346,0.0,0.0,0.0,0.0,0.0,-4.996003610813204e-16
1666090945238165938,0.0,0.0,0.0,0.0,0.0,-4.996003610813204e-16
1666090945288137851,0.0,0.0,0.0,0.0,0.0,-4.996003610813204e-16
1666090945337605113,0.0,0.0,0.0,0.0,0.0,-4.996003610813204e-16
1666090945387804134,0.0,0.0,0.0,0.0,0.0,-4.996003610813204e-16
1666090945438155751,0.0,0.0,0.0,0.0,0.0,-4.996003610813204e-16
1666090945487494028,0.0,0.0,0.0,0.0,0.0,-4.996003610813204e-16
1666090945537776868,0.0,0.0,0.0,0.0,0.0,-4.996003610813204e-16
1666090945588801453,0.0,0.0,0.0,0.0,0.0,-4.996003610813204e-16
1666090945637767043,0.0,0.0,0.0,0.0,0.0,-4.996003610813204e-16
1666090945687936840,0.0,0.0,0.0,0.0,0.0,-4.996003610813204e-16
1666090945737827358,0.0,0.0,0.0,0.0,0.0,-4.996003610813204e-16
1666090945787563653,0.0,0.0,0.0,0.0,0.0,-4.996003610813204e-16
1666090945837653854,0.0,0.0,0.0,0.0,0.0,-4.996003610813204e-16
1666090945887806117,0.0,0.0,0.0,0.0,0.0,-4.996003610813204e-16
1666090945937519110,0.0,0.0,0.0,0.0,0.0,-4.996003610813204e-16
1666090945988233877,0.0,0.0,0.0,0.0,0.0,-4.996003610813204e-16
1666090946037666543,0.0,0.0,0.0,0.0,0.0,-4.996003610813204e-16
1666090946087700251,0.0,0.0,0.0,0.0,0.0,-4.996003610813204e-16
1666090946137584189,0.0,0.0,0.0,0.0,0.0,-4.996003610813204e-16
