%time,field.x,field.y,field.z
1666088164608515136,0.0,0.0,0.0
1666088164628318305,0.0,0.0,0.0
1666088164647520047,0.0,0.0,0.0
1666088164667571685,0.0,0.0,0.0
1666088164687795058,0.0,0.0,0.0
1666088164708709360,0.0,0.0,0.0
1666088164728261942,0.0,0.0,0.0
1666088164749094679,0.0,0.0,0.0
1666088164768647649,0.0,0.0,0.0
1666088164812077974,0.0,0.0,0.0
1666088164812092097,0.0,0.0,0.0
1666088164856189916,0.0,0.0,0.0
1666088164856219525,0.0,0.0,0.0
1666088164900100667,0.0,0.0,0.0
1666088164900116492,0.0,0.0,0.0
1666088164948238060,0.0,0.0,0.0
1666088164948266622,0.0,0.0,0.0
1666088164992386461,0.0,0.0,0.0
1666088164992425769,0.0,0.0,0.0
1666088164992483585,0.0,0.0,0.0
1666088165040168997,0.0,0.0,0.0
1666088165040210520,0.0,0.0,0.0
1666088165049726708,0.0,0.0,0.0
1666088165068260321,0.0,0.0,0.0
1666088165112077518,0.0,0.0,0.0
1666088165112095934,0.0,0.0,0.0
1666088165156198691,0.0,0.0,0.0
1666088165156229925,0.0,0.0,0.0
1666088165200092951,0.0,0.0,0.0
1666088165200108197,0.0,0.0,0.0
1666088165244200538,0.0,0.0,0.0
1666088165244223415,0.0,0.0,0.0
1666088165288126785,0.0,0.0,0.0
1666088165288155941,0.0,0.0,0.0
1666088165332065399,0.0,0.0,0.0
1666088165332082468,0.0,0.0,0.0
1666088165332095312,0.0,0.0,0.0
1666088165376363816,0.0,0.0,0.0
1666088165376397529,0.0,0.0,0.0
1666088165388313570,0.0,0.0,0.0
1666088165408350131,0.0,0.0,0.0
1666088165452180689,0.0,0.0,0.0
1666088165452211014,0.0,0.0,0.0
1666088165496113593,0.0,0.0,0.0
1666088165496127650,0.0,0.0,0.0
1666088165540081762,0.0,0.0,0.0
1666088165540099248,0.0,0.0,0.0
1666088165584236374,0.0,0.0,0.0
1666088165584273100,0.0,0.0,0.0
1666088165628057903,0.0,0.0,0.0
1666088165628069355,0.0,0.0,0.0
1666088165672077563,0.0,0.0,0.0
1666088165672092684,0.0,0.0,0.0
1666088165672121756,0.0,0.0,0.0
1666088165716101296,0.0,0.0,0.0
1666088165716123373,0.0,0.0,0.0
1666088165728343158,0.0,0.0,0.0
1666088165748313599,0.0,0.0,0.0
1666088165792094051,0.0,0.0,0.0
1666088165792117167,0.0,0.0,0.0
1666088165840125468,0.0,0.0,0.0
1666088165840143563,0.0,0.0,0.0
1666088165884212818,0.0,0.0,0.0
1666088165884253558,0.0,0.0,0.0
1666088165928124023,0.0,0.0,0.0
1666088165928139364,0.0,0.0,0.0
1666088165972084533,0.0,0.0,0.0
1666088165972100917,0.0,0.0,0.0
1666088165972106522,0.0,0.0,0.0
1666088166016068017,0.0,0.0,0.0
1666088166016079855,0.0,0.0,0.0
1666088166028874895,0.0,0.0,0.0
1666088166049041881,0.0,0.0,0.0
1666088166096151074,0.0,0.0,0.0
1666088166096185457,0.0,0.0,0.0
1666088166140088002,0.0,0.0,0.0
1666088166140107262,0.0,0.0,0.0
1666088166184158707,0.0,0.0,0.0
1666088166184174351,0.0,0.0,0.0
1666088166232150281,0.0,0.0,0.0
1666088166232172151,0.0,0.0,0.0
1666088166232190226,0.0,0.0,0.0
1666088166280070786,0.0,0.0,0.0
1666088166280084617,0.0,0.0,0.0
1666088166289430551,0.0,0.0,0.0
1666088166308835573,0.0,0.0,0.0
1666088166352121449,0.0,0.0,0.0
1666088166352140082,0.0,0.0,0.0
1666088166396072940,0.0,0.0,0.0
1666088166396083351,0.0,0.0,0.0
1666088166440084621,0.0,0.0,0.0
1666088166440107194,0.0,0.0,0.0
1666088166488298238,0.0,0.0,0.0
1666088166488337577,0.0,0.0,0.0
1666088166536634680,0.0,0.0,0.0
1666088166536678940,0.0,0.0,0.0
1666088166536712919,0.0,0.0,0.0
1666088166584297112,0.0,0.0,0.0
1666088166584333912,0.0,0.0,0.0
1666088166589975043,0.0,0.0,0.0
1666088166610007183,0.0,0.0,0.0
1666088166652347016,0.0,0.0,0.0
1666088166652373689,0.0,0.0,0.0
1666088166696078316,0.0,0.0,0.0
1666088166696097582,0.0,0.0,0.0
1666088166740070480,0.0,0.0,0.0
1666088166740083380,0.0,0.0,0.0
1666088166788141937,0.0,0.0,0.0
1666088166788163667,0.0,0.0,0.0
1666088166832093878,0.0,0.0,0.0
1666088166832112108,0.0,0.0,0.0
1666088166832123313,0.0,0.0,0.0
1666088166880145874,0.0,0.0,0.0
1666088166880167206,0.0,0.0,0.0
1666088166889879152,0.0,0.0,0.0
1666088166909646504,0.0,0.0,0.0
1666088166952075312,0.0,0.0,0.0
1666088166952089654,0.0,0.0,0.0
1666088167000098287,0.0,0.0,0.0
1666088167000125370,0.0,0.0,0.0
1666088167044064101,0.0,0.0,0.0
1666088167044071963,0.0,0.0,0.0
1666088167088242568,0.0,0.0,0.0
1666088167088290089,0.0,0.0,0.0
1666088167132130503,0.0,0.0,0.0
1666088167132144660,0.0,0.0,0.0
1666088167132154730,0.0,0.0,0.0
1666088167180171661,0.0,0.0,0.0
1666088167180187610,0.0,0.0,0.0
1666088167190437281,0.0,0.0,0.0
1666088167209371800,0.0,0.0,0.0
1666088167252141714,0.0,0.0,0.0
1666088167252157629,0.0,0.0,0.0
1666088167296208194,0.0,0.0,0.0
1666088167296226609,0.0,0.0,0.0
1666088167340151405,0.0,0.0,0.0
1666088167340173842,0.0,0.0,0.0
1666088167384305880,0.0,0.0,0.0
1666088167384349197,0.0,0.0,0.0
1666088167428069798,0.0,0.0,0.0
1666088167428081994,0.0,0.0,0.0
1666088167476284194,0.0,0.0,0.0
1666088167476321468,0.0,0.0,0.0
1666088167476357690,0.0,0.0,0.0
1666088167520271089,0.0,0.0,0.0
1666088167520308313,0.0,0.0,0.0
1666088167529433088,0.0,0.0,0.0
1666088167549718679,0.0,0.0,0.0
1666088167592194907,0.0,0.0,0.0
1666088167592228586,0.0,0.0,0.0
1666088167636079741,0.0,0.0,0.0
1666088167636097434,0.0,0.0,0.0
1666088167680081027,0.0,0.0,0.0
1666088167680096645,0.0,0.0,0.0
1666088167724226455,0.0,0.0,0.0
1666088167724263190,0.0,0.0,0.0
1666088167768208998,0.0,0.0,0.0
1666088167768240255,0.0,0.0,0.0
1666088167816253397,0.0,0.0,0.0
1666088167816279441,0.0,0.0,0.0
1666088167816296461,0.0,0.0,0.0
1666088167860183436,0.0,0.0,0.0
1666088167860216022,0.0,0.0,0.0
1666088167870248068,0.0,0.0,0.0
1666088167889980709,0.0,0.0,0.0
1666088167932210240,0.0,0.0,0.0
1666088167932249221,0.0,0.0,0.0
1666088167976073934,0.0,0.0,0.0
1666088167976110401,0.0,0.0,0.0
1666088168020359491,0.0,0.0,0.0
1666088168020398490,0.0,0.0,0.0
1666088168064164273,0.0,0.0,0.0
1666088168064187827,0.0,0.0,0.0
1666088168112166353,0.0,0.0,0.0
1666088168112182990,0.0,0.0,0.0
1666088168112219788,0.0,0.0,0.0
1666088168156114543,0.0,0.0,0.0
1666088168156125434,0.0,0.0,0.0
1666088168170396185,0.0,0.0,0.0
1666088168190174142,0.0,0.0,0.0
1666088168232542279,0.0,0.0,0.0
1666088168276112699,0.0,0.0,0.0
1666088168276131191,0.0,0.0,0.0
1666088168276141493,0.0,0.0,0.0
1666088168320511863,0.0,0.0,0.0
1666088168320578709,0.0,0.0,0.0
1666088168331024648,0.0,0.0,0.0
1666088168351396934,0.0,0.0,0.0
1666088168392205141,0.0,0.0,0.0
1666088168392225566,0.0,0.0,0.0
1666088168436529939,0.0,0.0,0.0
1666088168436580936,0.0,0.0,0.0
1666088168480413738,0.0,0.0,0.0
1666088168480459687,0.0,0.0,0.0
1666088168524166994,0.0,0.0,0.0
1666088168524189411,0.0,0.0,0.0
1666088168568441118,0.0,0.0,0.0
1666088168568497224,0.0,0.0,0.0
1666088168616069099,0.0,0.0,0.0
1666088168616085154,0.0,0.0,0.0
1666088168616095002,0.0,0.0,0.0
1666088168660338677,0.0,0.0,0.0
1666088168660366097,0.0,0.0,0.0
1666088168669985039,0.0,0.0,0.0
1666088168691301150,0.0,0.0,0.0
1666088168732707005,0.0,0.0,0.0
1666088168780437487,0.0,0.0,0.0
1666088168780499035,0.0,0.0,0.0
1666088168782000801,0.0,0.0,0.0
1666088168824268675,0.0,0.0,0.0
1666088168824326531,0.0,0.0,0.0
1666088168830789321,0.0,0.0,0.0
1666088168852398383,0.0,0.0,0.0
1666088168892100792,0.0,0.0,0.0
1666088168892112257,0.0,0.0,0.0
1666088168936095819,0.0,0.0,0.0
1666088168936113623,0.0,0.0,0.0
1666088168980064028,0.0,0.0,0.0
1666088168980073062,0.0,0.0,0.0
1666088169024327684,0.0,0.0,0.0
1666088169024358455,0.0,0.0,0.0
1666088169072122564,0.0,0.0,0.0
1666088169072141042,0.0,0.0,0.0
1666088169072146138,0.0,0.0,0.0
1666088169120564015,0.0,0.0,0.0
1666088169120596797,0.0,0.0,0.0
1666088169130729748,0.0,0.0,0.0
1666088169151090454,0.0,0.0,0.0
1666088169196511121,0.0,0.0,0.0
1666088169196534685,0.0,0.0,0.0
1666088169240197661,0.0,0.0,0.0
1666088169240211264,0.0,0.0,0.0
1666088169284101481,0.0,0.0,0.0
1666088169284120676,0.0,0.0,0.0
1666088169332169193,0.0,0.0,0.0
1666088169332198437,0.0,0.0,0.0
1666088169332214719,0.0,0.0,0.0
1666088169376080414,0.0,0.0,0.0
1666088169376097148,0.0,0.0,0.0
1666088169391810157,0.0,0.0,0.0
1666088169411010050,0.0,0.0,0.0
1666088169456164652,0.0,0.0,0.0
1666088169456189144,0.0,0.0,0.0
1666088169500261685,0.0,0.0,0.0
1666088169500335354,0.0,0.0,0.0
1666088169544375002,0.0,0.0,0.0
1666088169544408922,0.0,0.0,0.0
1666088169588165140,0.0,0.0,0.0
1666088169588178270,0.0,0.0,0.0
1666088169632263877,0.0,0.0,0.0
1666088169632318439,0.0,0.0,0.0
1666088169632332178,0.0,0.0,0.0
1666088169676089064,0.0,0.0,0.0
1666088169676132105,0.0,0.0,0.0
1666088169691408381,0.0,0.0,0.0
1666088169710887394,0.0,0.0,0.0
1666088169752087621,0.0,0.0,0.0
1666088169752099408,0.0,0.0,0.0
1666088169796525846,0.0,0.0,0.0
1666088169796596610,0.0,0.0,0.0
1666088169844267860,0.0,0.0,0.0
1666088169844325342,0.0,0.0,0.0
1666088169892242991,0.0,0.0,0.0
1666088169892275195,0.0,0.0,0.0
1666088169892310018,0.0,0.0,0.0
1666088169936097093,0.0,0.0,0.0
1666088169936117835,0.0,0.0,0.0
1666088169951558686,0.0,0.0,0.0
1666088169971719598,0.0,0.0,0.0
1666088170016081359,0.0,0.0,0.0
1666088170016095160,0.0,0.0,0.0
1666088170060339281,0.0,0.0,0.0
1666088170060374439,0.0,0.0,0.0
1666088170104317371,0.0,0.0,0.0
1666088170104346380,0.0,0.0,0.0
1666088170148201749,0.0,0.0,0.0
1666088170148241082,0.0,0.0,0.0
1666088170192259796,0.0,0.0,0.0
1666088170192277633,0.0,0.0,0.0
1666088170192306596,0.0,0.0,0.0
1666088170240099865,0.0,0.0,0.0
1666088170240118996,0.0,0.0,0.0
1666088170251653071,0.0,0.0,0.0
1666088170271657442,0.0,0.0,0.0
1666088170312049435,0.0,0.0,0.0
1666088170312062447,0.0,0.0,0.0
1666088170356158387,0.0,0.0,0.0
1666088170356190219,0.0,0.0,0.0
1666088170400098145,0.0,0.0,0.0
1666088170400126208,0.0,0.0,0.0
1666088170444284157,0.0,0.0,0.0
1666088170444303540,0.0,0.0,0.0
1666088170488241364,0.0,0.0,0.0
1666088170488269225,0.0,0.0,0.0
1666088170532724276,0.0,0.0,0.0
1666088170532770340,0.0,0.0,0.0
1666088170576494808,0.0,0.0,0.0
1666088170576566028,0.0,0.0,0.0
1666088170576581344,0.0,0.0,0.0
1666088170620082671,0.0,0.0,0.0
1666088170620101453,0.0,0.0,0.0
1666088170631473639,0.0,0.0,0.0
1666088170651224409,0.0,0.0,0.0
1666088170692252435,0.0,0.0,0.0
1666088170692267441,0.0,0.0,0.0
1666088170736167365,0.0,0.0,0.0
1666088170736202701,0.0,0.0,0.0
1666088170784435047,0.0,0.0,0.0
1666088170784483634,0.0,0.0,0.0
1666088170828227491,0.0,0.0,0.0
1666088170828250907,0.0,0.0,0.0
1666088170872178618,0.0,0.0,0.0
1666088170872202506,0.0,0.0,0.0
1666088170872209245,0.0,0.0,0.0
1666088170920122072,0.0,0.0,0.0
1666088170920140801,0.0,0.0,0.0
1666088170930980950,0.0,0.0,0.0
1666088170951344600,0.0,0.0,0.0
1666088170996130181,0.0,0.0,0.0
1666088170996148501,-0.0001279381247058393,4.4658832112724954e-08,0.0
1666088171040117564,-0.0007249827066664226,2.530667153054414e-07,0.0
1666088171040134352,-0.0008529208313722619,2.9772554741816635e-07,0.0
1666088171088195146,-0.0005970445819605834,2.0840788319271645e-07,0.0
1666088171088221165,-0.0004691064806380532,1.190902244088666e-07,0.0
1666088171136076924,-0.00042646078007558706,-5.210150906084385e-08,0.0
1666088171136089873,-0.0002558869153444941,-1.9277347005146207e-06,0.0
1666088171136095303,-0.000341164131025847,-3.349955729304352e-07,0.0
1666088171180088808,-0.0003837893650895927,9.971095595652677e-07,0.0
1666088171180109001,-0.0003837893650895927,9.971095595652677e-07,0.0
1666088171192879905,-0.00021350017216249898,-9.03045751371475e-06,0.0
1666088171212699037,-0.00021350017216249898,-9.03045751371475e-06,0.0
1666088171256043986,-0.0002984193141854748,-1.063045739858859e-06,0.0
1666088171256050789,-0.0002984193141854748,-1.063045739858859e-06,0.0
1666088171300212438,-0.00021387450325110693,-1.2328713778839507e-05,0.0
1666088171300250941,-0.00042458325947540787,2.0366043098011157e-05,0.0
1666088171344446067,-0.000759852769899679,8.353407850002353e-05,0.0
1666088171344503330,-0.000926758630864531,0.00011876751297285873,0.0
1666088171388102093,-0.0010098141734994326,0.0001381715633210354,0.0
1666088171388131993,-0.00109244144217027,0.00015932516358883295,0.0
1666088171432299674,-0.0011335245119535383,0.0001707648515328389,0.0
1666088171432389938,-0.001174352552208958,0.00018308378866129882,0.0
1666088171476130873,-0.0012149113504079647,0.00019626214105169184,0.0
1666088171476158559,-0.0011747890294639821,0.0001818093058578213,0.0
1666088171476176354,-0.0012145945339612095,0.0001971131254723599,0.0
1666088171524425522,-0.0013330233603895464,0.0002455153859409066,0.0
1666088171524492082,-0.001372156050252595,0.0002624658333437208,0.0
1666088171533482068,-0.0012946302101061913,0.00022690624333080334,0.0
1666088171552142959,-0.0012946302101061913,0.00022690624333080334,0.0
1666088171596640681,-0.0013326078181727036,0.0002463069229224956,0.0
1666088171596716828,-0.0013326078181727036,0.0002463069229224956,0.0
1666088171640132304,-0.0013326078181727036,0.0002463069229224956,0.0
1666088171640176747,-0.0013326078181727036,0.0002463069229224956,0.0
1666088171684092880,-0.0013326078181727036,0.0002463069229224956,0.0
1666088171684109639,-0.0012970007625611579,0.00022283731121396032,0.0
1666088171732593420,-0.0012970007625611579,0.00022283731121396032,0.0
1666088171732635964,-0.0013316979444330166,0.0002476322835515996,0.0
1666088171776246127,-0.0013659304956319036,0.00027306489099733163,0.0
1666088171776279550,-0.0013321697434008778,0.0002470092449322575,0.0
1666088171776288075,-0.0013321697434008778,0.0002470092449322575,0.0
1666088171820109183,-0.0014624035914554295,0.00035718231854860904,0.0
1666088171820121997,-0.0014944714922055762,0.00038529521282422343,0.0
1666088171831719642,-0.0014313367422898985,0.0003279476436919807,0.0
1666088171854076939,-0.0014313367422898985,0.0003279476436919807,0.0
1666088171900090676,-0.0015229634925884392,0.00041723764524527354,0.0
1666088171900104271,-0.001552986935621637,0.00044752424214069024,0.0
1666088171944567606,-0.0014944703919924525,0.0003854714061540386,0.0
1666088171944657650,-0.0014657195594533871,0.00035397418863591885,0.0
1666088171988158311,-0.0015221688811841445,0.0004179133347705832,0.0
1666088171988185334,-0.0015775842973438686,0.0004827506078790129,0.0
1666088172032257708,-0.001550383484340027,0.0004499055039059217,0.0
1666088172032300992,-0.0015236787163497624,0.00041665583549164623,0.0
1666088172076908742,-0.0014974760097119899,0.0003830090934810449,0.0
1666088172076994439,-0.0015231707517681659,0.0004170453287860799,0.0
1666088172077018736,-0.001573087157856884,0.0004862052357805135,0.0
1666088172120114424,-0.0015241168612082974,0.00041637221795626396,0.0
1666088172120133071,-0.0015001031540225157,0.0003811298152250558,0.0
1666088172132745876,-0.0015236472894448142,0.00041668763813773705,0.0
1666088172152856595,-0.0015005706086270397,0.0003808246783392529,0.0
1666088172196176449,-0.0015005706086270397,0.0003808246783392529,0.0
1666088172196203629,-0.001544983193073445,0.00045364131569009084,0.0
1666088172240510873,-0.0015667814235911365,0.0004902954045393681,0.0
1666088172240560463,-0.0015455874500994262,0.00045328864068860947,0.0
1666088172288070039,-0.0015455874500994262,0.00045328864068860947,0.0
1666088172288100102,-0.0015660540238925254,0.0004907026011879305,0.0
1666088172332132416,-0.0015459081630737406,0.0004531149785583562,0.0
1666088172332158743,-0.0015459081630737406,0.0004531149785583562,0.0
1666088172376237835,-0.001565487591853556,0.0004910007417383328,0.0
1666088172376281315,-0.0015848020531221566,0.0005290222707577824,0.0
1666088172376305652,-0.0016037573174160099,0.0005672241429451936,0.0
1666088172420171970,-0.001641253909091524,0.0006438318837095074,0.0
1666088172420187689,-0.0016041455426789198,0.0005670353377293629,0.0
1666088172433383359,-0.0015674263521813872,0.0004900519539280618,0.0
1666088172453370388,-0.0015674263521813872,0.0004900519539280618,0.0
1666088172496326747,-0.0015674263521813872,0.0004900519539280618,0.0
1666088172496382177,-0.0015674263521813872,0.0004900519539280618,0.0
1666088172544225388,-0.0015674263521813872,0.0004900519539280618,0.0
1666088172544252114,-0.0015674263521813872,0.0004900519539280618,0.0
1666088172592394366,-0.0015495721705235223,0.000451323240027377,0.0
1666088172592458406,-0.0015674331113451443,0.0004900488371956538,0.0
1666088172636138047,-0.0015674331113451443,0.0004900488371956538,0.0
1666088172636155048,-0.0015674331113451443,0.0004900488371956538,0.0
1666088172636182005,-0.0015852940521667662,0.0005287744343639307,0.0
1666088172681072280,-0.0015674331113451443,0.0004900488371956538,0.0
1666088172681105712,-0.0015674331113451443,0.0004900488371956538,0.0
1666088172692603640,-0.0015674331113451443,0.0004900488371956538,0.0
1666088172713731808,-0.0015495586538284399,0.0004513294770310455,0.0
1666088172760391553,-0.0014959555555045282,0.00033516203926238665,0.0
1666088172760430489,-0.0014602201566219204,0.0002577170807499474,0.0
1666088172804420012,-0.0014780878560632243,0.000296439560006167,0.0
1666088172804458676,-0.0014780878560632243,0.000296439560006167,0.0
1666088172848128391,-0.0014780878560632243,0.000296439560006167,0.0
1666088172848148914,-0.0014423254259679885,0.0002190070802190913,0.0
1666088172896290576,-0.00142443745393415,0.00018029396177598808,0.0
1666088172896339167,-0.0014602133980018272,0.00025772019866219457,0.0
1666088172896358476,-0.0014602133980018272,0.00025772019866219457,0.0
1666088172944283858,-0.0014423254259679887,0.00021900708021909134,0.0
1666088172944343907,-0.001406535969017668,0.00014158708859229212,0.0
1666088172953456615,-0.0014244374533890455,0.00018029396059681424,0.0
1666088172974969185,-0.0014423456931113297,0.00021899770761338007,0.0
1666088173016130842,-0.0014423456931113297,0.00021899770761338007,0.0
1666088173016150104,-0.0014244239443239862,0.00018030021410958216,0.0
1666088173060247656,-0.0014244239443239862,0.00018030021410958216,0.0
1666088173060307658,-0.0014423794562166434,0.00021898205320425003,0.0
1666088173108140826,-0.0014603552194106602,0.00025765448551288246,0.0
1666088173108151926,-0.001424363200276222,0.00018032845567222174,0.0
1666088173152225407,-0.0013883172061644766,0.00010302757184293717,0.0
1666088173152249773,-0.0014425480431668597,0.0002189032900313442,0.0
1666088173196260860,-0.0014244441364027575,0.00018029068013574367,0.0
1666088173196283911,-0.0014063200146059596,0.00014168755471605823,0.0
1666088173197660312,-0.0014063200146059596,0.00014168755471605823,0.0
1666088173240486223,-0.0014245249467898329,0.0001802526364254713,0.0
1666088173240560572,-0.0014062796393361832,0.00014170664001864682,0.0
1666088173254494217,-0.001424558577565804,0.00018023669971586038,0.0
1666088173274682830,-0.0014428778543496641,0.00021874759663075265,0.0
1666088173316191858,-0.0014428778543496641,0.00021874759663075265,0.0
1666088173316229060,-0.0014428778543496641,0.00021874759663075265,0.0
1666088173364266047,-0.0014428778543496641,0.00021874759663075265,0.0
1666088173364321541,-0.0014614588400838771,0.00025713290700097246,0.0
1666088173408102045,-0.001442837667542154,0.00021876707563705562,0.0
1666088173408118559,-0.0014241696362038772,0.00018042402295438253,0.0
1666088173452317466,-0.0014054480860789709,0.00014210707312804918,0.0
1666088173452350882,-0.0013866596888091822,0.00010382285691423954,0.0
1666088173496123616,-0.0013866596888091822,0.00010382285691423954,0.0
1666088173496137405,-0.001367757782851134,6.559455543187916e-05,0.0
1666088173496311539,-0.0014056683114388403,0.00014199829980670166,0.0
1666088173540453460,-0.0013866530631942708,0.00010382624959623323,0.0
1666088173540480051,-0.0013675778779172196,6.568411554844697e-05,0.0
1666088173553067044,-0.0013866996483542285,0.00010380291640088024,0.0
1666088173574416648,-0.001367531321298898,6.570750564088165e-05,0.0
1666088173616126549,-0.0013290484620535653,-1.040957441738413e-05,0.0
1666088173616146242,-0.00130974727397876,-4.843784313914059e-05,0.0
1666088173660213422,-0.001348455807424896,2.7564721098797396e-05,0.0
1666088173660244653,-0.001348455807424896,2.7564721098797396e-05,0.0
1666088173704112915,-0.0012901344904099586,-8.630709160874386e-05,0.0
1666088173704129801,-0.0012706476923704977,-0.0001242405832123703,0.0
1666088173748218188,-0.0013097139483454123,-4.842127184386094e-05,0.0
1666088173748235339,-0.001290134519565597,-8.630703502383755e-05,0.0
1666088173792178212,-0.001290134519565597,-8.630703502383755e-05,0.0
1666088173792203508,-0.001270449370256306,-0.000124137974474822,0.0
1666088173836533042,-0.001290187322316034,-8.633455754511837e-05,0.0
1666088173836561766,-0.0012505927040099448,-0.00016187928954866453,0.0
1666088173836570266,-0.0012704559081918008,-0.00012414153388271346,0.0
1666088173880220379,-0.0012704559081918008,-0.00012414153388271346,0.0
1666088173880253844,-0.0012504808214313886,-0.00016182018821095522,0.0
1666088173894367131,-0.0012304531448332375,-0.00019947091533743973,0.0
1666088173914100117,-0.0012505596329466402,-0.00016186221662532356,0.0
1666088173956106108,-0.001230407212156999,-0.0001994463225664041,0.0
1666088173956125297,-0.0011698515778617179,-0.0003121458385491906,0.0
1666088174000302028,-0.0011698515778617179,-0.0003121458385491906,0.0
1666088174000324520,-0.0011901154240696232,-0.0002746216913911872,0.0
1666088174044431033,-0.0011698122937847813,-0.0003121245977280282,0.0
1666088174044515725,-0.0011088047437560961,-0.00042458012043436596,0.0
1666088174088098865,-0.001129199450227098,-0.00038712693590975167,0.0
1666088174088116876,-0.0011087851361110952,-0.00042456943665751556,0.0
1666088174132185533,-0.0010679173037824873,-0.0004994330500691945,0.0
1666088174132217921,-0.0010474572602690478,-0.0005368505820896432,0.0
1666088174176115736,-0.0010269710993784495,-0.0005742538211878503,0.0
1666088174176131503,-0.0010269710993784495,-0.0005742538211878503,0.0
1666088174176136283,-0.0010064457811474134,-0.0006116355867238415,0.0
1666088174220287726,-0.0010064457811474134,-0.0006116355867238415,0.0
1666088174220308111,-0.0010064457811474134,-0.0006116355867238415,0.0
1666088174234600383,-0.0010064457811474134,-0.0006116355867238415,0.0
1666088174254341658,-0.0010064457811474134,-0.0006116355867238415,0.0
1666088174300137515,-0.0010064457811474134,-0.0006116355867238415,0.0
1666088174300157887,-0.0010064457811474134,-0.0006116355867238415,0.0
1666088174344235571,-0.0010064457811474134,-0.0006116355867238415,0.0
1666088174344274686,-0.0010064457811474134,-0.0006116355867238415,0.0
1666088174388651079,-0.0010064457811474134,-0.0006116355867238415,0.0
1666088174388692404,-0.0010064457811474134,-0.0006116355867238415,0.0
1666088174432245372,-0.0010064457811474134,-0.0006116355867238415,0.0
1666088174432283159,-0.0010064457811474134,-0.0006116355867238415,0.0
1666088174476069287,-0.0010064457811474134,-0.0006116355867238415,0.0
1666088174476093922,-0.0010064457811474134,-0.0006116355867238415,0.0
1666088174476098709,-0.0010064457811474134,-0.0006116355867238415,0.0
1666088174520152703,-0.0010064457811474134,-0.0006116355867238415,0.0
1666088174520207870,-0.0010064457811474134,-0.0006116355867238415,0.0
1666088174533696947,-0.0010064457811474134,-0.0006116355867238415,0.0
1666088174553840076,-0.0010064457811474134,-0.0006116355867238415,0.0
1666088174596657487,-0.0010064457811474134,-0.0006116355867238415,0.0
1666088174596713501,-0.0010064457811474134,-0.0006116355867238415,0.0
1666088174640137995,-0.0010064457811474134,-0.0006116355867238415,0.0
1666088174640157616,-0.0010064457811474134,-0.0006116355867238415,0.0
1666088174684220297,-0.0010064457811474134,-0.0006116355867238415,0.0
1666088174684252552,-0.0010064457811474134,-0.0006116355867238415,0.0
1666088174728196617,-0.0010064457811474134,-0.0006116355867238415,0.0
1666088174728218320,-0.0010064457811474134,-0.0006116355867238415,0.0
1666088174772212255,-0.0010064457811474134,-0.0006116355867238415,0.0
1666088174772243945,-0.0010064457811474134,-0.0006116355867238415,0.0
1666088174816199016,-0.0010064457811474134,-0.0006116355867238415,0.0
1666088174816234962,-0.0010064457811474134,-0.0006116355867238415,0.0
1666088174816253372,-0.0010064457811474134,-0.0006116355867238415,0.0
1666088174860126213,-0.0010064457811474134,-0.0006116355867238415,0.0
1666088174860167748,-0.0010064457811474134,-0.0006116355867238415,0.0
1666088174875083271,-0.0010064457811474134,-0.0006116355867238415,0.0
1666088174893956900,-0.0010064457811474134,-0.0006116355867238415,0.0
1666088174940477917,-0.0010064457811474134,-0.0006116355867238415,0.0
1666088174940499101,-0.0010064457811474134,-0.0006116355867238415,0.0
1666088174984092539,-0.0010064457811474134,-0.0006116355867238415,0.0
1666088174984104655,-0.0010064457811474134,-0.0006116355867238415,0.0
1666088175028203084,-0.0010064457811474134,-0.0006116355867238415,0.0
1666088175028233045,-0.0010064457811474134,-0.0006116355867238415,0.0
1666088175072325089,-0.0010064457811474134,-0.0006116355867238415,0.0
1666088175072377333,-0.0010064457811474134,-0.0006116355867238415,0.0
1666088175116331898,-0.0010064457811474134,-0.0006116355867238415,0.0
1666088175116361697,-0.0010064457811474134,-0.0006116355867238415,0.0
1666088175116424827,-0.0010064457811474134,-0.0006116355867238415,0.0
1666088175160139661,-0.0010064457811474134,-0.0006116355867238415,0.0
1666088175160167273,-0.0010064457811474134,-0.0006116355867238415,0.0
1666088175174982154,-0.0010064457811474134,-0.0006116355867238415,0.0
1666088175194379406,-0.0010064457811474134,-0.0006116355867238415,0.0
1666088175240148677,-0.0010064457811474134,-0.0006116355867238415,0.0
1666088175240182767,-0.0010064457811474134,-0.0006116355867238415,0.0
1666088175284139768,-0.0010064457811474134,-0.0006116355867238415,0.0
1666088175284162100,-0.0010064457811474134,-0.0006116355867238415,0.0
1666088175332064614,-0.0010064457811474134,-0.0006116355867238415,0.0
1666088175332078705,-0.0010064457811474134,-0.0006116355867238415,0.0
1666088175376141625,-0.0010064457811474134,-0.0006116355867238415,0.0
1666088175376160080,-0.0010064457811474134,-0.0006116355867238415,0.0
1666088175376172670,-0.0010064457811474134,-0.0006116355867238415,0.0
1666088175420669584,-0.0010064457811474134,-0.0006116355867238415,0.0
1666088175420759530,-0.0010064457811474134,-0.0006116355867238415,0.0
1666088175435253063,-0.0010064457811474134,-0.0006116355867238415,0.0
1666088175454312736,-0.0010064457811474134,-0.0006116355867238415,0.0
1666088175496232016,-0.0010064457811474134,-0.0006116355867238415,0.0
1666088175496264060,-0.0010064457811474134,-0.0006116355867238415,0.0
1666088175540124854,-0.0010064457811474134,-0.0006116355867238415,0.0
1666088175540141749,-0.0010064457811474134,-0.0006116355867238415,0.0
1666088175584211569,-0.0010064457811474134,-0.0006116355867238415,0.0
1666088175584256124,-0.0010064457811474134,-0.0006116355867238415,0.0
1666088175628196343,-0.0010064457811474134,-0.0006116355867238415,0.0
1666088175628232484,-0.0010064457811474134,-0.0006116355867238415,0.0
1666088175672527801,-0.0010064457811474134,-0.0006116355867238415,0.0
1666088175672589024,-0.0010064457811474134,-0.0006116355867238415,0.0
1666088175716237636,-0.0010064457811474134,-0.0006116355867238415,0.0
1666088175716268816,-0.0010064457811474134,-0.0006116355867238415,0.0
1666088175716326030,-0.0010064457811474134,-0.0006116355867238415,0.0
1666088175760130106,-0.0010064457811474134,-0.0006116355867238415,0.0
1666088175760153025,-0.0010064457811474134,-0.0006116355867238415,0.0
1666088175775485585,-0.0010064457811474134,-0.0006116355867238415,0.0
1666088175794638652,-0.0010064457811474134,-0.0006116355867238415,0.0
1666088175840468427,-0.0010064457811474134,-0.0006116355867238415,0.0
1666088175840504070,-0.0010064457811474134,-0.0006116355867238415,0.0
1666088175884368366,-0.0010064457811474134,-0.0006116355867238415,0.0
1666088175884420532,-0.0010064457811474134,-0.0006116355867238415,0.0
1666088175928371956,-0.0010064457811474134,-0.0006116355867238415,0.0
1666088175928448565,-0.0010064457811474134,-0.0006116355867238415,0.0
1666088175976746977,-0.0010064457811474134,-0.0006116355867238415,0.0
1666088175976768864,-0.0010064457811474134,-0.0006116355867238415,0.0
1666088175976795726,-0.0010064457811474134,-0.0006116355867238415,0.0
1666088176020204619,-0.0010064457811474134,-0.0006116355867238415,0.0
1666088176020237451,-0.0010064457811474134,-0.0006116355867238415,0.0
1666088176036321929,-0.0010064457811474134,-0.0006116355867238415,0.0
1666088176055130065,-0.0010064457811474134,-0.0006116355867238415,0.0
1666088176096198183,-0.0010064457811474134,-0.0006116355867238415,0.0
1666088176140148539,-0.0010064457811474134,-0.0006116355867238415,0.0
1666088176140167207,-0.0010064457811474134,-0.0006116355867238415,0.0
1666088176140209223,-0.0010064457811474134,-0.0006116355867238415,0.0
1666088176184203599,-0.0010064457811474134,-0.0006116355867238415,0.0
1666088176184234164,-0.0010064457811474134,-0.0006116355867238415,0.0
1666088176195556729,-0.0010064457811474134,-0.0006116355867238415,0.0
1666088176215355353,-0.0010064457811474134,-0.0006116355867238415,0.0
1666088176256085207,-0.0010064457811474134,-0.0006116355867238415,0.0
1666088176256097856,-0.0010064457811474134,-0.0006116355867238415,0.0
1666088176300069154,-0.0010064457811474134,-0.0006116355867238415,0.0
1666088176300084278,-0.0010064457811474134,-0.0006116355867238415,0.0
1666088176348080509,-0.0010064457811474134,-0.0006116355867238415,0.0
1666088176348099692,-0.0010064457811474134,-0.0006116355867238415,0.0
1666088176392067851,-0.0010064457811474134,-0.0006116355867238415,0.0
1666088176392081379,-0.0010064457811474134,-0.0006116355867238415,0.0
1666088176440306903,-0.0010064457811474134,-0.0006116355867238415,0.0
1666088176440334207,-0.0010064457811474134,-0.0006116355867238415,0.0
1666088176440342430,-0.0010064457811474134,-0.0006116355867238415,0.0
1666088176484057276,-0.0010064457811474134,-0.0006116355867238415,0.0
1666088176484069902,-0.0010064457811474134,-0.0006116355867238415,0.0
1666088176495412644,-0.0010064457811474134,-0.0006116355867238415,0.0
1666088176515153600,-0.0010064457811474134,-0.0006116355867238415,0.0
1666088176556083995,-0.0010064457811474134,-0.0006116355867238415,0.0
1666088176556118331,-0.0010064457811474134,-0.0006116355867238415,0.0
1666088176604529642,-0.0010064457811474134,-0.0006116355867238415,0.0
1666088176604602182,-0.0010064457811474134,-0.0006116355867238415,0.0
1666088176648082068,-0.000944752421958575,-0.0007237163396640995,0.0
1666088176648102003,-0.0009241879688956289,-0.0007610765906441854,0.0
1666088176692107219,-0.0008008012505179523,-0.0009852380965247015,0.0
1666088176692120650,-0.0006568500790773295,-0.0012467598533853035,0.0
1666088176736198185,-0.0005128532656722117,-0.0015082564820437913,0.0
1666088176736224382,-0.0003070783356961854,-0.0018817871856019787,0.0
1666088176736237424,-6.0070191398695625e-05,-0.002329980925644431,0.0
1666088176780186425,0.0003106766761633955,-0.0030021421615905332,0.0
1666088176780211488,0.0007025158234189185,-0.0037113723059495167,0.0
1666088176799132828,0.0009916953419705531,-0.0042337107808224465,0.0
1666088176816014326,0.0014886814422995281,-0.005128455115216312,0.0
1666088176856604571,0.00200735102743552,-0.006059937824865591,0.0
1666088176900087984,0.0026932820934462646,-0.007288777370187926,0.0
1666088176900104307,0.0032348950775516073,-0.008256292998798617,0.0
1666088176900116637,0.003840319849279619,-0.009334706185217713,0.0
1666088176948060615,0.004635114419828499,-0.01074696779362588,0.0
1666088176948075449,0.0054520891893472465,-0.012195681787940844,0.0
1666088176956213378,0.006376085532635946,-0.013828839795733933,0.0
1666088176976188462,0.0071971026840892596,-0.015275266720391282,0.0
1666088177020611283,0.00808344908474668,-0.01683172119919323,0.0
1666088177020678829,0.009119737609072242,-0.018646320047095908,0.0
1666088177064138099,0.01017943628365775,-0.02049665823963384,0.0
1666088177064165813,0.01136919122796739,-0.022567377823017383,0.0
1666088177108235418,0.012519590019214991,-0.02456233855529692,0.0
1666088177108289451,0.013758567811191173,-0.02670313061676572,0.0
1666088177152070728,0.015065950870502358,-0.028952147453150286,0.0
1666088177152089625,0.01641944080883663,-0.03127301498093923,0.0
1666088177196442438,0.01784077611964952,-0.03370241782034297,0.0
1666088177196485345,0.01926634937133329,-0.03612933626272012,0.0
1666088177196505845,0.02069573305729393,-0.03855401242670081,0.0
1666088177240066988,0.022280928713603043,-0.041233364501161246,0.0
1666088177240082685,0.023891156466633114,-0.043947454790425805,0.0
1666088177256535241,0.02565733129664414,-0.04691612777677481,0.0
1666088177276005038,0.027364075803138814,-0.049771281579106166,0.0
1666088177316264380,0.029204790901010188,-0.05284445744043145,0.0
1666088177360040094,0.031026771636123,-0.055879141565372395,0.0
1666088177360050162,0.032896451033025714,-0.05898466868294855,0.0
1666088177360058026,0.034902168241406586,-0.06230696151365048,0.0
1666088177404530721,0.036933442514496595,-0.06566363775222542,0.0
1666088177404611764,0.038991531600380894,-0.0690539292733285,0.0
1666088177415940884,0.041100525656673,-0.0725130876890793,0.0
1666088177435817660,0.04325823311068902,-0.07604243699022799,0.0
1666088177480069846,0.04559789528182318,-0.07986041865150467,0.0
1666088177480083024,0.047941554350409574,-0.08367594813129041,0.0
1666088177524082899,0.050199773331255665,-0.08734376131723315,0.0
1666088177524099500,0.05264031451107905,-0.09129996609221361,0.0
1666088177572179085,0.055128448287109014,-0.09532702571694265,0.0
1666088177572209807,0.057798920412386316,-0.09964246058373366,0.0
1666088177616280638,0.06042747212069003,-0.10388353309183367,0.0
1666088177616341474,0.06317067024143826,-0.10830441228570267,0.0
1666088177616363041,0.06587117435115343,-0.11265140466545956,0.0
1666088177660092498,0.06852890784015093,-0.11692455617203774,0.0
1666088177660121108,0.07143602662864605,-0.12159503781925558,0.0
1666088177676021822,0.07436732398686124,-0.1263007018214615,0.0
1666088177696420157,0.07727933209740022,-0.13096813658068152,0.0
1666088177740163337,0.08030590094603642,-0.1358154234874084,0.0
1666088177740178640,0.08338021795745605,-0.1407334489255102,0.0
1666088177784162401,0.08654672307094569,-0.1457950171602056,0.0
1666088177784198274,0.08978288634941567,-0.15096391825220232,0.0
1666088177828112937,0.09301995172201916,-0.15613225444843162,0.0
1666088177828131113,0.0963720681641409,-0.16148013191693172,0.0
1666088177872699716,0.0996571507107972,-0.1667190331885026,0.0
1666088177872784550,0.10312540859635047,-0.172245766975194,0.0
1666088177920328351,0.10661730568249236,-0.1778080138386437,0.0
1666088177920352209,0.1102235783102763,-0.18355022380687616,0.0
1666088177920376884,0.1137854785623275,-0.18921958313638662,0.0
1666088177964542098,0.11730298112021148,-0.19481610749317374,0.0
1666088177964611100,0.1210474193269912,-0.20077369793749553,0.0
1666088177976607390,0.12483724466355008,-0.20680350159932423,0.0
1666088178000777297,0.1287643215396684,-0.21304925960459087,0.0
1666088178044100510,0.13262436994511062,-0.2191860360555019,0.0
1666088178044122146,0.13646384148790686,-0.22528537396462855,0.0
1666088178088124201,0.14051002413604616,-0.23170811669262145,0.0
1666088178088152023,0.14460393641196145,-0.23820159641990785,0.0
1666088178132247232,0.1487456281868659,-0.2447657805987227,0.0
1666088178132291254,0.1528668419053638,-0.251292459654186,0.0
1666088178176100616,0.1570586787799449,-0.2579258528876244,0.0
1666088178176120007,0.1614579796346685,-0.2648821703508386,0.0
1666088178220072398,0.16581529585760138,-0.2717641210807521,0.0
1666088178220088731,0.17033354937667727,-0.2788975014248917,0.0
1666088178220094024,0.1748086285665449,-0.28595726575493496,0.0
1666088178264211969,0.1792608757197295,-0.2929810108792127,0.0
1666088178264241247,0.18391861120306113,-0.30032892885538015,0.0
1666088178276558344,0.18864614403768104,-0.3077840794522622,0.0
1666088178298008889,0.19339651519517354,-0.3152752452694191,0.0
1666088178340105063,0.19812534912702387,-0.3227295706426223,0.0
1666088178340124825,0.20280978222572732,-0.33011105607307056,0.0
1666088178384158707,0.20772272425607483,-0.3378526139635407,0.0
1666088178384186954,0.21268136807275115,-0.3456661863460152,0.0
1666088178428073646,0.21761580347989934,-0.3534446128224012,0.0
1666088178428089050,0.22259592810378037,-0.3612950617661611,0.0
1666088178472517913,0.22766882638627872,-0.36928867037864654,0.0
1666088178472562839,0.23287739709382402,-0.3774992316592762,0.0
1666088178516154061,0.23815304967738538,-0.38581874754275325,0.0
1666088178516179351,0.24349868803512925,-0.3942453762255047,0.0
1666088178560215516,0.2487772443561073,-0.4025630500520098,0.0
1666088178560256323,0.2540771934971183,-0.41091765626738735,0.0
1666088178560279405,0.2594868961992284,-0.41945515233508296,0.0
1666088178604368204,0.2650092060558767,-0.4281737283112536,0.0
1666088178604431456,0.2706015147563702,-0.4369994099002217,0.0
1666088178617422860,0.27623792192410623,-0.44589812174366855,0.0
1666088178638762481,0.2818743290918423,-0.4547968335871154,0.0
1666088178684059794,0.28764606209918264,-0.46391271596757677,0.0
1666088178684072956,0.2934846246519198,-0.47313771097690094,0.0
1666088178730854563,0.29934437764568134,-0.4823997639838752,0.0
1666088178730882975,0.3052285539683618,-0.4916968292667097,0.0
1666088178772192589,0.3110459133235863,-0.5008847739584791,0.0
1666088178772211754,0.31704412407112487,-0.5103620149250895,0.0
1666088178816225459,0.32317579210180186,-0.5200576076587922,0.0
1666088178816253544,0.3293741318806135,-0.529862411643191,0.0
1666088178860032579,0.33545685169318495,-0.5394880420417131,0.0
1666088178860041835,0.341583442283094,-0.5491868439800914,0.0
1666088178860049605,0.34782218570225654,-0.5590670100640525,0.0
1666088178904075749,0.35423953229853705,-0.5692378888466118,0.0
1666088178904086968,0.36063235339086147,-0.5793738165952724,0.0
1666088178917383994,0.367023405332707,-0.589510859947314,0.0
1666088178937254942,0.3734809009108504,-0.5997572551631255,0.0
1666088178980148393,0.3800220914512196,-0.6101525349498846,0.0
1666088178980168760,0.3866259188340857,-0.620659558097143,0.0
1666088179024488096,0.39329041437887435,-0.6312795563539226,0.0
1666088179024606014,0.3998152679887848,-0.6416850981898703,0.0
1666088179072068529,0.4063872617035463,-0.652161753863299,0.0
1666088179072084303,0.4130517572483349,-0.6627817521200786,0.0
1666088179120135454,0.41989379124206044,-0.6736931189063848,0.0
1666088179120151511,0.4265716533743543,-0.6843550711993054,0.0
1666088179120165207,0.4332910417832349,-0.6950916540776424,0.0
1666088179168131613,0.4400085562025665,-0.7058294095469605,0.0
1666088179168154581,0.4467958172216378,-0.7166744427574019,0.0
1666088179177437189,0.4537207540273148,-0.7277351681710452,0.0
1666088179197559753,0.46071163287695827,-0.7389055523777999,0.0
1666088179240134206,0.46756485465829656,-0.7498602322000334,0.0
1666088179240168684,0.47450273548491934,-0.7609631624452498,0.0
1666088179284100030,0.4815251219634209,-0.772214434731817,0.0
1666088179284122824,0.48856811832379426,-0.7835031141494654,0.0
1666088179328037766,0.49553753870473466,-0.7946868992855738,0.0
1666088179328048506,0.5024315611773515,-0.8057669196188444,0.0
1666088179372243182,0.5094793334843379,-0.8171028652967518,0.0
1666088179372280675,0.5165026166652159,-0.8284038198620912,0.0
1666088179416244099,0.5235709208921252,-0.8397772164438752,0.0
1666088179416282051,0.5305247189746418,-0.8509707218217492,0.0
1666088179464250252,0.537521559072274,-0.8622378984231912,0.0
1666088179464279478,0.544587878159362,-0.8736125284835551,0.0
1666088179464298782,0.551678692909287,-0.8850221460735612,0.0
1666088179508070280,0.5586344445211181,-0.8962144376142339,0.0
1666088179508089730,0.5655941025558658,-0.907404300457731,0.0
1666088179517156919,0.5726213300860965,-0.9187028027463107,0.0
1666088179538111886,0.579759169770808,-0.9301836167395907,0.0
1666088179584534975,0.5868049634747017,-0.9415207923131524,0.0
1666088179584672397,0.593711812059824,-0.9526430534599136,0.0
1666088179628290972,0.6006617024482968,-0.9638389854892322,0.0
1666088179628382119,0.6075402475789354,-0.97492862089011,0.0
1666088179672065262,0.6144598537854101,-0.9860931536464759,0.0
1666088179672080785,0.6213511660367689,-0.9972250477282947,0.0
1666088179716236767,0.6281693638507876,-1.008251732597565,0.0
1666088179716260038,0.6349574589714228,-1.019246887140593,0.0
1666088179760776767,0.6417097573101903,-1.0302140117163823,0.0
1666088179760817590,0.6485213972438046,-1.0412948393600048,0.0
1666088179760826308,0.6552583760109062,-1.0522713812292923,0.0
1666088179804102039,0.6619265343091365,-1.0631400485818965,0.0
1666088179804119578,0.6686131871634319,-1.0740474007391676,0.0
1666088179818419880,0.6752756537269473,-1.0849195580412794,0.0
1666088179838041828,0.6820214805486229,-1.0959406958810771,0.0
1666088179880190525,0.6886871804798569,-1.1068608653808298,0.0
1666088179880212494,0.6953617084473487,-1.1178255981009046,0.0
1666088179928119371,0.7019987966313628,-1.128763180919526,0.0
1666088179928135637,0.7084881704046216,-1.139491083411227,0.0
1666088179972108801,0.7150324098169252,-1.1503353133519492,0.0
1666088179972125626,0.721659031727639,-1.161329064725523,0.0
1666088180016209117,0.7282579001872956,-1.1722897486699095,0.0
1666088180016236464,0.7348491150385457,-1.1832550368221306,0.0
1666088180060242824,0.7414069110269009,-1.1941906473166084,0.0
1666088180060264390,0.748024720069248,-1.2052394462466112,0.0
1666088180060269834,0.754592954835339,-1.2162185149472842,0.0
1666088180107486737,0.7611773150252011,-1.2272376296168783,0.0
1666088180107516431,0.7678234149295808,-1.2383688899542475,0.0
1666088180117784308,0.7744894277410262,-1.2495379298883924,0.0
1666088180138263789,0.7811097923097101,-1.2606348858570162,0.0
1666088180180169438,0.7877937489803509,-1.2718428794180257,0.0
1666088180228408889,0.7943884029747752,-1.2829055144120234,0.0
1666088180228430106,0.80100489357183,-1.2940047806477233,0.0
1666088180228436460,0.8076432207715154,-1.3051406781251251,0.0
1666088180272282981,0.8141903651469872,-1.3161323366898419,0.0
1666088180272309093,0.8207554833348979,-1.3271629264469795,0.0
1666088180277578653,0.8273424125466887,-1.3382301626817157,0.0
1666088180300553896,0.834016585854,-1.3494439848268458,0.0
1666088180340486384,0.840647137113551,-1.360584514016779,0.0
1666088180340530837,0.8473193531380371,-1.3717995008540975,0.0
1666088180384274685,0.8540133737900542,-1.3830511379751982,0.0
1666088180384303775,0.86066183409795,-1.3942306350742277,0.0
1666088180428170725,0.8672865512814226,-1.4053746344854037,0.0
1666088180428201461,0.87388753793469,-1.4164831282624757,0.0
1666088180472274891,0.8805558387838434,-1.4277004434592515,0.0
1666088180472305639,0.8872459314658371,-1.4389544165488273,0.0
1666088180516094584,0.8938449792206621,-1.450064062246211,0.0
1666088180516113716,0.8997000965687805,-1.4599291254561464,0.0
1666088180560405728,0.9054430028393605,-1.4696128284212935,0.0
1666088180560461111,0.9113999347855284,-1.4796654182908506,0.0
1666088180560487341,0.9165479100506567,-1.4883632383108765,0.0
1666088180604253867,0.9214887044942283,-1.496737668179521,0.0
1666088180604274071,0.9244632467133452,-1.5018157718914134,0.0
1666088180619188222,0.9273736911347563,-1.5068325151145012,0.0
1666088180637527344,0.9312391793807312,-1.5136121865938037,0.0
1666088180684257422,0.934352710840588,-1.5191513696904153,0.0
1666088180684280569,0.9360252934305694,-1.5221737628332301,0.0
1666088180732535443,0.9369436434790861,-1.5238588356748641,0.0
1666088180732633024,0.9377507896603777,-1.5253616367844403,0.0
1666088180776161175,0.9396658722746221,-1.5289801254615292,0.0
1666088180776175800,0.9420501718106934,-1.5335564213461463,0.0
1666088180820535981,0.9438283231647202,-1.537053781537105,0.0
1666088180820566183,0.9450109846518974,-1.5394185938480678,0.0
1666088180820634877,0.9464052803522025,-1.5422496818041402,0.0
1666088180864312054,0.9479513934259869,-1.5454337760082058,0.0
1666088180864351521,0.9493687022426147,-1.5483959069262865,0.0
1666088180878654838,0.9505870796256173,-1.5509804056959715,0.0
1666088180898395632,0.9515768601518143,-1.5531068715165897,0.0
1666088180940270676,0.9524500586583869,-1.5550053412299583,0.0
1666088180940303726,0.9533612193209207,-1.5570271005409746,0.0
1666088180988171546,0.9543472109292445,-1.5592489755111787,0.0
1666088180988227168,0.9551995117245451,-1.5612035332775323,0.0
1666088181032474897,0.9560049295493973,-1.5630854345923761,0.0
1666088181032549493,0.9568793530475216,-1.5651696778469606,0.0
1666088181080166410,0.9577520817440428,-1.5673007879624894,0.0
1666088181080184424,0.9586370390394393,-1.5695189509424892,0.0
1666088181080320597,0.9595014402150441,-1.571745204977439,0.0
1666088181124244507,0.96036443211329,-1.5740632432866608,0.0
1666088181124280829,0.9613084167006669,-1.5766695505545743,0.0
1666088181139212399,0.9621866689153161,-1.5791634828926293,0.0
1666088181158927326,0.9630698504828175,-1.5817459864103605,0.0
1666088181200340797,0.9639179049973804,-1.5842953323333466,0.0
1666088181200365926,0.9647047825902139,-1.5867300992529838,0.0
1666088181248159851,0.9654963434811091,-1.5892528867619387,0.0
1666088181248184434,0.9662447553533563,-1.5917443134342681,0.0
1666088181296243367,0.9669855246159956,-1.5942824793781856,0.0
1666088181296268158,0.9676735708288243,-1.5967026932495592,0.0
1666088181344073719,0.9683003871062351,-1.5989629197272974,0.0
1666088181344091895,0.9689575425971104,-1.601391703257172,0.0
1666088181344110196,0.9696002739105437,-1.6038243436401531,0.0
1666088181388163219,0.9702183275409971,-1.6062193522683925,0.0
1666088181388193517,0.9708238325207709,-1.6086175641729012,0.0
1666088181398471133,0.9713999566725112,-1.6109791290770878,0.0
1666088181418586038,0.971971498352606,-1.6133856611727335,0.0
1666088181460221871,0.9725667308917205,-1.6159618451109865,0.0
1666088181460251461,0.9730986548674188,-1.6183337567280123,0.0
1666088181504134620,0.9736428763556408,-1.6208339745726852,0.0
1666088181504156409,0.9741629991820778,-1.6232957452808539,0.0
1666088181548251737,0.9746672138523453,-1.6257608234419807,0.0
1666088181548285261,0.9751886034405306,-1.6283964474652528,0.0
1666088181592127897,0.9756865125218436,-1.631036607998528,0.0
1666088181592156279,0.9761466610497377,-1.6335536557992938,0.0
1666088181640179726,0.976585742314444,-1.6360311647129329,0.0
1666088181640203847,0.9769965649534788,-1.638427022094782,0.0
1666088181640221068,0.9774144773254388,-1.6409514260934372,0.0
1666088181684156791,0.9778124214648052,-1.6434358743694377,0.0
1666088181684192050,0.9781921072359389,-1.6458800297111982,0.0
1666088181699534828,0.9785568555204932,-1.648326458804463,0.0
1666088181719233469,0.9789126347442348,-1.65077420833483,0.0
1666088181764103633,0.9792594401277633,-1.6532232454201787,0.0
1666088181764124256,0.9795931234625124,-1.6556310583836407,0.0
1666088181808218489,0.979933294374786,-1.658124073932052,0.0
1666088181808237842,0.9802629939415398,-1.6605754724747497,0.0
1666088181852114319,0.9805922838177422,-1.6630699485623497,0.0
1666088181852133270,0.9809200696245088,-1.6656076291498045,0.0
1666088181900233868,0.981233679848434,-1.6681041249742807,0.0
1666088181900295377,0.9815416249006345,-1.6706013259311527,0.0
1666088181900318551,0.981842159263826,-1.6730994295860715,0.0
1666088181948345191,0.9821344079643318,-1.675598516113431,0.0
1666088181948379863,0.9824279935451345,-1.6781833052152457,0.0
1666088181959454623,0.9826896443620736,-1.68055710707524,0.0
1666088181979061022,0.9829583270960363,-1.683058836949277,0.0
1666088182024154994,0.9832098856997927,-1.685476609912932,0.0
1666088182024183594,0.9834654657835825,-1.6879797123069518,0.0
1666088182068430550,0.9837128484708872,-1.690440780860544,0.0
1666088182068512010,0.9839483826821009,-1.6928173161655342,0.0
1666088182112122450,0.9841855895873247,-1.6952365393299031,0.0
1666088182112144817,0.9844289342020061,-1.6977408608293683,0.0
1666088182156371373,0.9846660058493262,-1.7002029440232298,0.0
1666088182156401773,0.9848928280411733,-1.7025803266415316,0.0
1666088182204330447,0.9851220112090402,-1.7050003231106345,0.0
1666088182204363505,0.9853619228188515,-1.7075478137815774,0.0
1666088182204406031,0.9855960870018892,-1.7100530103625986,0.0
1666088182248158381,0.9858249927836165,-1.712515866177004,0.0
1666088182248177154,0.986056970681331,-1.7150212661508901,0.0
1666088182259344593,0.986291101605582,-1.7175692946062595,0.0
1666088182279041731,0.9865079634796219,-1.7199476064756545,0.0
1666088182324123550,0.9867394259868251,-1.722495878715197,0.0
1666088182324136719,0.9869665934373257,-1.7250017194371126,0.0
1666088182372156135,0.9871933235326574,-1.7275075997690614,0.0
1666088182372168572,0.9874076947258792,-1.729886137431583,0.0
1666088182420166824,0.9876292920704457,-1.7323496615813203,0.0
1666088182420201163,0.9878618991373795,-1.7349406500310298,0.0
1666088182420280736,0.9880788307190878,-1.7373617754973703,0.0
1666088182468266217,0.9882881506663501,-1.7396979491929618,0.0
1666088182468303484,0.988500861274922,-1.7420766359351618,0.0
1666088182479053364,0.9887240922813832,-1.744582830399271,0.0
1666088182498650226,0.9889355573833885,-1.746961628190415,0.0
1666088182540330981,0.9891428385550621,-1.749297983662548,0.0
1666088182584090568,0.9893534732871271,-1.7516768551240114,0.0
1666088182584109837,0.9895707706356031,-1.7541407622817191,0.0
1666088182584114055,0.9897838988562575,-1.756562225516308,0.0
1666088182628353571,0.9900040678027239,-1.7590686908380688,0.0
1666088182628419314,0.990227523547528,-1.7616176776621182,0.0
1666088182639146774,0.9904356670161858,-1.7639967683953548,0.0
1666088182660385220,0.9906512441801528,-1.7664608266547785,0.0
1666088182704122033,0.990855670801156,-1.7687974336249217,0.0
1666088182704148854,0.9910638142698138,-1.7711765243581583,0.0
1666088182748114677,0.9912719577384717,-1.773555615091395,0.0
1666088182748134158,0.991483395407079,-1.775977226527443,0.0
1666088182792062377,0.9917018144571356,-1.778483844945302,0.0
1666088182792072112,0.9919102934121868,-1.7809057128938501,0.0
1666088182836163147,0.992116658809636,-1.7833277618524057,0.0
1666088182836184419,0.9923280772180351,-1.7858349804369666,0.0
1666088182880482375,0.9925223065541565,-1.788172457140869,0.0
1666088182880555205,0.992708197444214,-1.790467828631333,0.0
1666088182924287791,0.9928976488584499,-1.79289125925682,0.0
1666088182924304875,0.9930831065320065,-1.7953577673291314,0.0
1666088182924415465,0.9932560777641165,-1.7978251824892373,0.0
1666088182968394824,0.9934042981946988,-1.8000805576470127,0.0
1666088182968437199,0.9935424788896662,-1.8023792946475805,0.0
1666088182979665668,0.9936707963271768,-1.804764023365013,0.0
1666088182999919424,0.9937588609574973,-1.8066383816396543,0.0
1666088183044260628,0.993838600584457,-1.8086411589463964,0.0
1666088183044300911,0.993908434994336,-1.8108149857693678,0.0
1666088183088276380,0.9939583960242717,-1.8129040445957167,0.0
1666088183088323950,0.9939748079453471,-1.8148230464044885,0.0
1666088183132058571,0.993977755423478,-1.8138848380627115,0.0
1666088183132083240,0.9939837841180084,-1.8135010710154404,0.0
1666088183176127042,0.993955199069531,-1.8144815134175984,0.0
1666088183176174946,0.9939016847286934,-1.8157170903557893,0.0
1666088183220090246,0.9938992967308291,-1.8157596694885807,0.0
1666088183220110774,0.9939075528738329,-1.815631998027986,0.0
1666088183265636102,0.9939045631863388,-1.8156745391475266,0.0
1666088183265697048,0.993881920595665,-1.8159722015102098,0.0
1666088183265715780,0.9938719717302484,-1.8160997522288458,0.0
1666088183308159152,0.9938752805980702,-1.8160572347444799,0.0
1666088183308190442,0.9938752805980702,-1.8160572347444799,0.0
1666088183319729263,0.9938752805980702,-1.8160572347444799,0.0
1666088183339630718,0.9938752805980702,-1.8160572347444799,0.0
1666088183380131496,0.9938785449398803,-1.816014713818389,0.0
1666088183380152644,0.9938785449398803,-1.816014713818389,0.0
1666088183424201931,0.9938818092816903,-1.8159721928922983,0.0
1666088183424226050,0.9938818092816903,-1.8159721928922983,0.0
1666088183472203200,0.9938818092816903,-1.8159721928922983,0.0
1666088183472245779,0.9938784929932182,-1.8160147097985102,0.0
1666088183516163595,0.9938684773437683,-1.8161422552904485,0.0
1666088183516188094,0.9938617854036449,-1.8162272844517384,0.0
1666088183560175330,0.99385843201344,-1.816269798447754,0.0
1666088183560204549,0.9938550712031943,-1.816312311857845,0.0
1666088183560209488,0.9938517178129894,-1.8163548258538607,0.0
1666088183604257511,0.9938483718429277,-1.8163973404345057,0.0
1666088183604297387,0.9938483718429277,-1.8163973404345057,0.0
1666088183620808769,0.9938483718429277,-1.8163973404345057,0.0
1666088183639685111,0.9938483718429277,-1.8163973404345057,0.0
1666088183680497316,0.9938450407134578,-1.8164398561805244,0.0
1666088183724190567,0.9938450407134578,-1.8164398561805244,0.0
1666088183724212297,0.99384835700193,-1.8163973392743125,0.0
1666088183724218797,0.99384835700193,-1.8163973392743125,0.0
1666088183768327046,0.99384835700193,-1.8163973392743125,0.0
1666088183768377635,0.99384835700193,-1.8163973392743125,0.0
1666088183779769797,0.99384835700193,-1.8163973392743125,0.0
1666088183799864377,0.99384835700193,-1.8163973392743125,0.0
1666088183840649657,0.9938450703966636,-1.8164398584853694,0.0
1666088183888190897,0.9938417837913972,-1.8164823776964263,0.0
1666088183888217064,0.9938450629756114,-1.8164398579123961,0.0
1666088183888225447,0.9938450629756114,-1.8164398579123961,0.0
1666088183932111344,0.9938450629756114,-1.8164398579123961,0.0
1666088183932131351,0.9938450629756114,-1.8164398579123961,0.0
1666088183941132191,0.9938450629756114,-1.8164398579123961,0.0
1666088183968891306,0.9938450629756114,-1.8164398579123961,0.0
1666088184012070629,0.9938450629756114,-1.8164398579123961,0.0
1666088184012083938,0.9938418208981525,-1.8164823805418635,0.0
1666088184056085822,0.9938418208981525,-1.8164823805418635,0.0
1666088184056101427,0.9938418208981525,-1.8164823805418635,0.0
1666088184100197611,0.9938418208981525,-1.8164823805418635,0.0
1666088184100214232,0.9938418208981525,-1.8164823805418635,0.0
1666088184148300149,0.9938385936640888,-1.8165249043004388,0.0
1666088184148332515,0.9938385936640888,-1.8165249043004388,0.0
1666088184148355804,0.9938385936640888,-1.8165249043004388,0.0
1666088184196127346,0.9938353590082782,-1.8165674274951078,0.0
1666088184196145637,0.9938353590082782,-1.8165674274951078,0.0
1666088184200558076,0.9938353590082782,-1.8165674274951078,0.0
1666088184220343297,0.9938353590082782,-1.8165674274951078,0.0
1666088184264075668,0.9938353590082782,-1.8165674274951078,0.0
1666088184264089311,0.9938353590082782,-1.8165674274951078,0.0
1666088184308278838,0.9938353590082782,-1.8165674274951078,0.0
1666088184308319677,0.9938353590082782,-1.8165674274951078,0.0
1666088184352351315,0.9938353590082782,-1.8165674274951078,0.0
1666088184352421343,0.9938353590082782,-1.8165674274951078,0.0
1666088184396256197,0.9938353590082782,-1.8165674274951078,0.0
1666088184396304338,0.9938321243524677,-1.8166099506897768,0.0
1666088184445050160,0.9938321243524677,-1.8166099506897768,0.0
1666088184445082212,0.9938321243524677,-1.8166099506897768,0.0
1666088184484445949,0.9938288971184039,-1.816652474448352,0.0
1666088184484513473,0.9938288971184039,-1.816652474448352,0.0
1666088184484550936,0.9938288971184039,-1.816652474448352,0.0
1666088184528151159,0.9938288971184039,-1.816652474448352,0.0
1666088184528188570,0.9938288971184039,-1.816652474448352,0.0
1666088184542442330,0.9938288971184039,-1.816652474448352,0.0
1666088184559913614,0.9938288971184039,-1.816652474448352,0.0
1666088184600162811,0.9938288971184039,-1.816652474448352,0.0
1666088184648828434,0.9938288971184039,-1.816652474448352,0.0
1666088184648847925,0.9938288971184039,-1.816652474448352,0.0
1666088184648876046,0.9938288971184039,-1.816652474448352,0.0
1666088184688118950,0.9938288971184039,-1.816652474448352,0.0
1666088184688132362,0.9938288971184039,-1.816652474448352,0.0
1666088184701069069,0.9938288971184039,-1.816652474448352,0.0
1666088184720439116,0.9938288971184039,-1.816652474448352,0.0
1666088184764086833,0.9938288971184039,-1.816652474448352,0.0
1666088184764096513,0.9938288971184039,-1.816652474448352,0.0
1666088184812181829,0.9938288971184039,-1.816652474448352,0.0
1666088184812204941,0.9938288971184039,-1.816652474448352,0.0
1666088184856192211,0.9938288971184039,-1.816652474448352,0.0
1666088184856220640,0.9938288971184039,-1.816652474448352,0.0
1666088184900234876,0.9938288971184039,-1.816652474448352,0.0
1666088184900264295,0.9938288971184039,-1.816652474448352,0.0
1666088184944203060,0.9938288971184039,-1.816652474448352,0.0
1666088184944253508,0.9938288971184039,-1.816652474448352,0.0
1666088184944271327,0.9938288971184039,-1.816652474448352,0.0
1666088184988106983,0.9938288971184039,-1.816652474448352,0.0
1666088184988115255,0.9938288971184039,-1.816652474448352,0.0
1666088185000981449,0.9938288971184039,-1.816652474448352,0.0
1666088185021048715,0.9938288971184039,-1.816652474448352,0.0
1666088185064204809,0.9938288971184039,-1.816652474448352,0.0
1666088185064232156,0.9938288971184039,-1.816652474448352,0.0
1666088185112425570,0.9938288971184039,-1.816652474448352,0.0
1666088185112476977,0.9938288971184039,-1.816652474448352,0.0
1666088185160082340,0.9938288971184039,-1.816652474448352,0.0
1666088185160095354,0.9938288971184039,-1.816652474448352,0.0
1666088185204421151,0.9938288971184039,-1.816652474448352,0.0
1666088185204494414,0.9938288971184039,-1.816652474448352,0.0
1666088185204859197,0.9938288971184039,-1.816652474448352,0.0
1666088185248182399,0.9938288971184039,-1.816652474448352,0.0
1666088185248203062,0.9938288971184039,-1.816652474448352,0.0
1666088185260667414,0.9938288971184039,-1.816652474448352,0.0
1666088185281095142,0.9938288971184039,-1.816652474448352,0.0
1666088185328169919,0.9938288971184039,-1.816652474448352,0.0
1666088185328221919,0.9938288971184039,-1.816652474448352,0.0
1666088185380069506,0.9938288971184039,-1.816652474448352,0.0
1666088185380109989,0.9938288971184039,-1.816652474448352,0.0
1666088185424127843,0.9938288971184039,-1.816652474448352,0.0
1666088185424221491,0.9938288971184039,-1.816652474448352,0.0
1666088185424239057,0.9938288971184039,-1.816652474448352,0.0
1666088185468158271,0.9938288971184039,-1.816652474448352,0.0
1666088185468182787,0.9938288971184039,-1.816652474448352,0.0
1666088185480981975,0.9938288971184039,-1.816652474448352,0.0
1666088185501518693,0.9938288971184039,-1.816652474448352,0.0
1666088185544373979,0.9938288971184039,-1.816652474448352,0.0
1666088185544420682,0.9938288971184039,-1.816652474448352,0.0
1666088185588097915,0.9938288971184039,-1.816652474448352,0.0
1666088185588114279,0.9938288971184039,-1.816652474448352,0.0
1666088185632263804,0.9938288971184039,-1.816652474448352,0.0
1666088185632308222,0.9938288971184039,-1.816652474448352,0.0
1666088185676234362,0.9938288971184039,-1.816652474448352,0.0
1666088185676311526,0.9938288971184039,-1.816652474448352,0.0
1666088185720097667,0.9938288971184039,-1.816652474448352,0.0
1666088185720147232,0.9938256995723082,-1.8166950004495988,0.0
1666088185764740508,0.9938256995723082,-1.8166950004495988,0.0
1666088185764825357,0.9938256995723082,-1.8166950004495988,0.0
1666088185764846048,0.9938256995723082,-1.8166950004495988,0.0
1666088185812164453,0.9938256995723082,-1.8166950004495988,0.0
1666088185812187648,0.9938256995723082,-1.8166950004495988,0.0
1666088185822161292,0.9938256995723082,-1.8166950004495988,0.0
1666088185842323275,0.9938256995723082,-1.8166950004495988,0.0
1666088185888277705,0.9938256995723082,-1.8166950004495988,0.0
1666088185888300962,0.9938256995723082,-1.8166950004495988,0.0
1666088185932148444,0.9938256995723082,-1.8166950004495988,0.0
1666088185932164320,0.9938256995723082,-1.8166950004495988,0.0
1666088185980212820,0.9938256995723082,-1.8166950004495988,0.0
1666088185980250585,0.9938256995723082,-1.8166950004495988,0.0
1666088186024347456,0.9938256995723082,-1.8166950004495988,0.0
1666088186024383701,0.9938256995723082,-1.8166950004495988,0.0
1666088186024472882,0.9938256995723082,-1.8166950004495988,0.0
1666088186068075275,0.9938256995723082,-1.8166950004495988,0.0
1666088186068094397,0.9938256995723082,-1.8166950004495988,0.0
1666088186081875960,0.9938256995723082,-1.8166950004495988,0.0
1666088186102205094,0.9938256995723082,-1.8166950004495988,0.0
1666088186148204206,0.9938256995723082,-1.8166950004495988,0.0
1666088186148234305,0.9938256995723082,-1.8166950004495988,0.0
