%time,field.linear.x,field.linear.y,field.linear.z,field.angular.x,field.angular.y,field.angular.z
1666088164608515136,0.0,0.0,0.0,0.0,0.0,0.0
1666088164628318305,0.0,0.0,0.0,0.0,0.0,0.0
1666088164647520047,0.0,0.0,0.0,0.0,0.0,0.0
1666088164667571685,0.0,0.0,0.0,0.0,0.0,0.0
1666088164687795058,0.0,0.0,0.0,0.0,0.0,0.0
1666088164708709360,0.0,0.0,0.0,0.0,0.0,0.0
1666088164728261942,0.0,0.0,0.0,0.0,0.0,0.0
1666088164749094679,0.0,0.0,0.0,0.0,0.0,0.0
1666088164768647649,0.0,0.0,0.0,0.0,0.0,0.0
1666088164812077974,0.0,0.0,0.0,0.0,0.0,0.0
1666088164812092097,0.0,0.0,0.0,0.0,0.0,0.0
1666088164856189916,0.0,0.0,0.0,0.0,0.0,0.0
1666088164856219525,0.0,0.0,0.0,0.0,0.0,0.0
1666088164900100667,0.0,0.0,0.0,0.0,0.0,0.0
1666088164900116492,0.0,0.0,0.0,0.0,0.0,0.0
1666088164948238060,0.0,0.0,0.0,0.0,0.0,0.0
1666088164948266622,0.0,0.0,0.0,0.0,0.0,0.0
1666088164992386461,0.0,0.0,0.0,0.0,0.0,0.0
1666088164992425769,0.0,0.0,0.0,0.0,0.0,0.0
1666088164992483585,0.0,0.0,0.0,0.0,0.0,0.0
1666088165040168997,0.0,0.0,0.0,0.0,0.0,0.0
1666088165040210520,0.0,0.0,0.0,0.0,0.0,0.0
1666088165049726708,0.0,0.0,0.0,0.0,0.0,0.0
1666088165068260321,0.0,0.0,0.0,0.0,0.0,0.0
1666088165112077518,0.0,0.0,0.0,0.0,0.0,0.0
1666088165112095934,0.0,0.0,0.0,0.0,0.0,0.0
1666088165156198691,0.0,0.0,0.0,0.0,0.0,0.0
1666088165156229925,0.0,0.0,0.0,0.0,0.0,0.0
1666088165200092951,0.0,0.0,0.0,0.0,0.0,0.0
1666088165200108197,0.0,0.0,0.0,0.0,0.0,0.0
1666088165244200538,0.0,0.0,0.0,0.0,0.0,0.0
1666088165244223415,0.0,0.0,0.0,0.0,0.0,0.0
1666088165288126785,0.0,0.0,0.0,0.0,0.0,0.0
1666088165288155941,0.0,0.0,0.0,0.0,0.0,0.0
1666088165332065399,0.0,0.0,0.0,0.0,0.0,0.0
1666088165332082468,0.0,0.0,0.0,0.0,0.0,0.0
1666088165332095312,0.0,0.0,0.0,0.0,0.0,0.0
1666088165376363816,0.0,0.0,0.0,0.0,0.0,0.0
1666088165376397529,0.0,0.0,0.0,0.0,0.0,0.0
1666088165388313570,0.0,0.0,0.0,0.0,0.0,0.0
1666088165408350131,0.0,0.0,0.0,0.0,0.0,0.0
1666088165452180689,0.0,0.0,0.0,0.0,0.0,0.0
1666088165452211014,0.0,0.0,0.0,0.0,0.0,0.0
1666088165496113593,0.0,0.0,0.0,0.0,0.0,0.0
1666088165496127650,0.0,0.0,0.0,0.0,0.0,0.0
1666088165540081762,0.0,0.0,0.0,0.0,0.0,0.0
1666088165540099248,0.0,0.0,0.0,0.0,0.0,0.0
1666088165584236374,0.0,0.0,0.0,0.0,0.0,0.0
1666088165584273100,0.0,0.0,0.0,0.0,0.0,0.0
1666088165628057903,0.0,0.0,0.0,0.0,0.0,0.0
1666088165628069355,0.0,0.0,0.0,0.0,0.0,0.0
1666088165672077563,0.0,0.0,0.0,0.0,0.0,0.0
1666088165672092684,0.0,0.0,0.0,0.0,0.0,0.0
1666088165672121756,0.0,0.0,0.0,0.0,0.0,0.0
1666088165716101296,0.0,0.0,0.0,0.0,0.0,0.0
1666088165716123373,0.0,0.0,0.0,0.0,0.0,0.0
1666088165728343158,0.0,0.0,0.0,0.0,0.0,0.0
1666088165748313599,0.0,0.0,0.0,0.0,0.0,0.0
1666088165792094051,0.0,0.0,0.0,0.0,0.0,0.0
1666088165792117167,0.0,0.0,0.0,0.0,0.0,0.0
1666088165840125468,0.0,0.0,0.0,0.0,0.0,0.0
1666088165840143563,0.0,0.0,0.0,0.0,0.0,0.0
1666088165884212818,0.0,0.0,0.0,0.0,0.0,0.0
1666088165884253558,0.0,0.0,0.0,0.0,0.0,0.0
1666088165928124023,0.0,0.0,0.0,0.0,0.0,0.0
1666088165928139364,0.0,0.0,0.0,0.0,0.0,0.0
1666088165972084533,0.0,0.0,0.0,0.0,0.0,0.0
1666088165972100917,0.0,0.0,0.0,0.0,0.0,0.0
1666088165972106522,0.0,0.0,0.0,0.0,0.0,0.0
1666088166016068017,0.0,0.0,0.0,0.0,0.0,0.0
1666088166016079855,0.0,0.0,0.0,0.0,0.0,0.0
1666088166028874895,0.0,0.0,0.0,0.0,0.0,0.0
1666088166049041881,0.0,0.0,0.0,0.0,0.0,0.0
1666088166096151074,0.0,0.0,0.0,0.0,0.0,0.0
1666088166096185457,0.0,0.0,0.0,0.0,0.0,0.0
1666088166140088002,0.0,0.0,0.0,0.0,0.0,0.0
1666088166140107262,0.0,0.0,0.0,0.0,0.0,0.0
1666088166184158707,0.0,0.0,0.0,0.0,0.0,0.0
1666088166184174351,0.0,0.0,0.0,0.0,0.0,0.0
1666088166232150281,0.0,0.0,0.0,0.0,0.0,0.0
1666088166232172151,0.0,0.0,0.0,0.0,0.0,0.0
1666088166232190226,0.0,0.0,0.0,0.0,0.0,0.0
1666088166280070786,0.0,0.0,0.0,0.0,0.0,0.0
1666088166280084617,0.0,0.0,0.0,0.0,0.0,0.0
1666088166289430551,0.0,0.0,0.0,0.0,0.0,0.0
1666088166308835573,0.0,0.0,0.0,0.0,0.0,0.0
1666088166352121449,0.0,0.0,0.0,0.0,0.0,0.0
1666088166352140082,0.0,0.0,0.0,0.0,0.0,0.0
1666088166396072940,0.0,0.0,0.0,0.0,0.0,0.0
1666088166396083351,0.0,0.0,0.0,0.0,0.0,0.0
1666088166440084621,0.0,0.0,0.0,0.0,0.0,0.0
1666088166440107194,0.0,0.0,0.0,0.0,0.0,0.0
1666088166488298238,0.0,0.0,0.0,0.0,0.0,0.0
1666088166488337577,0.0,0.0,0.0,0.0,0.0,0.0
1666088166536634680,0.0,0.0,0.0,0.0,0.0,0.0
1666088166536678940,0.0,0.0,0.0,0.0,0.0,0.0
1666088166536712919,0.0,0.0,0.0,0.0,0.0,0.0
1666088166584297112,0.0,0.0,0.0,0.0,0.0,0.0
1666088166584333912,0.0,0.0,0.0,0.0,0.0,0.0
1666088166589975043,0.0,0.0,0.0,0.0,0.0,0.0
1666088166610007183,0.0,0.0,0.0,0.0,0.0,0.0
1666088166652347016,0.0,0.0,0.0,0.0,0.0,0.0
1666088166652373689,0.0,0.0,0.0,0.0,0.0,0.0
1666088166696078316,0.0,0.0,0.0,0.0,0.0,0.0
1666088166696097582,0.0,0.0,0.0,0.0,0.0,0.0
1666088166740070480,0.0,0.0,0.0,0.0,0.0,0.0
1666088166740083380,0.0,0.0,0.0,0.0,0.0,0.0
1666088166788141937,0.0,0.0,0.0,0.0,0.0,0.0
1666088166788163667,0.0,0.0,0.0,0.0,0.0,0.0
1666088166832093878,0.0,0.0,0.0,0.0,0.0,0.0
1666088166832112108,0.0,0.0,0.0,0.0,0.0,0.0
1666088166832123313,0.0,0.0,0.0,0.0,0.0,0.0
1666088166880145874,0.0,0.0,0.0,0.0,0.0,0.0
1666088166880167206,0.0,0.0,0.0,0.0,0.0,0.0
1666088166889879152,0.0,0.0,0.0,0.0,0.0,0.0
1666088166909646504,0.0,0.0,0.0,0.0,0.0,0.0
1666088166952075312,0.0,0.0,0.0,0.0,0.0,0.0
1666088166952089654,0.0,0.0,0.0,0.0,0.0,0.0
1666088167000098287,0.0,0.0,0.0,0.0,0.0,0.0
1666088167000125370,0.0,0.0,0.0,0.0,0.0,0.0
1666088167044064101,0.0,0.0,0.0,0.0,0.0,0.0
1666088167044071963,0.0,0.0,0.0,0.0,0.0,0.0
1666088167088242568,0.0,0.0,0.0,0.0,0.0,0.0
1666088167088290089,0.0,0.0,0.0,0.0,0.0,0.0
1666088167132130503,0.0,0.0,0.0,0.0,0.0,0.0
1666088167132144660,0.0,0.0,0.0,0.0,0.0,0.0
1666088167132154730,0.0,0.0,0.0,0.0,0.0,0.0
1666088167180171661,0.0,0.0,0.0,0.0,0.0,0.0
1666088167180187610,0.0,0.0,0.0,0.0,0.0,0.0
1666088167190437281,0.0,0.0,0.0,0.0,0.0,0.0
1666088167209371800,0.0,0.0,0.0,0.0,0.0,0.0
1666088167252141714,0.0,0.0,0.0,0.0,0.0,0.0
1666088167252157629,0.0,0.0,0.0,0.0,0.0,0.0
1666088167296208194,0.0,0.0,0.0,0.0,0.0,0.0
1666088167296226609,0.0,0.0,0.0,0.0,0.0,0.0
1666088167340151405,0.0,0.0,0.0,0.0,0.0,0.0
1666088167340173842,0.0,0.0,0.0,0.0,0.0,0.0
1666088167384305880,0.0,0.0,0.0,0.0,0.0,0.0
1666088167384349197,0.0,0.0,0.0,0.0,0.0,0.0
1666088167428069798,0.0,0.0,0.0,0.0,0.0,0.0
1666088167428081994,0.0,0.0,0.0,0.0,0.0,0.0
1666088167476284194,0.0,0.0,0.0,0.0,0.0,0.0
1666088167476321468,0.0,0.0,0.0,0.0,0.0,0.0
1666088167476357690,0.0,0.0,0.0,0.0,0.0,0.0
1666088167520271089,0.0,0.0,0.0,0.0,0.0,0.0
1666088167520308313,0.0,0.0,0.0,0.0,0.0,0.0
1666088167529433088,0.0,0.0,0.0,0.0,0.0,0.0
1666088167549718679,0.0,0.0,0.0,0.0,0.0,0.0
1666088167592194907,0.0,0.0,0.0,0.0,0.0,0.0
1666088167592228586,0.0,0.0,0.0,0.0,0.0,0.0
1666088167636079741,0.0,0.0,0.0,0.0,0.0,0.0
1666088167636097434,0.0,0.0,0.0,0.0,0.0,0.0
1666088167680081027,0.0,0.0,0.0,0.0,0.0,0.0
1666088167680096645,0.0,0.0,0.0,0.0,0.0,0.0
1666088167724226455,0.0,0.0,0.0,0.0,0.0,0.0
1666088167724263190,0.0,0.0,0.0,0.0,0.0,0.0
1666088167768208998,0.0,0.0,0.0,0.0,0.0,0.0
1666088167768240255,0.0,0.0,0.0,0.0,0.0,0.0
1666088167816253397,0.0,0.0,0.0,0.0,0.0,0.0
1666088167816279441,0.0,0.0,0.0,0.0,0.0,0.0
1666088167816296461,0.0,0.0,0.0,0.0,0.0,0.0
1666088167860183436,0.0,0.0,0.0,0.0,0.0,0.0
1666088167860216022,0.0,0.0,0.0,0.0,0.0,0.0
1666088167870248068,0.0,0.0,0.0,0.0,0.0,0.0
1666088167889980709,0.0,0.0,0.0,0.0,0.0,0.0
1666088167932210240,0.0,0.0,0.0,0.0,0.0,0.0
1666088167932249221,0.0,0.0,0.0,0.0,0.0,0.0
1666088167976073934,0.0,0.0,0.0,0.0,0.0,0.0
1666088167976110401,0.0,0.0,0.0,0.0,0.0,0.0
1666088168020359491,0.0,0.0,0.0,0.0,0.0,0.0
1666088168020398490,0.0,0.0,0.0,0.0,0.0,0.0
1666088168064164273,0.0,0.0,0.0,0.0,0.0,0.0
1666088168064187827,0.0,0.0,0.0,0.0,0.0,0.0
1666088168112166353,0.0,0.0,0.0,0.0,0.0,0.0
1666088168112182990,0.0,0.0,0.0,0.0,0.0,0.0
1666088168112219788,0.0,0.0,0.0,0.0,0.0,0.0
1666088168156114543,0.0,0.0,0.0,0.0,0.0,-0.002617993877991494
1666088168156125434,0.0,0.0,0.0,0.0,0.0,0.00034906585039886593
1666088168170396185,0.0,0.0,0.0,0.0,0.0,-0.0012217304763960308
1666088168190174142,0.0,0.0,0.0,0.0,0.0,0.0015707963267948967
1666088168232542279,0.0,0.0,0.0,0.0,0.0,0.006632251157578452
1666088168276112699,0.0,0.0,0.0,0.0,0.0,-0.0008726646259971648
1666088168276131191,0.0,0.0,0.0,0.0,0.0,0.0
1666088168276141493,0.0,0.0,0.0,0.0,0.0,0.003490658503988659
1666088168320511863,0.0,0.0,0.0,0.0,0.0,0.0008726646259971648
1666088168320578709,0.0,0.0,0.0,0.0,0.0,-0.00034906585039886593
1666088168331024648,0.0,0.0,0.0,0.0,0.0,0.0005235987755982988
1666088168351396934,0.0,0.0,0.0,0.0,0.0,0.003316125578789226
1666088168392205141,0.0,0.0,0.0,0.0,0.0,0.0020943951023931952
1666088168392225566,0.0,0.0,0.0,0.0,0.0,-0.003490658503988659
1666088168436529939,0.0,0.0,0.0,0.0,0.0,-0.002617993877991494
1666088168436580936,0.0,0.0,0.0,0.0,0.0,0.00017453292519943296
1666088168480413738,0.0,0.0,0.0,0.0,0.0,-0.0010471975511965976
1666088168480459687,0.0,0.0,0.0,0.0,0.0,-0.0024434609527920616
1666088168524166994,0.0,0.0,0.0,0.0,0.0,0.00034906585039886593
1666088168524189411,0.0,0.0,0.0,0.0,0.0,0.0
1666088168568441118,0.0,0.0,0.0,0.0,0.0,0.002967059728390361
1666088168568497224,0.0,0.0,0.0,0.0,0.0,0.0010471975511965976
1666088168616069099,0.0,0.0,0.0,0.0,0.0,-0.0010471975511965976
1666088168616085154,0.0,0.0,0.0,0.0,0.0,-0.0010471975511965976
1666088168616095002,0.0,0.0,0.0,0.0,0.0,0.0017453292519943296
1666088168660338677,0.0,0.0,0.0,0.0,0.0,0.0012217304763960308
1666088168660366097,0.0,0.0,0.0,0.0,0.0,0.0031415926535897933
1666088168669985039,0.0,0.0,0.0,0.0,0.0,0.003316125578789226
1666088168691301150,0.0,0.0,0.0,0.0,0.0,-0.0006981317007977319
1666088168732707005,0.0,0.0,0.0,0.0,0.0,0.0005235987755982988
1666088168780437487,0.0,0.0,0.0,0.0,0.0,0.002617993877991494
1666088168780499035,0.0,0.0,0.0,0.0,0.0,0.0020943951023931952
1666088168782000801,0.0,0.0,0.0,0.0,0.0,-0.0013962634015954637
1666088168824268675,0.0,0.0,0.0,0.0,0.0,0.0
1666088168824326531,0.0,0.0,0.0,0.0,0.0,0.0012217304763960308
1666088168830789321,0.0,0.0,0.0,0.0,0.0,0.0012217304763960308
1666088168852398383,0.0,0.0,0.0,0.0,0.0,-0.0010471975511965976
1666088168892100792,0.0,0.0,0.0,0.0,0.0,-0.0019198621771937623
1666088168892112257,0.0,0.0,0.0,0.0,0.0,-0.00017453292519943296
1666088168936095819,0.0,0.0,0.0,0.0,0.0,-0.004014257279586958
1666088168936113623,0.0,0.0,0.0,0.0,0.0,-0.003490658503988659
1666088168980064028,0.0,0.0,0.0,0.0,0.0,-0.0006981317007977319
1666088168980073062,0.0,0.0,0.0,0.0,0.0,-0.0017453292519943296
1666088169024327684,0.0,0.0,0.0,0.0,0.0,-0.002617993877991494
1666088169024358455,0.0,0.0,0.0,0.0,0.0,-0.00034906585039886593
1666088169072122564,0.0,0.0,0.0,0.0,0.0,0.0005235987755982988
1666088169072141042,0.0,0.0,0.0,0.0,0.0,-0.0005235987755982988
1666088169072146138,0.0,0.0,0.0,0.0,0.0,0.0019198621771937623
1666088169120564015,0.0,0.0,0.0,0.0,0.0,0.00017453292519943296
1666088169120596797,0.0,0.0,0.0,0.0,0.0,-0.002967059728390361
1666088169130729748,0.0,0.0,0.0,0.0,0.0,-0.0013962634015954637
1666088169151090454,0.0,0.0,0.0,0.0,0.0,0.003490658503988659
1666088169196511121,0.0,0.0,0.0,0.0,0.0,0.002617993877991494
1666088169196534685,0.0,0.0,0.0,0.0,0.0,-0.00017453292519943296
1666088169240197661,0.0,0.0,0.0,0.0,0.0,-0.0024434609527920616
1666088169240211264,0.0,0.0,0.0,0.0,0.0,-0.0005235987755982988
1666088169284101481,0.0,0.0,0.0,0.0,0.0,0.0027925268031909274
1666088169284120676,0.0,0.0,0.0,0.0,0.0,-0.0013962634015954637
1666088169332169193,0.0,0.0,0.0,0.0,0.0,-0.0038397243543875246
1666088169332198437,0.0,0.0,0.0,0.0,0.0,-0.0024434609527920616
1666088169332214719,0.0,0.0,0.0,0.0,0.0,0.002967059728390361
1666088169376080414,0.0,0.0,0.0,0.0,0.0,-0.00017453292519943296
1666088169376097148,0.0,0.0,0.0,0.0,0.0,-0.0024434609527920616
1666088169391810157,0.0,0.0,0.0,0.0,0.0,-0.0005235987755982988
1666088169411010050,0.0,0.0,0.0,0.0,0.0,0.0010471975511965976
1666088169456164652,0.0,0.0,0.0,0.0,0.0,0.0008726646259971648
1666088169456189144,0.0,0.0,0.0,0.0,0.0,0.0
1666088169500261685,0.0,0.0,0.0,0.0,0.0,0.0006981317007977319
1666088169500335354,0.0,0.0,0.0,0.0,0.0,0.0019198621771937623
1666088169544375002,0.0,0.0,0.0,0.0,0.0,-0.00471238898038469
1666088169544408922,0.0,0.0,0.0,0.0,0.0,-0.0038397243543875246
1666088169588165140,0.0,0.0,0.0,0.0,0.0,0.0017453292519943296
1666088169588178270,0.0,0.0,0.0,0.0,0.0,-0.0008726646259971648
1666088169632263877,0.0,0.0,0.0,0.0,0.0,-0.0027925268031909274
1666088169632318439,0.0,0.0,0.0,0.0,0.0,0.00017453292519943296
1666088169632332178,0.0,0.0,0.0,0.0,0.0,0.0006981317007977319
1666088169676089064,0.0,0.0,0.0,0.0,0.0,0.005934119456780722
1666088169676132105,0.0,0.0,0.0,0.0,0.0,0.00017453292519943296
1666088169691408381,0.0,0.0,0.0,0.0,0.0,-0.0013962634015954637
1666088169710887394,0.0,0.0,0.0,0.0,0.0,0.0017453292519943296
1666088169752087621,0.0,0.0,0.0,0.0,0.0,0.0005235987755982988
1666088169752099408,0.0,0.0,0.0,0.0,0.0,0.0
1666088169796525846,0.0,0.0,0.0,0.0,0.0,0.0
1666088169796596610,0.0,0.0,0.0,0.0,0.0,-0.0019198621771937623
1666088169844267860,0.0,0.0,0.0,0.0,0.0,0.0
1666088169844325342,0.0,0.0,0.0,0.0,0.0,-0.0012217304763960308
1666088169892242991,0.0,0.0,0.0,0.0,0.0,-0.0017453292519943296
1666088169892275195,0.0,0.0,0.0,0.0,0.0,0.0008726646259971648
1666088169892310018,0.0,0.0,0.0,0.0,0.0,0.0038397243543875246
1666088169936097093,0.0,0.0,0.0,0.0,0.0,-0.0024434609527920616
1666088169936117835,0.0,0.0,0.0,0.0,0.0,0.0
1666088169951558686,0.0,0.0,0.0,0.0,0.0,0.003490658503988659
1666088169971719598,0.0,0.0,0.0,0.0,0.0,0.0008726646259971648
1666088170016081359,0.0,0.0,0.0,0.0,0.0,-0.0027925268031909274
1666088170016095160,0.0,0.0,0.0,0.0,0.0,-0.0010471975511965976
1666088170060339281,0.0,0.0,0.0,0.0,0.0,0.0019198621771937623
1666088170060374439,0.0,0.0,0.0,0.0,0.0,-0.006283185307179587
1666088170104317371,0.0,0.0,0.0,0.0,0.0,-0.0015707963267948967
1666088170104346380,0.0,0.0,0.0,0.0,0.0,0.00034906585039886593
1666088170148201749,0.0,0.0,0.0,0.0,0.0,0.0017453292519943296
1666088170148241082,0.0,0.0,0.0,0.0,0.0,-0.0027925268031909274
1666088170192259796,0.0,0.0,0.0,0.0,0.0,-0.005235987755982988
1666088170192277633,0.0,0.0,0.0,0.0,0.0,-0.0019198621771937623
1666088170192306596,0.0,0.0,0.0,0.0,0.0,-0.0006981317007977319
1666088170240099865,0.0,0.0,0.0,0.0,0.0,0.0031415926535897933
1666088170240118996,0.0,0.0,0.0,0.0,0.0,0.0027925268031909274
1666088170251653071,0.0,0.0,0.0,0.0,0.0,0.004886921905584123
1666088170271657442,0.0,0.0,0.0,0.0,0.0,0.0038397243543875246
1666088170312049435,0.0,0.0,0.0,0.0,0.0,-0.002967059728390361
1666088170312062447,0.0,0.0,0.0,0.0,0.0,-0.0019198621771937623
1666088170356158387,0.0,0.0,0.0,0.0,0.0,-0.0010471975511965976
1666088170356190219,0.0,0.0,0.0,0.0,0.0,-0.0005235987755982988
1666088170400098145,0.0,0.0,0.0,0.0,0.0,-0.0020943951023931952
1666088170400126208,0.0,0.0,0.0,0.0,0.0,-0.0024434609527920616
1666088170444284157,0.0,0.0,0.0,0.0,0.0,-0.0012217304763960308
1666088170444303540,0.0,0.0,0.0,0.0,0.0,-0.0013962634015954637
1666088170488241364,0.0,0.0,0.0,0.0,0.0,-0.00034906585039886593
1666088170488269225,0.0,0.0,0.0,0.0,0.0,-0.0027925268031909274
1666088170532724276,0.0,0.0,0.0,0.0,0.0,-0.0041887902047863905
1666088170532770340,0.0,0.0,0.0,0.0,0.0,0.0012217304763960308
1666088170576494808,0.0,0.0,0.0,0.0,0.0,0.0006981317007977319
1666088170576566028,0.0,0.0,0.0,0.0,0.0,-0.0008726646259971648
1666088170576581344,0.0,0.0,0.0,0.0,0.0,0.0054105206811824215
1666088170620082671,0.0,0.0,0.0,0.0,0.0,-0.0008726646259971648
1666088170620101453,0.0,0.0,0.0,0.0,0.0,0.00017453292519943296
1666088170631473639,0.0,0.0,0.0,0.0,0.0,0.0036651914291880917
1666088170651224409,0.0,0.0,0.0,0.0,0.0,-0.0015707963267948967
1666088170692252435,0.0,0.0,0.0,0.0,0.0,0.0013962634015954637
1666088170692267441,0.0,0.0,0.0,0.0,0.0,0.0010471975511965976
1666088170736167365,0.0,0.0,0.0,0.0,0.0,0.00017453292519943296
1666088170736202701,0.0,0.0,0.0,0.0,0.0,-0.0024434609527920616
1666088170784435047,0.0,0.0,0.0,0.0,0.0,-0.0008726646259971648
1666088170784483634,0.0,0.0,0.0,0.0,0.0,0.004363323129985824
1666088170828227491,0.0,0.0,0.0,0.0,0.0,0.0005235987755982988
1666088170828250907,0.0,0.0,0.0,0.0,0.0,-0.0012217304763960308
1666088170872178618,0.0,0.0,0.0,0.0,0.0,-0.0013962634015954637
1666088170872202506,0.0,0.0,0.0,0.0,0.0,0.0024434609527920616
1666088170872209245,0.0,0.0,0.0,0.0,0.0,0.0
1666088170920122072,0.0,0.0,0.0,0.0,0.0,-0.0006981317007977319
1666088170920140801,0.0,0.0,0.0,0.0,0.0,-0.0031415926535897933
1666088170930980950,0.0,0.0,0.0,0.0,0.0,-0.0008726646259971648
1666088170951344600,0.0,0.0,0.0,0.0,0.0,0.00034906585039886593
1666088170996130181,0.0,0.0,0.0,0.0,0.0,-0.00017453292519943296
1666088170996148501,-0.006396906625013799,0.0,0.0,0.0,0.0,0.00017453292519943296
1666088171040117564,-0.029852230916731063,0.0,0.0,0.0,0.0,0.00017453292519943296
1666088171040134352,-0.006396906625013799,0.0,0.0,0.0,0.0,0.002617993877991494
1666088171088195146,0.012793813250027599,0.0,0.0,0.0,0.0,-0.04363323129985824
1666088171088221165,0.006396906625013799,0.0,0.0,0.0,0.0,-0.2314306588144481
1666088171136076924,0.002132302208337933,0.0,0.0,0.0,0.0,-0.3940953451003196
1666088171136089873,0.008529208833351731,0.0,0.0,0.0,0.0,-0.40561451816348215
1666088171136095303,-0.004264604416675866,0.0,0.0,0.0,0.0,-0.4963716392671873
1666088171180088808,-0.002132302208337933,0.0,0.0,0.0,0.0,-0.6836454680061789
1666088171180109001,0.0,0.0,0.0,0.0,0.0,-0.8553858664024209
1666088171192879905,0.008529208833351731,0.0,0.0,0.0,0.0,-0.9243263718561969
1666088171212699037,0.0,0.0,0.0,0.0,0.0,-0.9279915632853851
1666088171256043986,-0.004264604416675866,0.0,0.0,0.0,0.0,-1.0007717930935487
1666088171256050789,0.0,0.0,0.0,0.0,0.0,-1.0995574287564276
1666088171300212438,0.004264604416675866,0.0,0.0,0.0,0.0,-1.1341149479459154
1666088171300250941,-0.010661511041689664,0.0,0.0,0.0,0.0,-1.1458086539342776
1666088171344446067,-0.017058417666703463,0.0,0.0,0.0,0.0,-1.1575023599226393
1666088171344503330,-0.008529208833351731,0.0,0.0,0.0,0.0,-1.126260966311941
1666088171388102093,-0.004264604416675866,0.0,0.0,0.0,0.0,-1.1032226201856157
1666088171388131993,-0.004264604416675866,0.0,0.0,0.0,0.0,-1.1189305834535648
1666088171432299674,-0.002132302208337933,0.0,0.0,0.0,0.0,-1.1309733552923253
1666088171432389938,-0.002132302208337933,0.0,0.0,0.0,0.0,-1.1105530030439918
1666088171476130873,-0.002132302208337933,0.0,0.0,0.0,0.0,-1.1196287151543625
1666088171476158559,0.002132302208337933,0.0,0.0,0.0,0.0,-1.1252137687607442
1666088171476176354,-0.002132302208337933,0.0,0.0,0.0,0.0,-1.1013027580084218
1666088171524425522,-0.006396906625013799,0.0,0.0,0.0,0.0,-1.104618883587211
1666088171524492082,-0.002132302208337933,0.0,0.0,0.0,0.0,-1.1248647029103453
1666088171533482068,0.004264604416675866,0.0,0.0,0.0,0.0,-1.1224212419575534
1666088171552142959,0.0,0.0,0.0,0.0,0.0,-1.1018263567840203
1666088171596640681,-0.002132302208337933,0.0,0.0,0.0,0.0,-1.0866419922916697
1666088171596716828,0.0,0.0,0.0,0.0,0.0,-1.0636036461653444
1666088171640132304,0.0,0.0,0.0,0.0,0.0,-1.048942880448592
1666088171640176747,0.0,0.0,0.0,0.0,0.0,-1.0421360963658142
1666088171684092880,0.0,0.0,0.0,0.0,0.0,-1.033583983031042
1666088171684109639,0.002132302208337933,0.0,0.0,0.0,0.0,-1.00338978697154
1666088171732593420,0.0,0.0,0.0,0.0,0.0,-0.9782570457428217
1666088171732635964,-0.002132302208337933,0.0,0.0,0.0,0.0,-0.971973860435642
1666088171776246127,-0.002132302208337933,0.0,0.0,0.0,0.0,-0.9649925434276647
1666088171776279550,0.002132302208337933,0.0,0.0,0.0,0.0,-0.951728041112508
1666088171776288075,0.0,0.0,0.0,0.0,0.0,-0.9368927424705561
1666088171820109183,-0.008529208833351731,0.0,0.0,0.0,0.0,-0.9293878266869805
1666088171820121997,-0.002132302208337933,0.0,0.0,0.0,0.0,-0.9262462340333907
1666088171831719642,0.004264604416675866,0.0,0.0,0.0,0.0,-0.9320058205649718
1666088171854076939,0.0,0.0,0.0,0.0,0.0,-0.9265952998837895
1666088171900090676,-0.006396906625013799,0.0,0.0,0.0,0.0,-0.9032078879070654
1666088171900104271,-0.002132302208337933,0.0,0.0,0.0,0.0,-0.8672541053159823
1666088171944567606,0.004264604416675866,0.0,0.0,0.0,0.0,-0.866730506540384
1666088171944657650,0.002132302208337933,0.0,0.0,0.0,0.0,-0.8663814406899852
1666088171988158311,-0.004264604416675866,0.0,0.0,0.0,0.0,-0.8428194957880617
1666088171988185334,-0.004264604416675866,0.0,0.0,0.0,0.0,-0.8148942277561525
1666088172032257708,0.002132302208337933,0.0,0.0,0.0,0.0,-0.7911577499290294
1666088172032300992,0.002132302208337933,0.0,0.0,0.0,0.0,-0.7920304145550268
1666088172076908742,0.002132302208337933,0.0,0.0,0.0,0.0,-0.7880161572754397
1666088172076994439,-0.002132302208337933,0.0,0.0,0.0,0.0,-0.742986662573986
1666088172077018736,-0.004264604416675866,0.0,0.0,0.0,0.0,-0.7154104603924757
1666088172120114424,0.004264604416675866,0.0,0.0,0.0,0.0,-0.7042403531797119
1666088172120133071,0.002132302208337933,0.0,0.0,0.0,0.0,-0.7016223593017205
1666088172132745876,-0.002132302208337933,0.0,0.0,0.0,0.0,-0.6822492046045835
1666088172152856595,0.002132302208337933,0.0,0.0,0.0,0.0,-0.6480407512654947
1666088172196176449,0.0,0.0,0.0,0.0,0.0,-0.6075491126192262
1666088172196203629,-0.004264604416675866,0.0,0.0,0.0,0.0,-0.5899212871740833
1666088172240510873,-0.002132302208337933,0.0,0.0,0.0,0.0,-0.5621705520673735
1666088172240560463,0.002132302208337933,0.0,0.0,0.0,0.0,-0.5235987755982988
1666088172288070039,0.0,0.0,0.0,0.0,0.0,-0.4881685917828139
1666088172288100102,-0.002132302208337933,0.0,0.0,0.0,0.0,-0.445058959258554
1666088172332132416,0.002132302208337933,0.0,0.0,0.0,0.0,-0.40177479380909464
1666088172332158743,0.0,0.0,0.0,0.0,0.0,-0.37681658550557573
1666088172376237835,-0.002132302208337933,0.0,0.0,0.0,0.0,-0.3621558197888234
1666088172376281315,-0.002132302208337933,0.0,0.0,0.0,0.0,-0.312413936106985
1666088172376305652,-0.002132302208337933,0.0,0.0,0.0,0.0,-0.27576202181510406
1666088172420171970,-0.004264604416675866,0.0,0.0,0.0,0.0,-0.26668630970473356
1666088172420187689,0.004264604416675866,0.0,0.0,0.0,0.0,-0.2665117767795341
1666088172433383359,0.004264604416675866,0.0,0.0,0.0,0.0,-0.24626595745639987
1666088172453370388,0.0,0.0,0.0,0.0,0.0,-0.20245819323134223
1666088172496326747,0.0,0.0,0.0,0.0,0.0,-0.12409290981679683
1666088172496382177,0.0,0.0,0.0,0.0,0.0,-0.05585053606381855
1666088172544225388,0.0,0.0,0.0,0.0,0.0,0.0005235987755982988
1666088172544252114,0.0,0.0,0.0,0.0,0.0,0.01291543646475804
1666088172592394366,0.002132302208337933,0.0,0.0,0.0,0.0,0.008377580409572781
1666088172592458406,-0.002132302208337933,0.0,0.0,0.0,0.0,0.0054105206811824215
1666088172636138047,0.0,0.0,0.0,0.0,0.0,-0.00017453292519943296
1666088172636155048,0.0,0.0,0.0,0.0,0.0,-0.002967059728390361
1666088172636182005,-0.002132302208337933,0.0,0.0,0.0,0.0,-0.0008726646259971648
1666088172681072280,0.002132302208337933,0.0,0.0,0.0,0.0,0.003316125578789226
1666088172681105712,0.0,0.0,0.0,0.0,0.0,0.005934119456780722
1666088172692603640,0.0,0.0,0.0,0.0,0.0,0.002967059728390361
1666088172713731808,0.002132302208337933,0.0,0.0,0.0,0.0,-0.00471238898038469
1666088172760391553,0.006396906625013799,0.0,0.0,0.0,0.0,-0.0024434609527920616
1666088172760430489,0.004264604416675866,0.0,0.0,0.0,0.0,0.003316125578789226
1666088172804420012,-0.002132302208337933,0.0,0.0,0.0,0.0,0.0017453292519943296
1666088172804458676,0.0,0.0,0.0,0.0,0.0,0.006806784082777885
1666088172848128391,0.0,0.0,0.0,0.0,0.0,0.00715584993317675
1666088172848148914,0.004264604416675866,0.0,0.0,0.0,0.0,0.002617993877991494
1666088172896290576,0.002132302208337933,0.0,0.0,0.0,0.0,0.0008726646259971648
1666088172896339167,-0.004264604416675866,0.0,0.0,0.0,0.0,0.0006981317007977319
1666088172896358476,0.0,0.0,0.0,0.0,0.0,0.0022689280275926286
1666088172944283858,0.002132302208337933,0.0,0.0,0.0,0.0,0.00715584993317675
1666088172944343907,0.004264604416675866,0.0,0.0,0.0,0.0,0.009773843811168246
1666088172953456615,-0.002132302208337933,0.0,0.0,0.0,0.0,0.006632251157578452
1666088172974969185,-0.002132302208337933,0.0,0.0,0.0,0.0,0.009075712110370514
1666088173016130842,0.0,0.0,0.0,0.0,0.0,0.009948376736367677
1666088173016150104,0.002132302208337933,0.0,0.0,0.0,0.0,0.023736477827122886
1666088173060247656,0.0,0.0,0.0,0.0,0.0,0.02775073510670984
1666088173060307658,-0.002132302208337933,0.0,0.0,0.0,0.0,0.02583087292951608
1666088173108140826,-0.002132302208337933,0.0,0.0,0.0,0.0,0.030368728984701335
1666088173108151926,0.004264604416675866,0.0,0.0,0.0,0.0,0.04206243497306335
1666088173152225407,0.004264604416675866,0.0,0.0,0.0,0.0,0.04258603374866164
1666088173152249773,-0.006396906625013799,0.0,0.0,0.0,0.0,0.030717794835100197
1666088173196260860,0.002132302208337933,0.0,0.0,0.0,0.0,0.03368485456349056
1666088173196283911,0.002132302208337933,0.0,0.0,0.0,0.0,0.05462880558742251
1666088173197660312,0.0,0.0,0.0,0.0,0.0,0.06161012259539983
1666088173240486223,-0.002132302208337933,0.0,0.0,0.0,0.0,0.047647488579445195
1666088173240560572,0.002132302208337933,0.0,0.0,0.0,0.0,0.048869219055841226
1666088173254494217,-0.002132302208337933,0.0,0.0,0.0,0.0,0.06213372137099814
1666088173274682830,-0.002132302208337933,0.0,0.0,0.0,0.0,0.08377580409572781
1666088173316191858,0.0,0.0,0.0,0.0,0.0,0.08691739674931762
1666088173316229060,0.0,0.0,0.0,0.0,0.0,0.079412480965742
1666088173364266047,0.0,0.0,0.0,0.0,0.0,0.06841690667817771
1666088173364321541,-0.002132302208337933,0.0,0.0,0.0,0.0,0.05777039824101231
1666088173408102045,0.002132302208337933,0.0,0.0,0.0,0.0,0.06544984694978735
1666088173408118559,0.002132302208337933,0.0,0.0,0.0,0.0,0.08237954069413235
1666088173452317466,0.002132302208337933,0.0,0.0,0.0,0.0,0.08342673824532895
1666088173452350882,0.002132302208337933,0.0,0.0,0.0,0.0,0.05881759579220891
1666088173496123616,0.0,0.0,0.0,0.0,0.0,0.06283185307179587
1666088173496137405,0.002132302208337933,0.0,0.0,0.0,0.0,0.07347836150896127
1666088173496311539,-0.004264604416675866,0.0,0.0,0.0,0.0,0.08656833089891874
1666088173540453460,0.002132302208337933,0.0,0.0,0.0,0.0,0.08115781021773633
1666088173540480051,0.002132302208337933,0.0,0.0,0.0,0.0,0.06597344572538565
1666088173553067044,-0.002132302208337933,0.0,0.0,0.0,0.0,0.059341194567807204
1666088173574416648,0.002132302208337933,0.0,0.0,0.0,0.0,0.07243116395776468
1666088173616126549,0.004264604416675866,0.0,0.0,0.0,0.0,0.08377580409572781
1666088173616146242,0.002132302208337933,0.0,0.0,0.0,0.0,0.07417649320975901
1666088173660213422,-0.004264604416675866,0.0,0.0,0.0,0.0,0.05759586531581287
1666088173660244653,0.0,0.0,0.0,0.0,0.0,0.056548667764616284
1666088173704112915,0.006396906625013799,0.0,0.0,0.0,0.0,0.06544984694978735
1666088173704129801,0.002132302208337933,0.0,0.0,0.0,0.0,0.06824237375297829
1666088173748218188,-0.004264604416675866,0.0,0.0,0.0,0.0,0.05637413483941684
1666088173748235339,0.002132302208337933,0.0,0.0,0.0,0.0,0.058468529941810045
1666088173792178212,0.0,0.0,0.0,0.0,0.0,0.07347836150896127
1666088173792203508,0.002132302208337933,0.0,0.0,0.0,0.0,0.07539822368615504
1666088173836533042,-0.002132302208337933,0.0,0.0,0.0,0.0,0.0853466004225227
1666088173836561766,0.004264604416675866,0.0,0.0,0.0,0.0,0.09058258817850572
1666088173836570266,-0.002132302208337933,0.0,0.0,0.0,0.0,0.08377580409572781
1666088173880220379,0.0,0.0,0.0,0.0,0.0,0.07278022980816354
1666088173880253844,0.002132302208337933,0.0,0.0,0.0,0.0,0.0715584993317675
1666088173894367131,0.002132302208337933,0.0,0.0,0.0,0.0,0.07452555906015787
1666088173914100117,-0.002132302208337933,0.0,0.0,0.0,0.0,0.05707226654021458
1666088173956106108,0.002132302208337933,0.0,0.0,0.0,0.0,0.04799655442984406
1666088173956125297,0.006396906625013799,0.0,0.0,0.0,0.0,0.05183627878423159
1666088174000302028,0.0,0.0,0.0,0.0,0.0,0.05707226654021458
1666088174000324520,-0.002132302208337933,0.0,0.0,0.0,0.0,0.053930673886624786
1666088174044431033,0.002132302208337933,0.0,0.0,0.0,0.0,0.04939281783143952
1666088174044515725,0.006396906625013799,0.0,0.0,0.0,0.0,0.04747295565424577
1666088174088098865,-0.002132302208337933,0.0,0.0,0.0,0.0,0.029670597283903602
1666088174088116876,0.002132302208337933,0.0,0.0,0.0,0.0,0.02722713633111154
1666088174132185533,0.004264604416675866,0.0,0.0,0.0,0.0,0.03874630939427412
1666088174132217921,0.002132302208337933,0.0,0.0,0.0,0.0,0.03735004599267865
1666088174176115736,0.002132302208337933,0.0,0.0,0.0,0.0,0.02530727415391778
1666088174176131503,0.0,0.0,0.0,0.0,0.0,0.02076941809873252
1666088174176136283,0.002132302208337933,0.0,0.0,0.0,0.0,0.01972222054753592
1666088174220287726,0.0,0.0,0.0,0.0,0.0,0.01308996938995747
1666088174220308111,0.0,0.0,0.0,0.0,0.0,0.005759586531581288
1666088174234600383,0.0,0.0,0.0,0.0,0.0,0.010995574287564275
1666088174254341658,0.0,0.0,0.0,0.0,0.0,0.008552113334772213
1666088174300137515,0.0,0.0,0.0,0.0,0.0,0.0017453292519943296
1666088174300157887,0.0,0.0,0.0,0.0,0.0,-0.0017453292519943296
1666088174344235571,0.0,0.0,0.0,0.0,0.0,0.004537856055185257
1666088174344274686,0.0,0.0,0.0,0.0,0.0,0.006108652381980153
1666088174388651079,0.0,0.0,0.0,0.0,0.0,-0.0019198621771937623
1666088174388692404,0.0,0.0,0.0,0.0,0.0,-0.0005235987755982988
1666088174432245372,0.0,0.0,0.0,0.0,0.0,-0.0008726646259971648
1666088174432283159,0.0,0.0,0.0,0.0,0.0,0.0024434609527920616
1666088174476069287,0.0,0.0,0.0,0.0,0.0,0.003316125578789226
1666088174476093922,0.0,0.0,0.0,0.0,0.0,0.0019198621771937623
1666088174476098709,0.0,0.0,0.0,0.0,0.0,-0.0006981317007977319
1666088174520152703,0.0,0.0,0.0,0.0,0.0,-0.0005235987755982988
1666088174520207870,0.0,0.0,0.0,0.0,0.0,-0.0008726646259971648
1666088174533696947,0.0,0.0,0.0,0.0,0.0,0.0012217304763960308
1666088174553840076,0.0,0.0,0.0,0.0,0.0,-0.0013962634015954637
1666088174596657487,0.0,0.0,0.0,0.0,0.0,-0.002617993877991494
1666088174596713501,0.0,0.0,0.0,0.0,0.0,0.0012217304763960308
1666088174640137995,0.0,0.0,0.0,0.0,0.0,0.0008726646259971648
1666088174640157616,0.0,0.0,0.0,0.0,0.0,0.00034906585039886593
1666088174684220297,0.0,0.0,0.0,0.0,0.0,0.0015707963267948967
1666088174684252552,0.0,0.0,0.0,0.0,0.0,-0.0008726646259971648
1666088174728196617,0.0,0.0,0.0,0.0,0.0,-0.002617993877991494
1666088174728218320,0.0,0.0,0.0,0.0,0.0,0.0015707963267948967
1666088174772212255,0.0,0.0,0.0,0.0,0.0,0.004886921905584123
1666088174772243945,0.0,0.0,0.0,0.0,0.0,0.00017453292519943296
1666088174816199016,0.0,0.0,0.0,0.0,0.0,-0.0008726646259971648
1666088174816234962,0.0,0.0,0.0,0.0,0.0,-0.0041887902047863905
1666088174816253372,0.0,0.0,0.0,0.0,0.0,0.0
1666088174860126213,0.0,0.0,0.0,0.0,0.0,0.0022689280275926286
1666088174860167748,0.0,0.0,0.0,0.0,0.0,0.002967059728390361
1666088174875083271,0.0,0.0,0.0,0.0,0.0,0.0010471975511965976
1666088174893956900,0.0,0.0,0.0,0.0,0.0,-0.0041887902047863905
1666088174940477917,0.0,0.0,0.0,0.0,0.0,-0.0013962634015954637
1666088174940499101,0.0,0.0,0.0,0.0,0.0,0.002617993877991494
1666088174984092539,0.0,0.0,0.0,0.0,0.0,-0.0024434609527920616
1666088174984104655,0.0,0.0,0.0,0.0,0.0,-0.002967059728390361
1666088175028203084,0.0,0.0,0.0,0.0,0.0,-0.0022689280275926286
1666088175028233045,0.0,0.0,0.0,0.0,0.0,0.0
1666088175072325089,0.0,0.0,0.0,0.0,0.0,-0.0031415926535897933
1666088175072377333,0.0,0.0,0.0,0.0,0.0,-0.0012217304763960308
1666088175116331898,0.0,0.0,0.0,0.0,0.0,0.0017453292519943296
1666088175116361697,0.0,0.0,0.0,0.0,0.0,0.003490658503988659
1666088175116424827,0.0,0.0,0.0,0.0,0.0,0.0
1666088175160139661,0.0,0.0,0.0,0.0,0.0,-0.0017453292519943296
1666088175160167273,0.0,0.0,0.0,0.0,0.0,-0.0015707963267948967
1666088175174982154,0.0,0.0,0.0,0.0,0.0,-0.002617993877991494
1666088175194379406,0.0,0.0,0.0,0.0,0.0,0.0005235987755982988
1666088175240148677,0.0,0.0,0.0,0.0,0.0,0.0013962634015954637
1666088175240182767,0.0,0.0,0.0,0.0,0.0,0.005585053606381855
1666088175284139768,0.0,0.0,0.0,0.0,0.0,-0.0006981317007977319
1666088175284162100,0.0,0.0,0.0,0.0,0.0,0.0006981317007977319
1666088175332064614,0.0,0.0,0.0,0.0,0.0,-0.0019198621771937623
1666088175332078705,0.0,0.0,0.0,0.0,0.0,-0.0015707963267948967
1666088175376141625,0.0,0.0,0.0,0.0,0.0,-0.0041887902047863905
1666088175376160080,0.0,0.0,0.0,0.0,0.0,-0.0038397243543875246
1666088175376172670,0.0,0.0,0.0,0.0,0.0,0.00017453292519943296
1666088175420669584,0.0,0.0,0.0,0.0,0.0,-0.0015707963267948967
1666088175420759530,0.0,0.0,0.0,0.0,0.0,0.0
1666088175435253063,0.0,0.0,0.0,0.0,0.0,-0.00017453292519943296
1666088175454312736,0.0,0.0,0.0,0.0,0.0,0.00017453292519943296
1666088175496232016,0.0,0.0,0.0,0.0,0.0,0.0010471975511965976
1666088175496264060,0.0,0.0,0.0,0.0,0.0,-0.0017453292519943296
1666088175540124854,0.0,0.0,0.0,0.0,0.0,-0.0041887902047863905
1666088175540141749,0.0,0.0,0.0,0.0,0.0,-0.002617993877991494
1666088175584211569,0.0,0.0,0.0,0.0,0.0,0.003490658503988659
1666088175584256124,0.0,0.0,0.0,0.0,0.0,0.0054105206811824215
1666088175628196343,0.0,0.0,0.0,0.0,0.0,0.0024434609527920616
1666088175628232484,0.0,0.0,0.0,0.0,0.0,-0.0027925268031909274
1666088175672527801,0.0,0.0,0.0,0.0,0.0,-0.002967059728390361
1666088175672589024,0.0,0.0,0.0,0.0,0.0,-0.0027925268031909274
1666088175716237636,0.0,0.0,0.0,0.0,0.0,-0.0013962634015954637
1666088175716268816,0.0,0.0,0.0,0.0,0.0,-0.0038397243543875246
1666088175716326030,0.0,0.0,0.0,0.0,0.0,0.0005235987755982988
1666088175760130106,0.0,0.0,0.0,0.0,0.0,0.0012217304763960308
1666088175760153025,0.0,0.0,0.0,0.0,0.0,-0.0013962634015954637
1666088175775485585,0.0,0.0,0.0,0.0,0.0,0.0008726646259971648
1666088175794638652,0.0,0.0,0.0,0.0,0.0,0.005061454830783556
1666088175840468427,0.0,0.0,0.0,0.0,0.0,0.0006981317007977319
1666088175840504070,0.0,0.0,0.0,0.0,0.0,0.0019198621771937623
1666088175884368366,0.0,0.0,0.0,0.0,0.0,0.0022689280275926286
1666088175884420532,0.0,0.0,0.0,0.0,0.0,0.0012217304763960308
1666088175928371956,0.0,0.0,0.0,0.0,0.0,-0.0006981317007977319
1666088175928448565,0.0,0.0,0.0,0.0,0.0,-0.0036651914291880917
1666088175976746977,0.0,0.0,0.0,0.0,0.0,-0.0024434609527920616
1666088175976768864,0.0,0.0,0.0,0.0,0.0,-0.002967059728390361
1666088175976795726,0.0,0.0,0.0,0.0,0.0,-0.002967059728390361
1666088176020204619,0.0,0.0,0.0,0.0,0.0,-0.0012217304763960308
1666088176020237451,0.0,0.0,0.0,0.0,0.0,-0.0006981317007977319
1666088176036321929,0.0,0.0,0.0,0.0,0.0,-0.0005235987755982988
1666088176055130065,0.0,0.0,0.0,0.0,0.0,0.0019198621771937623
1666088176096198183,0.0,0.0,0.0,0.0,0.0,0.00017453292519943296
1666088176140148539,0.0,0.0,0.0,0.0,0.0,0.0005235987755982988
1666088176140167207,0.0,0.0,0.0,0.0,0.0,0.0
1666088176140209223,0.0,0.0,0.0,0.0,0.0,-0.0020943951023931952
1666088176184203599,0.0,0.0,0.0,0.0,0.0,-0.00471238898038469
1666088176184234164,0.0,0.0,0.0,0.0,0.0,-0.0013962634015954637
1666088176195556729,0.0,0.0,0.0,0.0,0.0,0.0008726646259971648
1666088176215355353,0.0,0.0,0.0,0.0,0.0,-0.0006981317007977319
1666088176256085207,0.0,0.0,0.0,0.0,0.0,-0.00034906585039886593
1666088176256097856,0.0,0.0,0.0,0.0,0.0,-0.0012217304763960308
1666088176300069154,0.0,0.0,0.0,0.0,0.0,-0.0012217304763960308
1666088176300084278,0.0,0.0,0.0,0.0,0.0,0.0017453292519943296
1666088176348080509,0.0,0.0,0.0,0.0,0.0,-0.0005235987755982988
1666088176348099692,0.0,0.0,0.0,0.0,0.0,0.0013962634015954637
1666088176392067851,0.0,0.0,0.0,0.0,0.0,0.0
1666088176392081379,0.0,0.0,0.0,0.0,0.0,0.0031415926535897933
1666088176440306903,0.0,0.0,0.0,0.0,0.0,0.0024434609527920616
1666088176440334207,0.0,0.0,0.0,0.0,0.0,-0.0020943951023931952
1666088176440342430,0.0,0.0,0.0,0.0,0.0,0.005061454830783556
1666088176484057276,0.0,0.0,0.0,0.0,0.0,0.00017453292519943296
1666088176484069902,0.0,0.0,0.0,0.0,0.0,0.0012217304763960308
1666088176495412644,0.0,0.0,0.0,0.0,0.0,-0.0027925268031909274
1666088176515153600,0.0,0.0,0.0,0.0,0.0,-0.003490658503988659
1666088176556083995,0.0,0.0,0.0,0.0,0.0,-0.0027925268031909274
1666088176556118331,0.0,0.0,0.0,0.0,0.0,0.002617993877991494
1666088176604529642,0.0,0.0,0.0,0.0,0.0,0.0038397243543875246
1666088176604602182,0.0,0.0,0.0,0.0,0.0,0.0006981317007977319
1666088176648082068,0.006396906625013799,0.0,0.0,0.0,0.0,0.0005235987755982988
1666088176648102003,0.002132302208337933,0.0,0.0,0.0,0.0,-0.00034906585039886593
1666088176692107219,0.012793813250027599,0.0,0.0,0.0,0.0,0.0041887902047863905
1666088176692120650,0.014926115458365532,0.0,0.0,0.0,0.0,0.005934119456780722
1666088176736198185,0.014926115458365532,0.0,0.0,0.0,0.0,0.010297442586766544
1666088176736224382,0.021323022083379328,0.0,0.0,0.0,0.0,0.013264502315156903
1666088176736237424,0.025587626500055197,0.0,0.0,0.0,0.0,0.02199114857512855
1666088176780186425,0.03838143975008279,0.0,0.0,0.0,0.0,0.03612831551628262
1666088176780211488,0.04051374195842073,0.0,0.0,0.0,0.0,0.046076692252650306
1666088176799132828,0.029852230916731063,0.0,0.0,0.0,0.0,0.05253441048502932
1666088176816014326,0.051175253000110395,0.0,0.0,0.0,0.0,0.05585053606381855
1666088176856604571,0.05330755520844832,0.0,0.0,0.0,0.0,0.0582939970166106
1666088176900087984,0.0703659728751518,0.0,0.0,0.0,0.0,0.06300638599699529
1666088176900104307,0.05543985741678625,0.0,0.0,0.0,0.0,0.06283185307179587
1666088176900116637,0.06183676404180006,0.0,0.0,0.0,0.0,0.05009094953223726
1666088176948060615,0.08102748391684146,0.0,0.0,0.0,0.0,0.046949356878647465
1666088176948075449,0.08315978612517938,0.0,0.0,0.0,0.0,0.05672320068981571
1666088176956213378,0.09382129716686904,0.0,0.0,0.0,0.0,0.07347836150896127
1666088176976188462,0.08315978612517938,0.0,0.0,0.0,0.0,0.07522369076095559
1666088177020611283,0.08955669275019319,0.0,0.0,0.0,0.0,0.06405358354819189
1666088177020678829,0.10448280820855872,0.0,0.0,0.0,0.0,0.06527531402458793
1666088177064138099,0.10661511041689664,0.0,0.0,0.0,0.0,0.07190756518216637
1666088177064165813,0.11940892366692425,0.0,0.0,0.0,0.0,0.08255407361933179
1666088177108235418,0.11514431925024839,0.0,0.0,0.0,0.0,0.08168140899333462
1666088177108289451,0.12367352808360012,0.0,0.0,0.0,0.0,0.06597344572538565
1666088177152070728,0.1300704347086139,0.0,0.0,0.0,0.0,0.07260569688296412
1666088177152089625,0.13433503912528977,0.0,0.0,0.0,0.0,0.08377580409572781
1666088177196442438,0.1407319457503036,0.0,0.0,0.0,0.0,0.08604473212332044
1666088177196485345,0.1407319457503036,0.0,0.0,0.0,0.0,0.08691739674931762
1666088177196505845,0.1407319457503036,0.0,0.0,0.0,0.0,0.07696902001294993
1666088177240066988,0.1556580612086691,0.0,0.0,0.0,0.0,0.06335545184739416
1666088177240082685,0.15779036341700706,0.0,0.0,0.0,0.0,0.06789330790257941
1666088177256535241,0.17271647887537256,0.0,0.0,0.0,0.0,0.06754424205218056
1666088177276005038,0.16631957225035876,0.0,0.0,0.0,0.0,0.0497418836818384
1666088177316264380,0.17911338550038639,0.0,0.0,0.0,0.0,0.05131268000863328
1666088177360040094,0.17698108329204845,0.0,0.0,0.0,0.0,0.07120943348136864
1666088177360050162,0.18124568770872432,0.0,0.0,0.0,0.0,0.05707226654021458
1666088177360058026,0.19403950095875191,0.0,0.0,0.0,0.0,0.06579891280018622
1666088177404530721,0.19617180316708985,0.0,0.0,0.0,0.0,0.07382742735936014
1666088177404611764,0.19830410537542775,0.0,0.0,0.0,0.0,0.06283185307179587
1666088177415940884,0.20256870979210362,0.0,0.0,0.0,0.0,0.06544984694978735
1666088177435817660,0.20683331420877948,0.0,0.0,0.0,0.0,0.05131268000863328
1666088177480069846,0.22389173187548297,0.0,0.0,0.0,0.0,0.05881759579220891
1666088177480083024,0.22389173187548297,0.0,0.0,0.0,0.0,0.055326937288220246
1666088177524082899,0.21536252304213124,0.0,0.0,0.0,0.0,0.04153883619746504
1666088177524099500,0.23242094070883468,0.0,0.0,0.0,0.0,0.03630284844148206
1666088177572179085,0.23668554512551054,0.0,0.0,0.0,0.0,0.031241393610698498
1666088177572209807,0.253743962792214,0.0,0.0,0.0,0.0,0.024085543677521744
1666088177616280638,0.24947935837553817,0.0,0.0,0.0,0.0,0.03106686068549907
1666088177616341474,0.2601408694172278,0.0,0.0,0.0,0.0,0.026703537555513242
1666088177616363041,0.25587626500055194,0.0,0.0,0.0,0.0,0.02076941809873252
1666088177660092498,0.2516116605838761,0.0,0.0,0.0,0.0,0.017976891295541593
1666088177660121108,0.27506698487559333,0.0,0.0,0.0,0.0,0.028448866807507567
1666088177676021822,0.2771992870839313,0.0,0.0,0.0,0.0,0.030368728984701335
1666088177696420157,0.27506698487559333,0.0,0.0,0.0,0.0,0.02181661564992912
1666088177740163337,0.28572849591728305,0.0,0.0,0.0,0.0,0.01832595714594046
1666088177740178640,0.28999310033395886,0.0,0.0,0.0,0.0,0.01815142422074103
1666088177784162401,0.2985223091673106,0.0,0.0,0.0,0.0,0.012566370614359173
1666088177784198274,0.30491921579232445,0.0,0.0,0.0,0.0,0.01291543646475804
1666088177828112937,0.30491921579232445,0.0,0.0,0.0,0.0,0.013439035240356337
1666088177828131113,0.3155807268340141,0.0,0.0,0.0,0.0,0.01117010721276371
1666088177872699716,0.30918382020900026,0.0,0.0,0.0,0.0,0.016231562043547268
1666088177872784550,0.3262422378757037,0.0,0.0,0.0,0.0,0.008028514559173916
1666088177920328351,0.32837454008404166,0.0,0.0,0.0,0.0,0.006632251157578452
1666088177920352209,0.3390360511257314,0.0,0.0,0.0,0.0,0.008377580409572781
1666088177920376884,0.3347714467090555,0.0,0.0,0.0,0.0,0.0038397243543875246
1666088177964542098,0.33050684229237964,0.0,0.0,0.0,0.0,-0.0019198621771937623
1666088177964611100,0.3518298643757589,0.0,0.0,0.0,0.0,0.004363323129985824
1666088177976607390,0.3560944687924348,0.0,0.0,0.0,0.0,0.011519173063162576
1666088178000777297,0.36888828204246243,0.0,0.0,0.0,0.0,0.01361356816555577
1666088178044100510,0.36249137541744864,0.0,0.0,0.0,0.0,0.008552113334772213
1666088178044122146,0.36035907320911065,0.0,0.0,0.0,0.0,0.017627825445142728
1666088178088124201,0.37954979308415204,0.0,0.0,0.0,0.0,0.023561944901923447
1666088178088152023,0.3838143975008279,0.0,0.0,0.0,0.0,0.017627825445142728
1666088178132247232,0.38807900191750383,0.0,0.0,0.0,0.0,0.01832595714594046
1666088178132291254,0.38594669970916584,0.0,0.0,0.0,0.0,0.017453292519943295
1666088178176100616,0.3923436063341797,0.0,0.0,0.0,0.0,0.02181661564992912
1666088178176120007,0.41153432620922104,0.0,0.0,0.0,0.0,0.011693705988362009
1666088178220072398,0.4072697217925452,0.0,0.0,0.0,0.0,0.015184364492350668
1666088178220088731,0.42219583725091075,0.0,0.0,0.0,0.0,0.012217304763960306
1666088178220094024,0.4179312328342349,0.0,0.0,0.0,0.0,-0.003316125578789226
1666088178264211969,0.41579893062589696,0.0,0.0,0.0,0.0,0.0024434609527920616
1666088178264241247,0.4349896505009383,0.0,0.0,0.0,0.0,0.007330382858376183
1666088178276558344,0.44138655712595215,0.0,0.0,0.0,0.0,0.0022689280275926286
1666088178298008889,0.44351885933429,0.0,0.0,0.0,0.0,0.004014257279586958
1666088178340105063,0.44138655712595215,0.0,0.0,0.0,0.0,0.008028514559173916
1666088178340124825,0.43712195270927623,0.0,0.0,0.0,0.0,0.0013962634015954637
1666088178384158707,0.45844497479265556,0.0,0.0,0.0,0.0,-0.009075712110370514
1666088178384186954,0.4627095792093315,0.0,0.0,0.0,0.0,-0.004014257279586958
1666088178428073646,0.46057727700099355,0.0,0.0,0.0,0.0,0.00715584993317675
1666088178428089050,0.46484188141766936,0.0,0.0,0.0,0.0,0.0
1666088178472517913,0.4733710902510211,0.0,0.0,0.0,0.0,-0.008552113334772213
1666088178472562839,0.48616490350104874,0.0,0.0,0.0,0.0,-0.0013962634015954637
1666088178516154061,0.49256181012606254,0.0,0.0,0.0,0.0,0.006981317007977318
1666088178516179351,0.49895871675107634,0.0,0.0,0.0,0.0,0.010297442586766544
1666088178560215516,0.49256181012606254,0.0,0.0,0.0,0.0,-0.019547687622336492
1666088178560256323,0.49469411233440047,0.0,0.0,0.0,0.0,-0.027052603405912107
1666088178560279405,0.5053556233760901,0.0,0.0,0.0,0.0,0.0005235987755982988
1666088178604368204,0.5160171344177797,0.0,0.0,0.0,0.0,0.0005235987755982988
1666088178604431456,0.5224140410427935,0.0,0.0,0.0,0.0,-0.002617993877991494
1666088178617422860,0.5266786454594694,0.0,0.0,0.0,0.0,-0.004886921905584123
1666088178638762481,0.5266786454594694,0.0,0.0,0.0,0.0,-0.009075712110370514
1666088178684059794,0.5394724587094971,0.0,0.0,0.0,0.0,-0.009075712110370514
1666088178684072956,0.5458693653345108,0.0,0.0,0.0,0.0,-0.0020943951023931952
1666088178730854563,0.5480016675428488,0.0,0.0,0.0,0.0,0.01291543646475804
1666088178730882975,0.5501339697511867,0.0,0.0,0.0,0.0,-0.0012217304763960308
1666088178772192589,0.5437370631261729,0.0,0.0,0.0,0.0,-0.012391837689159739
1666088178772211754,0.5607954807928763,0.0,0.0,0.0,0.0,-0.011344640137963142
1666088178816225459,0.5735892940429039,0.0,0.0,0.0,0.0,-0.00645771823237902
1666088178816253544,0.5799862006679177,0.0,0.0,0.0,0.0,-0.005759586531581288
1666088178860032579,0.5693246896262281,0.0,0.0,0.0,0.0,-0.00890117918517108
1666088178860041835,0.5735892940429039,0.0,0.0,0.0,0.0,-0.00715584993317675
1666088178860049605,0.5842508050845936,0.0,0.0,0.0,0.0,-0.022514747350726852
1666088178904075749,0.6013092227512972,0.0,0.0,0.0,0.0,-0.012566370614359173
1666088178904086968,0.5991769205429591,0.0,0.0,0.0,0.0,0.00034906585039886593
1666088178917383994,0.5991769205429591,0.0,0.0,0.0,0.0,-0.01815142422074103
1666088178937254942,0.6055738271679729,0.0,0.0,0.0,0.0,-0.02600540585471551
1666088178980148393,0.6141030360013247,0.0,0.0,0.0,0.0,-0.02600540585471551
1666088178980168760,0.6204999426263385,0.0,0.0,0.0,0.0,-0.03787364476827695
1666088179024488096,0.6268968492513523,0.0,0.0,0.0,0.0,-0.011519173063162576
1666088179024606014,0.6141030360013247,0.0,0.0,0.0,0.0,0.013439035240356337
1666088179072068529,0.6183676404180005,0.0,0.0,0.0,0.0,0.0031415926535897933
1666088179072084303,0.6268968492513523,0.0,0.0,0.0,0.0,-0.023561944901923447
1666088179120135454,0.6439552669180557,0.0,0.0,0.0,0.0,-0.0143116998663535
1666088179120151511,0.6290291514596902,0.0,0.0,0.0,0.0,-0.016755160819145562
1666088179120165207,0.6332937558763662,0.0,0.0,0.0,0.0,-0.010297442586766544
1666088179168131613,0.6332937558763662,0.0,0.0,0.0,0.0,0.017278759594743863
1666088179168154581,0.63969066250138,0.0,0.0,0.0,0.0,0.0013962634015954637
1666088179177437189,0.6524844757514074,0.0,0.0,0.0,0.0,-0.006806784082777885
1666088179197559753,0.6588813823764212,0.0,0.0,0.0,0.0,-0.011519173063162576
1666088179240134206,0.6460875691263938,0.0,0.0,0.0,0.0,-0.029670597283903602
1666088179240168684,0.6546167779597455,0.0,0.0,0.0,0.0,-0.008726646259971648
1666088179284100030,0.6631459867930972,0.0,0.0,0.0,0.0,-0.012042771838760872
1666088179284122824,0.665278289001435,0.0,0.0,0.0,0.0,-0.03682644721708035
1666088179328037766,0.6588813823764212,0.0,0.0,0.0,0.0,-0.0291469985083053
1666088179328048506,0.6524844757514074,0.0,0.0,0.0,0.0,-0.013788101090755204
1666088179372243182,0.667410591209773,0.0,0.0,0.0,0.0,-0.006283185307179587
1666088179372280675,0.665278289001435,0.0,0.0,0.0,0.0,-0.0015707963267948967
1666088179416244099,0.669542893418111,0.0,0.0,0.0,0.0,-0.015358897417550098
1666088179416282051,0.6588813823764212,0.0,0.0,0.0,0.0,0.002967059728390361
1666088179464250252,0.6631459867930972,0.0,0.0,0.0,0.0,0.010122909661567111
1666088179464279478,0.669542893418111,0.0,0.0,0.0,0.0,0.0054105206811824215
1666088179464298782,0.671675195626449,0.0,0.0,0.0,0.0,0.004886921905584123
1666088179508070280,0.6588813823764212,0.0,0.0,0.0,0.0,0.012391837689159739
1666088179508089730,0.6588813823764212,0.0,0.0,0.0,0.0,-0.0013962634015954637
1666088179517156919,0.665278289001435,0.0,0.0,0.0,0.0,-0.01117010721276371
1666088179538111886,0.6759398000431247,0.0,0.0,0.0,0.0,-0.008203047484373348
1666088179584534975,0.667410591209773,0.0,0.0,0.0,0.0,-0.014835298641951801
1666088179584672397,0.6546167779597455,0.0,0.0,0.0,0.0,-0.014486232791552934
1666088179628290972,0.6588813823764212,0.0,0.0,0.0,0.0,-0.017976891295541593
1666088179628382119,0.6524844757514074,0.0,0.0,0.0,0.0,-0.018500490071139894
1666088179672065262,0.6567490801680833,0.0,0.0,0.0,0.0,-0.02181661564992912
1666088179672080785,0.6546167779597455,0.0,0.0,0.0,0.0,-0.03490658503988659
1666088179716236767,0.6482198713347317,0.0,0.0,0.0,0.0,-0.04223696789826277
1666088179716260038,0.6460875691263938,0.0,0.0,0.0,0.0,-0.038397243543875255
1666088179760776767,0.6439552669180557,0.0,0.0,0.0,0.0,-0.0439822971502571
1666088179760817590,0.6503521735430695,0.0,0.0,0.0,0.0,-0.023212879051524585
1666088179760826308,0.6439552669180557,0.0,0.0,0.0,0.0,-0.013788101090755204
1666088179804102039,0.6375583602930419,0.0,0.0,0.0,0.0,-0.013962634015954637
1666088179804119578,0.63969066250138,0.0,0.0,0.0,0.0,-0.014486232791552934
1666088179818419880,0.6375583602930419,0.0,0.0,0.0,0.0,-0.02548180707911721
1666088179838041828,0.6460875691263938,0.0,0.0,0.0,0.0,-0.053930673886624786
1666088179880190525,0.63969066250138,0.0,0.0,0.0,0.0,-0.06457718232379019
1666088179880212494,0.6418229647097178,0.0,0.0,0.0,0.0,-0.08028514559173915
1666088179928119371,0.63969066250138,0.0,0.0,0.0,0.0,-0.06946410422937431
1666088179928135637,0.6268968492513523,0.0,0.0,0.0,0.0,-0.04537856055185257
1666088179972108801,0.6332937558763662,0.0,0.0,0.0,0.0,-0.02234021442552742
1666088179972125626,0.6418229647097178,0.0,0.0,0.0,0.0,-0.031415926535897934
1666088180016209117,0.63969066250138,0.0,0.0,0.0,0.0,-0.041713369122664476
1666088180016236464,0.63969066250138,0.0,0.0,0.0,0.0,-0.029845130209103034
1666088180060242824,0.6375583602930419,0.0,0.0,0.0,0.0,-0.021118483949131385
1666088180060264390,0.6439552669180557,0.0,0.0,0.0,0.0,-0.03874630939427412
1666088180060269834,0.63969066250138,0.0,0.0,0.0,0.0,-0.01937315469713706
1666088180107486737,0.6418229647097178,0.0,0.0,0.0,0.0,-0.0158824961931484
1666088180107516431,0.6482198713347317,0.0,0.0,0.0,0.0,-0.012217304763960306
1666088180117784308,0.6503521735430695,0.0,0.0,0.0,0.0,-0.007853981633974483
1666088180138263789,0.6460875691263938,0.0,0.0,0.0,0.0,-0.0022689280275926286
1666088180180169438,0.6524844757514074,0.0,0.0,0.0,0.0,-0.008203047484373348
1666088180228408889,0.6439552669180557,0.0,0.0,0.0,0.0,0.005759586531581288
1666088180228430106,0.6460875691263938,0.0,0.0,0.0,0.0,-0.011868238913561443
1666088180228436460,0.6482198713347317,0.0,0.0,0.0,0.0,-0.018500490071139894
1666088180272282981,0.63969066250138,0.0,0.0,0.0,0.0,-0.010122909661567111
1666088180272309093,0.6418229647097178,0.0,0.0,0.0,0.0,-0.0005235987755982988
1666088180277578653,0.6439552669180557,0.0,0.0,0.0,0.0,0.0006981317007977319
1666088180300553896,0.6524844757514074,0.0,0.0,0.0,0.0,-0.0036651914291880917
1666088180340486384,0.6482198713347317,0.0,0.0,0.0,0.0,-0.007330382858376183
1666088180340530837,0.6524844757514074,0.0,0.0,0.0,0.0,-0.00942477796076938
1666088180384274685,0.6546167779597455,0.0,0.0,0.0,0.0,-0.003490658503988659
1666088180384303775,0.6503521735430695,0.0,0.0,0.0,0.0,-0.009075712110370514
1666088180428170725,0.6482198713347317,0.0,0.0,0.0,0.0,-0.002617993877991494
1666088180428201461,0.6460875691263938,0.0,0.0,0.0,0.0,0.008377580409572781
1666088180472274891,0.6524844757514074,0.0,0.0,0.0,0.0,-0.009948376736367677
1666088180472305639,0.6546167779597455,0.0,0.0,0.0,0.0,-0.00942477796076938
1666088180516094584,0.6460875691263938,0.0,0.0,0.0,0.0,-0.0158824961931484
1666088180516113716,0.5735892940429039,0.0,0.0,0.0,0.0,-0.022863813201125717
1666088180560405728,0.5629277830012144,0.0,0.0,0.0,0.0,-0.018675022996339326
1666088180560461111,0.5842508050845936,0.0,0.0,0.0,0.0,-0.03508111796508602
1666088180560487341,0.5053556233760901,0.0,0.0,0.0,0.0,-0.08709192967451704
1666088180604253867,0.48616490350104874,0.0,0.0,0.0,0.0,-0.1876228945893904
1666088180604274071,0.29425770475063473,0.0,0.0,0.0,0.0,-0.23177972466484695
1666088180619188222,0.28999310033395886,0.0,0.0,0.0,0.0,-0.2881538595042638
1666088180637527344,0.3902113041258417,0.0,0.0,0.0,0.0,-0.3391174736624982
1666088180684257422,0.317713029042352,0.0,0.0,0.0,0.0,-0.34644785652087445
1666088180684280569,0.17271647887537256,0.0,0.0,0.0,0.0,-0.3385938748868999
1666088180732535443,0.09595359937520698,0.0,0.0,0.0,0.0,-0.3216641811425549
1666088180732633024,0.08529208833351731,0.0,0.0,0.0,0.0,-0.3256784384221419
1666088180776161175,0.20470101200044158,0.0,0.0,0.0,0.0,-0.34348079679248406
1666088180776175800,0.25800856720888987,0.0,0.0,0.0,0.0,-0.3488913174736665
1666088180820535981,0.19617180316708985,0.0,0.0,0.0,0.0,-0.34836771869806815
1666088180820566183,0.13220273691695184,0.0,0.0,0.0,0.0,-0.31922072018976283
1666088180820634877,0.15779036341700706,0.0,0.0,0.0,0.0,-0.2895501229058593
1666088180864312054,0.17698108329204845,0.0,0.0,0.0,0.0,-0.30997047515419296
1666088180864351521,0.16418727004202083,0.0,0.0,0.0,0.0,-0.29792770331543206
1666088180878654838,0.14286424795864153,0.0,0.0,0.0,0.0,-0.24312436480281008
1666088180898395632,0.11727662145858632,0.0,0.0,0.0,0.0,-0.24225170017681294
1666088180940270676,0.10448280820855872,0.0,0.0,0.0,0.0,-0.2841396022246769
1666088180940303726,0.1108797148335725,0.0,0.0,0.0,0.0,-0.3120648702565861
1666088180988171546,0.12154122587526218,0.0,0.0,0.0,0.0,-0.3508111796508602
1666088180988227168,0.10661511041689664,0.0,0.0,0.0,0.0,-0.3570943649580398
1666088181032474897,0.10235050600022079,0.0,0.0,0.0,0.0,-0.3937462792499207
1666088181032549493,0.11301201704191044,0.0,0.0,0.0,0.0,-0.4656538444320871
1666088181080166410,0.11514431925024839,0.0,0.0,0.0,0.0,-0.48555059790482247
1666088181080184424,0.11940892366692425,0.0,0.0,0.0,0.0,-0.4848524662040248
1666088181080320597,0.11940892366692425,0.0,0.0,0.0,0.0,-0.4920083161372015
1666088181124244507,0.12367352808360012,0.0,0.0,0.0,0.0,-0.4656538444320871
1666088181124280829,0.13859964354196566,0.0,0.0,0.0,0.0,-0.47420595776685937
1666088181139212399,0.13220273691695184,0.0,0.0,0.0,0.0,-0.4789183467472441
1666088181158927326,0.1364673413336277,0.0,0.0,0.0,0.0,-0.43598324714818354
1666088181200340797,0.13433503912528977,0.0,0.0,0.0,0.0,-0.4558800006209189
1666088181200365926,0.12793813250027597,0.0,0.0,0.0,0.0,-0.45029494701453704
1666088181248159851,0.13220273691695184,0.0,0.0,0.0,0.0,-0.4272566008882119
1666088181248184434,0.1300704347086139,0.0,0.0,0.0,0.0,-0.4131194339470578
1666088181296243367,0.13220273691695184,0.0,0.0,0.0,0.0,-0.3518583772020568
1666088181296268158,0.12580583029193804,0.0,0.0,0.0,0.0,-0.34365532971768353
1666088181344073719,0.11727662145858632,0.0,0.0,0.0,0.0,-0.3242821750205464
1666088181344091895,0.12580583029193804,0.0,0.0,0.0,0.0,-0.3061307507998054
1666088181344110196,0.12580583029193804,0.0,0.0,0.0,0.0,-0.30176742766981957
1666088181388163219,0.12367352808360012,0.0,0.0,0.0,0.0,-0.2719222974607165
1666088181388193517,0.12367352808360012,0.0,0.0,0.0,0.0,-0.3028146252210162
1666088181398471133,0.12154122587526218,0.0,0.0,0.0,0.0,-0.32079151651655774
1666088181418586038,0.12367352808360012,0.0,0.0,0.0,0.0,-0.3255039054969424
1666088181460221871,0.13220273691695184,0.0,0.0,0.0,0.0,-0.3398156053632959
1666088181460251461,0.12154122587526218,0.0,0.0,0.0,0.0,-0.3300417615521277
1666088181504134620,0.12793813250027597,0.0,0.0,0.0,0.0,-0.3307398932529254
1666088181504156409,0.12580583029193804,0.0,0.0,0.0,0.0,-0.34365532971768353
1666088181548251737,0.12580583029193804,0.0,0.0,0.0,0.0,-0.32864549815053223
1666088181548285261,0.13433503912528977,0.0,0.0,0.0,0.0,-0.3103195410045918
1666088181592127897,0.13433503912528977,0.0,0.0,0.0,0.0,-0.29775317039023264
1666088181592156279,0.12793813250027597,0.0,0.0,0.0,0.0,-0.27785641691749724
1666088181640179726,0.12580583029193804,0.0,0.0,0.0,0.0,-0.30019663134302466
1666088181640203847,0.12154122587526218,0.0,0.0,0.0,0.0,-0.30264009229581673
1666088181640221068,0.12793813250027597,0.0,0.0,0.0,0.0,-0.2700024352835228
1666088181684156791,0.12580583029193804,0.0,0.0,0.0,0.0,-0.24818581963359365
1666088181684192050,0.12367352808360012,0.0,0.0,0.0,0.0,-0.19530234329816545
1666088181699534828,0.12367352808360012,0.0,0.0,0.0,0.0,-0.19652407377456152
1666088181719233469,0.12367352808360012,0.0,0.0,0.0,0.0,-0.1907644872429802
1666088181764103633,0.12367352808360012,0.0,0.0,0.0,0.0,-0.13683381335635542
1666088181764124256,0.12154122587526218,0.0,0.0,0.0,0.0,-0.10175269539126942
1666088181808218489,0.12580583029193804,0.0,0.0,0.0,0.0,-0.11327186845443199
1666088181808237842,0.12367352808360012,0.0,0.0,0.0,0.0,-0.13596114873035825
1666088181852114319,0.12580583029193804,0.0,0.0,0.0,0.0,-0.1382300767579509
1666088181852133270,0.12793813250027597,0.0,0.0,0.0,0.0,-0.11868238913561441
1666088181900233868,0.12580583029193804,0.0,0.0,0.0,0.0,-0.12985249634837814
1666088181900295377,0.12580583029193804,0.0,0.0,0.0,0.0,-0.16022122533307945
1666088181900318551,0.12580583029193804,0.0,0.0,0.0,0.0,-0.18291050560900574
1666088181948345191,0.12580583029193804,0.0,0.0,0.0,0.0,-0.17418385934903408
1666088181948379863,0.1300704347086139,0.0,0.0,0.0,0.0,-0.16510814723866357
1666088181959454623,0.11940892366692425,0.0,0.0,0.0,0.0,-0.13892820845874862
1666088181979061022,0.12580583029193804,0.0,0.0,0.0,0.0,-0.11623892818282235
1666088182024154994,0.12154122587526218,0.0,0.0,0.0,0.0,-0.09267698328089889
1666088182024183594,0.12580583029193804,0.0,0.0,0.0,0.0,-0.07661995416255106
1666088182068430550,0.12367352808360012,0.0,0.0,0.0,0.0,-0.07295476273336296
1666088182068512010,0.11940892366692425,0.0,0.0,0.0,0.0,-0.05358160803622591
1666088182112122450,0.12154122587526218,0.0,0.0,0.0,0.0,-0.04921828490624009
1666088182112144817,0.12580583029193804,0.0,0.0,0.0,0.0,-0.045553093477052
1666088182156371373,0.12367352808360012,0.0,0.0,0.0,0.0,-0.03490658503988659
1666088182156401773,0.11940892366692425,0.0,0.0,0.0,0.0,-0.026703537555513242
1666088182204330447,0.12154122587526218,0.0,0.0,0.0,0.0,-0.029670597283903602
1666088182204363505,0.12793813250027597,0.0,0.0,0.0,0.0,-0.03630284844148206
1666088182204406031,0.12580583029193804,0.0,0.0,0.0,0.0,-0.023212879051524585
1666088182248158381,0.12367352808360012,0.0,0.0,0.0,0.0,-0.020943951023931952
1666088182248177154,0.12580583029193804,0.0,0.0,0.0,0.0,-0.03577924966588375
1666088182259344593,0.12793813250027597,0.0,0.0,0.0,0.0,-0.03228859116189509
1666088182279041731,0.11940892366692425,0.0,0.0,0.0,0.0,-0.017627825445142728
1666088182324123550,0.12793813250027597,0.0,0.0,0.0,0.0,-0.00471238898038469
1666088182324136719,0.12580583029193804,0.0,0.0,0.0,0.0,-0.015707963267948967
1666088182372156135,0.12580583029193804,0.0,0.0,0.0,0.0,-0.011868238913561443
1666088182372168572,0.11940892366692425,0.0,0.0,0.0,0.0,-0.008377580409572781
1666088182420166824,0.12367352808360012,0.0,0.0,0.0,0.0,-0.01064650843716541
1666088182420201163,0.1300704347086139,0.0,0.0,0.0,0.0,-0.006806784082777885
1666088182420280736,0.12154122587526218,0.0,0.0,0.0,0.0,0.0013962634015954637
1666088182468266217,0.11727662145858632,0.0,0.0,0.0,0.0,-0.011693705988362009
1666088182468303484,0.11940892366692425,0.0,0.0,0.0,0.0,-0.01902408884673819
1666088182479053364,0.12580583029193804,0.0,0.0,0.0,0.0,-0.008726646259971648
1666088182498650226,0.11940892366692425,0.0,0.0,0.0,0.0,-0.005585053606381855
1666088182540330981,0.11727662145858632,0.0,0.0,0.0,0.0,-0.01815142422074103
1666088182584090568,0.11940892366692425,0.0,0.0,0.0,0.0,-0.01972222054753592
1666088182584109837,0.12367352808360012,0.0,0.0,0.0,0.0,-0.006283185307179587
1666088182584114055,0.12154122587526218,0.0,0.0,0.0,0.0,-0.0015707963267948967
1666088182628353571,0.12580583029193804,0.0,0.0,0.0,0.0,-0.01308996938995747
1666088182628419314,0.12793813250027597,0.0,0.0,0.0,0.0,-0.00471238898038469
1666088182639146774,0.11940892366692425,0.0,0.0,0.0,0.0,0.003316125578789226
1666088182660385220,0.12367352808360012,0.0,0.0,0.0,0.0,0.0
1666088182704122033,0.11727662145858632,0.0,0.0,0.0,0.0,-0.0013962634015954637
1666088182704148854,0.11940892366692425,0.0,0.0,0.0,0.0,-0.0022689280275926286
1666088182748114677,0.11940892366692425,0.0,0.0,0.0,0.0,-0.005934119456780722
1666088182748134158,0.12154122587526218,0.0,0.0,0.0,0.0,-0.015358897417550098
1666088182792062377,0.12580583029193804,0.0,0.0,0.0,0.0,-0.0466002910282486
1666088182792072112,0.12154122587526218,0.0,0.0,0.0,0.0,-0.04363323129985824
1666088182836163147,0.12154122587526218,0.0,0.0,0.0,0.0,-0.045553093477052
1666088182836184419,0.12580583029193804,0.0,0.0,0.0,0.0,-0.07819075048934597
1666088182880482375,0.11727662145858632,0.0,0.0,0.0,0.0,-0.1202531854624093
1666088182880555205,0.11514431925024839,0.0,0.0,0.0,0.0,-0.1492256510455152
1666088182924287791,0.12154122587526218,0.0,0.0,0.0,0.0,-0.16318828506146982
1666088182924304875,0.12367352808360012,0.0,0.0,0.0,0.0,-0.1923352835697751
1666088182924415465,0.12367352808360012,0.0,0.0,0.0,0.0,-0.24312436480281008
