%time,field.linear.x,field.linear.y,field.linear.z,field.angular.x,field.angular.y,field.angular.z
1666088168106061501,0.0,0.0,0.0,0.0,0.0,-0.1
1666088168155943215,0.0,0.0,0.0,0.0,0.0,-0.2
1666088168206257589,0.0,0.0,0.0,0.0,0.0,-0.30000000000000004
1666088168255942859,0.0,0.0,0.0,0.0,0.0,-0.4
1666088168305901919,0.0,0.0,0.0,0.0,0.0,-0.5
1666088168356847025,0.0,0.0,0.0,0.0,0.0,-0.6
1666088168405874230,0.0,0.0,0.0,0.0,0.0,-0.7
1666088168456437696,0.0,0.0,0.0,0.0,0.0,-0.7999999999999999
1666088168506079338,0.0,0.0,0.0,0.0,0.0,-0.8999999999999999
1666088168556658352,0.0,0.0,0.0,0.0,0.0,-0.9999999999999999
1666088168605786341,0.0,0.0,0.0,0.0,0.0,-1.0999999999999999
1666088168655932102,0.0,0.0,0.0,0.0,0.0,-1.2
1666088168705884367,0.0,0.0,0.0,0.0,0.0,-1.3
1666088168755966914,0.0,0.0,0.0,0.0,0.0,-1.3962634015954642
1666088168805951737,0.0,0.0,0.0,0.0,0.0,-1.2217304763960313
1666088168856112823,0.0,0.0,0.0,0.0,0.0,-1.2217304763960306
1666088168905690662,0.0,0.0,0.0,0.0,0.0,-1.2217304763960306
1666088168956129934,0.0,0.0,0.0,0.0,0.0,-1.2217304763960306
1666088169005896186,0.0,0.0,0.0,0.0,0.0,-1.2217304763960306
1666088169055852607,0.0,0.0,0.0,0.0,0.0,-1.2217304763960313
1666088169106015291,0.0,0.0,0.0,0.0,0.0,-1.2217304763960313
1666088169155935810,0.0,0.0,0.0,0.0,0.0,-1.2217304763960313
1666088169205780354,0.0,0.0,0.0,0.0,0.0,-1.2217304763960313
1666088169256396185,0.0,0.0,0.0,0.0,0.0,-1.2217304763960306
1666088169305755237,0.0,0.0,0.0,0.0,0.0,-1.2217304763960306
1666088169355835003,0.0,0.0,0.0,0.0,0.0,-1.2217304763960306
1666088169405932430,0.0,0.0,0.0,0.0,0.0,-1.2217304763960313
1666088169455914236,0.0,0.0,0.0,0.0,0.0,-1.2217304763960313
1666088169506189267,0.0,0.0,0.0,0.0,0.0,-1.2217304763960313
1666088169557497750,0.0,0.0,0.0,0.0,0.0,-1.2217304763960313
1666088169606042198,0.0,0.0,0.0,0.0,0.0,-1.2217304763960306
1666088169656007700,0.0,0.0,0.0,0.0,0.0,-1.2217304763960306
1666088169705977844,0.0,0.0,0.0,0.0,0.0,-1.2217304763960313
1666088169756063062,0.0,0.0,0.0,0.0,0.0,-1.2217304763960313
1666088169805952814,0.0,0.0,0.0,0.0,0.0,-1.2217304763960313
1666088169856051878,0.0,0.0,0.0,0.0,0.0,-1.2217304763960313
1666088169905808196,0.0,0.0,0.0,0.0,0.0,-1.2217304763960313
1666088169956304925,0.0,0.0,0.0,0.0,0.0,-1.2217304763960313
1666088170005834781,0.0,0.0,0.0,0.0,0.0,-1.2217304763960313
1666088170057211817,0.0,0.0,0.0,0.0,0.0,-1.2217304763960313
1666088170105906522,0.0,0.0,0.0,0.0,0.0,-1.2217304763960306
1666088170156280596,0.0,0.0,0.0,0.0,0.0,-1.2217304763960313
1666088170205869978,0.0,0.0,0.0,0.0,0.0,-1.2217304763960313
1666088170256228004,0.0,0.0,0.0,0.0,0.0,-1.2217304763960313
1666088170305792610,0.0,0.0,0.0,0.0,0.0,-1.2217304763960313
1666088170356014951,0.0,0.0,0.0,0.0,0.0,-1.2217304763960313
1666088170405939857,0.0,0.0,0.0,0.0,0.0,-1.2217304763960313
1666088170455935036,0.0,0.0,0.0,0.0,0.0,-1.2217304763960306
1666088170505922480,0.0,0.0,0.0,0.0,0.0,-1.2217304763960313
1666088170556013273,0.0,0.0,0.0,0.0,0.0,-1.2217304763960313
1666088170605734901,0.0,0.0,0.0,0.0,0.0,-1.2217304763960313
1666088170656280198,0.0,0.0,0.0,0.0,0.0,-1.2217304763960313
1666088170705881635,0.0,0.0,0.0,0.0,0.0,-1.2217304763960313
1666088170756109929,0.0,0.0,0.0,0.0,0.0,-1.2217304763960313
1666088170805876405,0.0,0.0,0.0,0.0,0.0,-1.2217304763960313
1666088170855823905,0.0,0.0,0.0,0.0,0.0,-1.2217304763960313
1666088170906083895,0.0,0.0,0.0,0.0,0.0,-1.2217304763960306
1666088170960815914,0.0,0.0,0.0,0.0,0.0,-1.2217304763960306
1666088171005807124,0.0,0.0,0.0,0.0,0.0,-1.2217304763960313
1666088171056037554,0.0,0.0,0.0,0.0,0.0,-1.2217304763960313
1666088171106068771,0.0,0.0,0.0,0.0,0.0,-1.2217304763960313
1666088171159224816,0.0,0.0,0.0,0.0,0.0,-1.2217304763960306
1666088171205865849,0.0,0.0,0.0,0.0,0.0,-1.2217304763960306
1666088171255814955,0.0,0.0,0.0,0.0,0.0,-1.2217304763960313
1666088171306528570,0.0,0.0,0.0,0.0,0.0,-1.2217304763960313
1666088171356423855,0.0,0.0,0.0,0.0,0.0,-1.1633880981593538
1666088171405963733,0.0,0.0,0.0,0.0,0.0,-1.1633880981593538
1666088171458111072,0.0,0.0,0.0,0.0,0.0,-1.0661334289357967
1666088171505800804,0.0,0.0,0.0,0.0,0.0,-1.0471975511965983
1666088171555949978,0.0,0.0,0.0,0.0,0.0,-1.0471975511965983
1666088171606271068,0.0,0.0,0.0,0.0,0.0,-0.9541995300236071
1666088171655923298,0.0,0.0,0.0,0.0,0.0,-0.9541995300236071
1666088171706299351,0.0,0.0,0.0,0.0,0.0,-0.9541995300236071
1666088171756100892,0.0,0.0,0.0,0.0,0.0,-0.8196777667511509
1666088171805926889,0.0,0.0,0.0,0.0,0.0,-0.8196777667511509
1666088171856326225,0.0,0.0,0.0,0.0,0.0,-0.7381106167323752
1666088171905759498,0.0,0.0,0.0,0.0,0.0,-0.7381106167323752
1666088171956044101,0.0,0.0,0.0,0.0,0.0,-0.6494682129225751
1666088172006421043,0.0,0.0,0.0,0.0,0.0,-0.6494682129225751
1666088172056080832,0.0,0.0,0.0,0.0,0.0,-0.5523195596282271
1666088172106802072,0.0,0.0,0.0,0.0,0.0,-0.45094851514104606
1666088172155811384,0.0,0.0,0.0,0.0,0.0,-0.2480151704679315
1666088172205903239,0.0,0.0,0.0,0.0,0.0,-0.2480151704679315
1666088172255893616,0.0,0.0,0.0,0.0,0.0,-0.17453292519943345
1666088172306328942,0.0,0.0,0.0,0.0,0.0,-0.17453292519943345
1666088172355757239,0.0,0.0,0.0,0.0,0.0,-4.996003610813204e-16
1666088172405842973,0.0,0.0,0.0,0.0,0.0,-4.996003610813204e-16
1666088172455848237,0.0,0.0,0.0,0.0,0.0,0.0999999999999995
1666088172505762178,0.0,0.0,0.0,0.0,0.0,0.17453292519943245
1666088172556034269,0.0,0.0,0.0,0.0,0.0,0.26393381617646566
1666088172606054711,0.0,0.0,0.0,0.0,0.0,0.26393381617646566
1666088172656123701,0.0,0.0,0.0,0.0,0.0,0.32706914881561205
1666088172706109955,0.0,0.0,0.0,0.0,0.0,0.37638896521375026
1666088172755971495,0.0,0.0,0.0,0.0,0.0,0.37638896521375026
1666088172806155205,0.0,0.0,0.0,0.0,0.0,0.4048339720549983
1666088172856009213,0.0,0.0,0.0,0.0,0.0,0.4048339720549983
1666088172905972390,0.0,0.0,0.0,0.0,0.0,0.4378488009196044
1666088172955756404,0.0,0.0,0.0,0.0,0.0,0.46153493055001166
1666088173005872645,0.0,0.0,0.0,0.0,0.0,0.46153493055001166
1666088173055785425,0.0,0.0,0.0,0.0,0.0,0.4912487238309188
1666088173106132269,0.0,0.0,0.0,0.0,0.0,0.4912487238309188
1666088173155820777,0.0,0.0,0.0,0.0,0.0,0.5010279948449966
1666088173205832636,0.0,0.0,0.0,0.0,0.0,0.5010279948449966
1666088173262499933,0.0,0.0,0.0,0.0,0.0,0.5159085813492721
1666088173305979339,0.0,0.0,0.0,0.0,0.0,0.5159085813492721
1666088173355786161,0.0,0.0,0.0,0.0,0.0,0.48917268520486884
1666088173406050481,0.0,0.0,0.0,0.0,0.0,0.48438111878372936
1666088173456774267,0.0,0.0,0.0,0.0,0.0,0.46924064795401943
1666088173505688670,0.0,0.0,0.0,0.0,0.0,0.46924064795401943
1666088173555786865,0.0,0.0,0.0,0.0,0.0,0.4650712981821867
1666088173606304083,0.0,0.0,0.0,0.0,0.0,0.4650712981821867
1666088173655817336,0.0,0.0,0.0,0.0,0.0,0.42939298664008985
1666088173705817634,0.0,0.0,0.0,0.0,0.0,0.42666790040198244
1666088173756393800,0.0,0.0,0.0,0.0,0.0,0.42666790040198244
1666088173806356302,0.0,0.0,0.0,0.0,0.0,0.42666790040198244
1666088173855817094,0.0,0.0,0.0,0.0,0.0,0.39870924091311905
1666088173905896092,0.0,0.0,0.0,0.0,0.0,0.37866792359933943
1666088173955888161,0.0,0.0,0.0,0.0,0.0,0.37866792359933943
1666088174005848497,0.0,0.0,0.0,0.0,0.0,0.3559540294846944
1666088174055863856,0.0,0.0,0.0,0.0,0.0,0.3559540294846944
1666088174105947831,0.0,0.0,0.0,0.0,0.0,0.3231961950793565
1666088174155953598,0.0,0.0,0.0,0.0,0.0,0.31793118529995257
1666088174206242743,0.0,0.0,0.0,0.0,0.0,0.31793118529995257
1666088174255887472,0.0,0.0,0.0,0.0,0.0,0.3050736047422074
1666088174305990754,0.0,0.0,0.0,0.0,0.0,0.28282587308434143
1666088174356429109,0.0,0.0,0.0,0.0,0.0,0.271477015250416
1666088174405801762,0.0,0.0,0.0,0.0,0.0,0.25384126641781357
1666088174455765630,0.0,0.0,0.0,0.0,0.0,0.25384126641781357
1666088174506149694,0.0,0.0,0.0,0.0,0.0,0.24462474107176993
1666088174555698712,0.0,0.0,0.0,0.0,0.0,0.21957137100369262
1666088174606311916,0.0,0.0,0.0,0.0,0.0,0.21957137100369262
1666088174656258036,0.0,0.0,0.0,0.0,0.0,0.22034331960995301
1666088174706005968,0.0,0.0,0.0,0.0,0.0,0.22034331960995301
1666088174755942956,0.0,0.0,0.0,0.0,0.0,0.21771585720348371
1666088174805853324,0.0,0.0,0.0,0.0,0.0,0.21354848579165236
1666088174856100858,0.0,0.0,0.0,0.0,0.0,0.21354848579165236
1666088174905806493,0.0,0.0,0.0,0.0,0.0,0.17453292519943245
1666088174955968916,0.0,0.0,0.0,0.0,0.0,0.17453292519943245
1666088175006159754,0.0,0.0,0.0,0.0,0.0,0.17453292519943245
1666088175055733663,0.0,0.0,0.0,0.0,0.0,0.17453292519943245
1666088175105949237,0.0,0.0,0.0,0.0,0.0,0.17453292519943245
1666088175156808441,0.0,0.0,0.0,0.0,0.0,0.17453292519943245
1666088175205850119,0.0,0.0,0.0,0.0,0.0,0.17453292519943245
1666088175256460072,0.0,0.0,0.0,0.0,0.0,0.22442646283347586
1666088175306106038,0.0,0.0,0.0,0.0,0.0,0.22442646283347586
1666088175356593506,0.0,0.0,0.0,0.0,0.0,0.22778502079928473
1666088175406150487,0.0,0.0,0.0,0.0,0.0,0.22752685904951198
1666088175455833152,0.0,0.0,0.0,0.0,0.0,0.22752685904951198
1666088175506525428,0.0,0.0,0.0,0.0,0.0,0.22752685904951198
1666088175556342229,0.0,0.0,0.0,0.0,0.0,0.2184064563917584
1666088175605778441,0.0,0.0,0.0,0.0,0.0,0.2184064563917584
1666088175655829995,0.0,0.0,0.0,0.0,0.0,0.17453292519943245
1666088175705877698,0.0,0.0,0.0,0.0,0.0,0.17453292519943245
1666088175756848719,0.0,0.0,0.0,0.0,0.0,0.17453292519943245
1666088175806274584,0.0,0.0,0.0,0.0,0.0,0.17453292519943245
1666088175855873331,0.0,0.0,0.0,0.0,0.0,0.17453292519943245
1666088175906073258,0.0,0.0,0.0,0.0,0.0,0.17453292519943245
1666088175956278806,0.0,0.0,0.0,0.0,0.0,0.17453292519943245
1666088176006186823,0.0,0.0,0.0,0.0,0.0,0.17453292519943245
1666088176055871682,0.0,0.0,0.0,0.0,0.0,0.17453292519943245
1666088176105972499,0.0,0.0,0.0,0.0,0.0,0.17453292519943245
1666088176156090442,0.0,0.0,0.0,0.0,0.0,0.17453292519943245
1666088176205948618,0.0,0.0,0.0,0.0,0.0,0.17453292519943245
1666088176255932524,0.0,0.0,0.0,0.0,0.0,0.17453292519943245
1666088176306358831,0.0,0.0,0.0,0.0,0.0,0.17453292519943245
1666088176355795571,0.0,0.0,0.0,0.0,0.0,0.17453292519943245
1666088176405765647,0.0,0.0,0.0,0.0,0.0,0.17453292519943245
1666088176455814021,0.0,0.0,0.0,0.0,0.0,0.17453292519943245
1666088176505949109,0.0,0.0,0.0,0.0,0.0,0.17453292519943245
1666088176555862249,0.015,0.0,0.0,0.0,0.0,0.17453292519943245
1666088176606638761,0.03,0.0,0.0,0.0,0.0,0.17453292519943245
1666088176656364822,0.045,0.0,0.0,0.0,0.0,0.17453292519943245
1666088176705919304,0.06,0.0,0.0,0.0,0.0,0.17453292519943245
1666088176755722580,0.075,0.0,0.0,0.0,0.0,0.17453292519943245
1666088176807786362,0.09,0.0,0.0,0.0,0.0,0.17453292519943245
1666088176856606072,0.105,0.0,0.0,0.0,0.0,0.17453292519943245
1666088176905840305,0.12,0.0,0.0,0.0,0.0,0.17453292519943245
1666088176956178140,0.135,0.0,0.0,0.0,0.0,0.17453292519943245
1666088177005799793,0.15000000000000002,0.0,0.0,0.0,0.0,0.16780991284504715
1666088177055878133,0.16500000000000004,0.0,0.0,0.0,0.0,0.16155462400214043
1666088177106140622,0.18000000000000005,0.0,0.0,0.0,0.0,0.15529933515923372
1666088177156011088,0.19500000000000006,0.0,0.0,0.0,0.0,0.149044046316327
1666088177206601289,0.21000000000000008,0.0,0.0,0.0,0.0,0.14388427783666682
1666088177255795605,0.2250000000000001,0.0,0.0,0.0,0.0,0.13872450935700664
1666088177305812190,0.2400000000000001,0.0,0.0,0.0,0.0,0.13207220230658748
1666088177355884305,0.2550000000000001,0.0,0.0,0.0,0.0,0.1254198952561683
1666088177406049960,0.27000000000000013,0.0,0.0,0.0,0.0,0.11888919846138316
1666088177455809982,0.28500000000000014,0.0,0.0,0.0,0.0,0.112358501666598
1666088177506180905,0.30000000000000016,0.0,0.0,0.0,0.0,0.10594557446597291
1666088177555899869,0.31500000000000017,0.0,0.0,0.0,0.0,0.09953264726534783
1666088177606098484,0.3300000000000002,0.0,0.0,0.0,0.0,0.09311972006472274
1666088177655804292,0.3450000000000002,0.0,0.0,0.0,0.0,0.08412845328128943
1666088177706293744,0.3600000000000002,0.0,0.0,0.0,0.0,0.07535298407218967
1666088177756018412,0.3750000000000002,0.0,0.0,0.0,0.0,0.06657751486308991
1666088177806359113,0.39000000000000024,0.0,0.0,0.0,0.0,0.058067734625589076
1666088177856492933,0.40500000000000025,0.0,0.0,0.0,0.0,0.04317260346615777
1666088177905893363,0.42000000000000026,0.0,0.0,0.0,0.0,0.02827747230672646
1666088177955801886,0.4350000000000003,0.0,0.0,0.0,0.0,0.013382341147295154
1666088178005867927,0.4500000000000003,0.0,0.0,0.0,0.0,-0.001512790012136155
1666088178056098609,0.4650000000000003,0.0,0.0,0.0,0.0,-0.016407921171567464
1666088178106198625,0.4800000000000003,0.0,0.0,0.0,0.0,-0.031303052330998775
1666088178155857201,0.49500000000000033,0.0,0.0,0.0,0.0,-0.05437941435915351
1666088178205971946,0.5100000000000003,0.0,0.0,0.0,0.0,-0.07745577638730826
1666088178255785357,0.5250000000000004,0.0,0.0,0.0,0.0,-0.100532138415463
1666088178306098142,0.5400000000000004,0.0,0.0,0.0,0.0,-0.12360850044361775
1666088178355743570,0.5550000000000004,0.0,0.0,0.0,0.0,-0.14668486247177248
1666088178406187126,0.5700000000000004,0.0,0.0,0.0,0.0,-0.16976122449992723
1666088178456103867,0.5850000000000004,0.0,0.0,0.0,0.0,-0.19283758652808197
1666088178506014974,0.6000000000000004,0.0,0.0,0.0,0.0,-0.21591394855623672
1666088178555969339,0.6150000000000004,0.0,0.0,0.0,0.0,-0.23899031058439146
1666088178605807135,0.6300000000000004,0.0,0.0,0.0,0.0,-0.26206667261254624
1666088178655822986,0.6450000000000005,0.0,0.0,0.0,0.0,-0.285143034640701
1666088178705876707,0.6600000000000005,0.0,0.0,0.0,0.0,-0.3082193966688558
1666088178756132734,0.6750000000000005,0.0,0.0,0.0,0.0,-0.33129575869701056
1666088178805945384,0.6900000000000005,0.0,0.0,0.0,0.0,-0.35437212072516533
1666088178855758231,0.7050000000000005,0.0,0.0,0.0,0.0,-0.3774484827533201
1666088178905842995,0.7200000000000005,0.0,0.0,0.0,0.0,-0.4005248447814749
1666088178956438987,0.7350000000000005,0.0,0.0,0.0,0.0,-0.39087628333473573
1666088179005749812,0.7500000000000006,0.0,0.0,0.0,0.0,-0.4215045507801738
1666088179055840841,0.7650000000000006,0.0,0.0,0.0,0.0,-0.45213281822561185
1666088179106569894,0.7800000000000006,0.0,0.0,0.0,0.0,-0.4827610856710499
1666088179156021133,0.7950000000000006,0.0,0.0,0.0,0.0,-0.513389353116488
1666088179205962738,0.7999999999999999,0.0,0.0,0.0,0.0,-0.36407679319381714
1666088179255946401,0.7999999999999999,0.0,0.0,0.0,0.0,-0.36407679319381714
1666088179306017820,0.7999999999999999,0.0,0.0,0.0,0.0,-0.36407679319381714
1666088179356515468,0.7999999999999999,0.0,0.0,0.0,0.0,-0.4640767931938171
1666088179405810538,0.7999999999999999,0.0,0.0,0.0,0.0,-0.5235987755982994
1666088179455814291,0.7999999999999999,0.0,0.0,0.0,0.0,-0.6235987755982993
1666088179505955812,0.7999999999999999,0.0,0.0,0.0,0.0,-0.7235987755982993
1666088179557534223,0.7999999999999999,0.0,0.0,0.0,0.0,-0.8235987755982993
1666088179606988535,0.7999999999999999,0.0,0.0,0.0,0.0,-0.8726646259971653
1666088179655846379,0.7999999999999999,0.0,0.0,0.0,0.0,-0.8726646259971653
1666088179706056715,0.7999999999999999,0.0,0.0,0.0,0.0,-0.8726646259971653
1666088179756003162,0.7999999999999999,0.0,0.0,0.0,0.0,-0.8726646259971653
1666088179805940810,0.7999999999999999,0.0,0.0,0.0,0.0,-0.8726646259971653
1666088179855926206,0.7999999999999999,0.0,0.0,0.0,0.0,-0.8726646259971653
1666088179906409431,0.7999999999999999,0.0,0.0,0.0,0.0,-0.8726646259971653
1666088179956508293,0.7999999999999999,0.0,0.0,0.0,0.0,-0.8726646259971653
1666088180005889285,0.7999999999999999,0.0,0.0,0.0,0.0,-0.8726646259971653
1666088180055788864,0.7999999999999999,0.0,0.0,0.0,0.0,-0.8726646259971653
1666088180107527485,0.7999999999999999,0.0,0.0,0.0,0.0,-0.8726646259971653
1666088180156130474,0.7999999999999999,0.0,0.0,0.0,0.0,-0.8726646259971653
1666088180206087236,0.7999999999999999,0.0,0.0,0.0,0.0,-0.8726646259971653
1666088180256018140,0.7999999999999999,0.0,0.0,0.0,0.0,-0.8726646259971653
1666088180306205971,0.7999999999999999,0.0,0.0,0.0,0.0,-0.8726646259971653
1666088180355924019,0.7999999999999999,0.0,0.0,0.0,0.0,-0.8726646259971653
1666088180405872871,0.7999999999999999,0.0,0.0,0.0,0.0,-0.8726646259971653
1666088180456109974,0.6499999999999999,0.0,0.0,0.0,0.0,-0.8352647134544297
1666088180505915117,0.4999999999999999,0.0,0.0,0.0,0.0,-0.797864800911694
1666088180555870380,0.34999999999999987,0.0,0.0,0.0,0.0,-0.7604648883689583
1666088180606327108,0.19999999999999984,0.0,0.0,0.0,0.0,-0.7230649758262228
1666088180656157194,0.1,0.0,0.0,0.0,0.0,-0.6981317007977323
1666088180705815354,0.1,0.0,0.0,0.0,0.0,-0.6981317007977323
1666088180756436621,0.1,0.0,0.0,0.0,0.0,-0.6981317007977323
1666088180807292547,0.1,0.0,0.0,0.0,0.0,-0.6981317007977323
1666088180855845793,0.1,0.0,0.0,0.0,0.0,-0.6981317007977323
1666088180905782050,0.1,0.0,0.0,0.0,0.0,-0.6981317007977323
1666088180956242734,0.1,0.0,0.0,0.0,0.0,-0.6981317007977323
1666088181006006628,0.1,0.0,0.0,0.0,0.0,-0.6981317007977323
1666088181056200697,0.1,0.0,0.0,0.0,0.0,-0.6981317007977323
1666088181106232405,0.1,0.0,0.0,0.0,0.0,-0.6981317007977323
1666088181156007075,0.1,0.0,0.0,0.0,0.0,-0.5235987755982994
1666088181205982539,0.1,0.0,0.0,0.0,0.0,-0.5235987755982994
1666088181256486150,0.1,0.0,0.0,0.0,0.0,-0.5235987755982994
1666088181306042231,0.1,0.0,0.0,0.0,0.0,-0.5235987755982994
1666088181356961849,0.1,0.0,0.0,0.0,0.0,-0.5235987755982994
1666088181406627687,0.1,0.0,0.0,0.0,0.0,-0.5235987755982994
1666088181456127545,0.1,0.0,0.0,0.0,0.0,-0.5235987755982994
1666088181505815062,0.1,0.0,0.0,0.0,0.0,-0.5235987755982994
1666088181556354575,0.1,0.0,0.0,0.0,0.0,-0.3490658503988664
1666088181606286278,0.1,0.0,0.0,0.0,0.0,-0.3490658503988664
1666088181655868979,0.1,0.0,0.0,0.0,0.0,-0.3490658503988664
1666088181706085421,0.1,0.0,0.0,0.0,0.0,-0.3490658503988664
1666088181755926957,0.1,0.0,0.0,0.0,0.0,-0.3490658503988664
1666088181806087363,0.1,0.0,0.0,0.0,0.0,-0.3490658503988664
1666088181856056601,0.1,0.0,0.0,0.0,0.0,-0.2133273035287857
1666088181908189954,0.1,0.0,0.0,0.0,0.0,-0.2133273035287857
1666088181956389326,0.1,0.0,0.0,0.0,0.0,-0.196726456284523
1666088182005904438,0.1,0.0,0.0,0.0,0.0,-0.196726456284523
1666088182056374375,0.1,0.0,0.0,0.0,0.0,-0.18132151663303375
1666088182106124586,0.1,0.0,0.0,0.0,0.0,-0.14667919278144836
1666088182156409035,0.1,0.0,0.0,0.0,0.0,-0.10681390017271042
1666088182205936134,0.1,0.0,0.0,0.0,0.0,-0.10681390017271042
1666088182256078751,0.1,0.0,0.0,0.0,0.0,-0.06995309889316559
1666088182305943887,0.1,0.0,0.0,0.0,0.0,-0.06995309889316559
1666088182356059724,0.1,0.0,0.0,0.0,0.0,-0.06995309889316559
1666088182405909235,0.1,0.0,0.0,0.0,0.0,-0.0499613992869854
1666088182456088025,0.1,0.0,0.0,0.0,0.0,-0.018873976543545723
1666088182505922241,0.1,0.0,0.0,0.0,0.0,-0.018873976543545723
1666088182556003197,0.1,0.0,0.0,0.0,0.0,-0.018873976543545723
1666088182605964108,0.1,0.0,0.0,0.0,0.0,-0.11887397654354573
1666088182657324535,0.1,0.0,0.0,0.0,0.0,-0.21887397654354573
1666088182705875585,0.1,0.0,0.0,0.0,0.0,-0.31887397654354577
1666088182756033976,0.1,0.0,0.0,0.0,0.0,-0.41887397654354575
1666088182805895907,0.1,0.0,0.0,0.0,0.0,-0.5188739765435457
1666088182855956329,0.1,0.0,0.0,0.0,0.0,-0.6188739765435457
1666088182905910973,0.1,0.0,0.0,0.0,0.0,-0.7188739765435457
1666088182955875808,0.1,0.0,0.0,0.0,0.0,-0.8188739765435457
1666088183005943746,0.1,0.0,0.0,0.0,0.0,-0.9188739765435456
1666088183056490273,0.0,0.0,0.0,0.0,0.0,0.0
1666088183106051097,0.0,0.0,0.0,0.0,0.0,0.0
1666088183156069206,0.0,0.0,0.0,0.0,0.0,0.0
1666088183206094276,0.0,0.0,0.0,0.0,0.0,0.0
1666088183256028789,0.0,0.0,0.0,0.0,0.0,0.0
1666088183305954856,0.0,0.0,0.0,0.0,0.0,0.0
1666088183356017548,0.0,0.0,0.0,0.0,0.0,0.1
1666088183405897156,0.0,0.0,0.0,0.0,0.0,0.2
1666088183455906652,0.0,0.0,0.0,0.0,0.0,0.22526851944794807
1666088183505994675,0.0,0.0,0.0,0.0,0.0,0.25251658040268604
1666088183556039280,0.0,0.0,0.0,0.0,0.0,0.25251658040268604
1666088183605959869,0.0,0.0,0.0,0.0,0.0,0.25251658040268604
1666088183656762690,0.0,0.0,0.0,0.0,0.0,0.2784196732136361
1666088183706058169,0.0,0.0,0.0,0.0,0.0,0.2784196732136361
1666088183755934278,0.0,0.0,0.0,0.0,0.0,0.2903242162041169
1666088183805914252,0.0,0.0,0.0,0.0,0.0,0.29929819738717806
1666088183855910679,0.0,0.0,0.0,0.0,0.0,0.29929819738717806
1666088183905896242,0.0,0.0,0.0,0.0,0.0,0.29929819738717806
1666088183956077994,0.0,0.0,0.0,0.0,0.0,0.3078594900789895
1666088184006087943,0.0,0.0,0.0,0.0,0.0,0.3078594900789895
1666088184057908644,0.0,0.0,0.0,0.0,0.0,0.3078594900789895
1666088184106434286,0.0,0.0,0.0,0.0,0.0,0.302170324213461
1666088184155879057,0.0,0.0,0.0,0.0,0.0,0.30300631185767996
1666088184206059775,0.0,0.0,0.0,0.0,0.0,0.30300631185767996
1666088184256032538,0.0,0.0,0.0,0.0,0.0,0.3070423245138041
1666088184306198185,0.0,0.0,0.0,0.0,0.0,0.3070423245138041
1666088184355851917,0.0,0.0,0.0,0.0,0.0,0.3092746986193046
1666088184407806817,0.0,0.0,0.0,0.0,0.0,0.30894949256443577
1666088184455752693,0.0,0.0,0.0,0.0,0.0,0.30894949256443577
1666088184506015089,0.0,0.0,0.0,0.0,0.0,0.30663899263832595
1666088184555769540,0.0,0.0,0.0,0.0,0.0,0.2998735893027359
1666088184606319579,0.0,0.0,0.0,0.0,0.0,0.29942927850531814
1666088184655827700,0.0,0.0,0.0,0.0,0.0,0.29942927850531814
1666088184705952457,0.0,0.0,0.0,0.0,0.0,0.29709920114984656
1666088184755810438,0.0,0.0,0.0,0.0,0.0,0.29709920114984656
1666088184806241325,0.0,0.0,0.0,0.0,0.0,0.29709920114984656
1666088184856193904,0.0,0.0,0.0,0.0,0.0,0.2960031426481
1666088184905950610,0.0,0.0,0.0,0.0,0.0,0.28957889146312155
1666088184955818032,0.0,0.0,0.0,0.0,0.0,0.28957889146312155
1666088185006597602,0.0,0.0,0.0,0.0,0.0,0.285668709823338
1666088185055823656,0.0,0.0,0.0,0.0,0.0,0.285668709823338
1666088185106764268,0.0,0.0,0.0,0.0,0.0,0.285668709823338
1666088185155816859,0.0,0.0,0.0,0.0,0.0,0.28391312300111915
1666088185206104799,0.0,0.0,0.0,0.0,0.0,0.28391312300111915
1666088185255838537,0.0,0.0,0.0,0.0,0.0,0.27670757723829364
1666088185306647473,0.0,0.0,0.0,0.0,0.0,0.2686778521078455
1666088185355790460,0.0,0.0,0.0,0.0,0.0,0.2686778521078455
1666088185406106519,0.0,0.0,0.0,0.0,0.0,0.27433692699163875
1666088185455806250,0.0,0.0,0.0,0.0,0.0,0.27433692699163875
1666088185506252785,0.0,0.0,0.0,0.0,0.0,0.2746321970936758
1666088185556064881,0.0,0.0,0.0,0.0,0.0,0.2674182704008302
1666088185606215057,0.0,0.0,0.0,0.0,0.0,0.2674182704008302
1666088185656168714,0.0,0.0,0.0,0.0,0.0,0.26898470447326445
1666088185705869638,0.0,0.0,0.0,0.0,0.0,0.26898470447326445
1666088185755824465,0.0,0.0,0.0,0.0,0.0,0.26741299239241245
1666088185806052510,0.0,0.0,0.0,0.0,0.0,0.26741299239241245
1666088185856334961,0.0,0.0,0.0,0.0,0.0,0.2686100493575637
1666088185906627583,0.0,0.0,0.0,0.0,0.0,0.2660975513547934
1666088185955917484,0.0,0.0,0.0,0.0,0.0,0.2660975513547934
1666088186005906683,0.0,0.0,0.0,0.0,0.0,0.26694094219542114
1666088186056076529,0.0,0.0,0.0,0.0,0.0,0.26694094219542114
1666088186106858248,0.0,0.0,0.0,0.0,0.0,0.2660395699844706
1666088186155771460,0.0,0.0,0.0,0.0,0.0,0.264600755198228
1666088186206087484,0.0,0.0,0.0,0.0,0.0,0.264600755198228
1666088186256093500,0.0,0.0,0.0,0.0,0.0,0.265643868659198
1666088186305845338,0.0,0.0,0.0,0.0,0.0,0.265643868659198
1666088186356022994,0.0,0.0,0.0,0.0,0.0,0.2662851141411005
1666088186405938246,0.0,0.0,0.0,0.0,0.0,0.26324799557613066
1666088186456069068,0.0,0.0,0.0,0.0,0.0,0.264606817488529
1666088186505893373,0.0,0.0,0.0,0.0,0.0,0.264606817488529
1666088186555930872,0.0,0.0,0.0,0.0,0.0,0.2662628339802242
1666088186605835348,0.0,0.0,0.0,0.0,0.0,0.2662628339802242
1666088186655736225,0.0,0.0,0.0,0.0,0.0,0.2662628339802242
1666088186706201585,0.0,0.0,0.0,0.0,0.0,0.26072803150175144
1666088186756030458,0.0,0.0,0.0,0.0,0.0,0.26072803150175144
1666088186806179588,0.0,0.0,0.0,0.0,0.0,0.26861106379798233
1666088186856012661,0.0,0.0,0.0,0.0,0.0,0.26298970538906336
1666088186906291486,0.0,0.0,0.0,0.0,0.0,0.26298970538906336
1666088186956189869,0.0,0.0,0.0,0.0,0.0,0.26705580681814334
1666088187006203075,0.0,0.0,0.0,0.0,0.0,0.26322057670586174
1666088187055935653,0.0,0.0,0.0,0.0,0.0,0.265640203949449
1666088187106271536,0.0,0.0,0.0,0.0,0.0,0.265640203949449
1666088187157697947,0.0,0.0,0.0,0.0,0.0,0.26626896158607655
1666088187205820601,0.0,0.0,0.0,0.0,0.0,0.26626896158607655
1666088187255902834,0.0,0.0,0.0,0.0,0.0,0.2651114319069993
1666088187307370621,0.0,0.0,0.0,0.0,0.0,0.2651114319069993
1666088187356151865,0.0,0.0,0.0,0.0,0.0,0.2641120340652538
1666088187406366041,0.0,0.0,0.0,0.0,0.0,0.2634109440858564
1666088187456694901,0.0,0.0,0.0,0.0,0.0,0.2634109440858564
1666088187506287742,0.0,0.0,0.0,0.0,0.0,0.2634544457348686
1666088187555953100,0.0,0.0,0.0,0.0,0.0,0.25860573771955053
1666088187605908210,0.0,0.0,0.0,0.0,0.0,0.259963921272649
1666088187656077050,0.0,0.0,0.0,0.0,0.0,0.26054852047237015
1666088187710846849,0.0,0.0,0.0,0.0,0.0,0.26054852047237015
1666088187758174537,0.0,0.0,0.0,0.0,0.0,0.26268098233332515
1666088187805960774,0.0,0.0,0.0,0.0,0.0,0.26268098233332515
1666088187855900594,0.0,0.0,0.0,0.0,0.0,0.2615571796167678
1666088187905987299,0.0,0.0,0.0,0.0,0.0,0.2615571796167678
1666088187955945677,0.0,0.0,0.0,0.0,0.0,0.2559871907450218
1666088188005948390,0.0,0.0,0.0,0.0,0.0,0.2559871907450218
1666088188055818926,0.0,0.0,0.0,0.0,0.0,0.2603582588915106
1666088188106192218,0.0,0.0,0.0,0.0,0.0,0.2603582588915106
1666088188156384731,0.0,0.0,0.0,0.0,0.0,0.2611037520879719
1666088188206196591,0.0,0.0,0.0,0.0,0.0,0.25722835283752926
1666088188256659674,0.0,0.0,0.0,0.0,0.0,0.260183514525665
1666088188305899998,0.0,0.0,0.0,0.0,0.0,0.260183514525665
1666088188356049928,0.0,0.0,0.0,0.0,0.0,0.2610759538969849
1666088188406269094,0.0,0.0,0.0,0.0,0.0,0.2610759538969849
1666088188456348858,0.0,0.0,0.0,0.0,0.0,0.2604811595931219
1666088188505971323,0.0,0.0,0.0,0.0,0.0,0.2564780644267519
1666088188555954167,0.0,0.0,0.0,0.0,0.0,0.25683693786169154
1666088188606382956,0.0,0.0,0.0,0.0,0.0,0.25683693786169154
1666088188656064155,0.0,0.0,0.0,0.0,0.0,0.2569045669947174
1666088188705856881,0.0,0.0,0.0,0.0,0.0,0.2569045669947174
1666088188758336723,0.0,0.0,0.0,0.0,0.0,0.25502869492732755
1666088188805763808,0.0,0.0,0.0,0.0,0.0,0.24879700748785116
1666088188856774445,0.0,0.0,0.0,0.0,0.0,0.2463995118839535
1666088188905837581,0.0,0.0,0.0,0.0,0.0,0.2463995118839535
1666088188956539227,0.0,0.0,0.0,0.0,0.0,0.24602190505758742
1666088189006544526,0.0,0.0,0.0,0.0,0.0,0.23578251078867526
1666088189055937335,0.0,0.0,0.0,0.0,0.0,0.22952722027202785
1666088189106421747,0.0,0.0,0.0,0.0,0.0,0.22952722027202785
1666088189156953329,0.0,0.0,0.0,0.0,0.0,0.2243999834378031
1666088189205860819,0.0,0.0,0.0,0.0,0.0,0.2243999834378031
1666088189255807972,0.0,0.0,0.0,0.0,0.0,0.21640649401487858
1666088189305925948,0.0,0.0,0.0,0.0,0.0,0.0
1666088189356054412,0.0,0.0,0.0,0.0,0.0,0.0
1666088189405899805,0.0,0.0,0.0,0.0,0.0,0.0
1666088189455978231,0.0,0.0,0.0,0.0,0.0,0.0
1666088189505864792,0.0,0.0,0.0,0.0,0.0,0.0
1666088189556090083,0.0,0.0,0.0,0.0,0.0,0.0
1666088189605768873,0.0,0.0,0.0,0.0,0.0,0.0
1666088189655870996,0.0,0.0,0.0,0.0,0.0,0.0
1666088189705776136,0.0,0.0,0.0,0.0,0.0,0.0
1666088189755978987,0.0,0.0,0.0,0.0,0.0,0.0
1666088189805855538,0.0,0.0,0.0,0.0,0.0,0.0
1666088189855963203,0.0,0.0,0.0,0.0,0.0,0.0
1666088189906054446,0.0,0.0,0.0,0.0,0.0,0.0
1666088189955906244,0.0,0.0,0.0,0.0,0.0,0.0
1666088190005990218,0.0,0.0,0.0,0.0,0.0,0.0
1666088190056045259,0.0,0.0,0.0,0.0,0.0,0.0
1666088190105786678,0.0,0.0,0.0,0.0,0.0,0.0
1666088190155852769,0.0,0.0,0.0,0.0,0.0,0.0
1666088190205819606,0.0,0.0,0.0,0.0,0.0,0.0
1666088190256006986,0.0,0.0,0.0,0.0,0.0,0.0
1666088190305975530,0.0,0.0,0.0,0.0,0.0,0.0
1666088190355794302,0.0,0.0,0.0,0.0,0.0,0.0
1666088190406435736,0.0,0.0,0.0,0.0,0.0,0.0
1666088190455775469,0.0,0.0,0.0,0.0,0.0,0.0
1666088190505928618,0.0,0.0,0.0,0.0,0.0,0.0
1666088190555921814,0.0,0.0,0.0,0.0,0.0,0.0
1666088190605897936,0.0,0.0,0.0,0.0,0.0,0.0
1666088190655815056,0.0,0.0,0.0,0.0,0.0,0.0
1666088190707017814,0.0,0.0,0.0,0.0,0.0,0.0
1666088190755915532,0.0,0.0,0.0,0.0,0.0,0.0
1666088190805888358,0.0,0.0,0.0,0.0,0.0,0.0
1666088190856185271,0.0,0.0,0.0,0.0,0.0,0.0
1666088190906276258,0.0,0.0,0.0,0.0,0.0,0.0
1666088190956649101,0.0,0.0,0.0,0.0,0.0,0.0
1666088191005881844,0.0,0.0,0.0,0.0,0.0,0.0
1666088191055851617,0.0,0.0,0.0,0.0,0.0,0.0
1666088191105847287,0.0,0.0,0.0,0.0,0.0,0.0
1666088191156076112,0.0,0.0,0.0,0.0,0.0,0.0
1666088191206202076,0.0,0.0,0.0,0.0,0.0,0.0
1666088191256025984,0.0,0.0,0.0,0.0,0.0,0.0
1666088191305806572,0.0,0.0,0.0,0.0,0.0,0.0
1666088191355853474,0.0,0.0,0.0,0.0,0.0,0.0
1666088191405874396,0.0,0.0,0.0,0.0,0.0,0.0
1666088191456076882,0.0,0.0,0.0,0.0,0.0,0.0
1666088191507034128,0.0,0.0,0.0,0.0,0.0,0.0
1666088191555765711,0.0,0.0,0.0,0.0,0.0,0.0
1666088191605827205,0.0,0.0,0.0,0.0,0.0,0.0
1666088191655979233,0.0,0.0,0.0,0.0,0.0,0.0
1666088191705730688,0.0,0.0,0.0,0.0,0.0,0.0
1666088191756201816,0.0,0.0,0.0,0.0,0.0,0.0
1666088191806159775,0.0,0.0,0.0,0.0,0.0,0.0
1666088191856181538,0.0,0.0,0.0,0.0,0.0,0.0
1666088191905795605,0.0,0.0,0.0,0.0,0.0,0.0
1666088191956263723,0.0,0.0,0.0,0.0,0.0,0.0
1666088192006256441,0.0,0.0,0.0,0.0,0.0,0.0
1666088192055959863,0.0,0.0,0.0,0.0,0.0,0.0
1666088192105841612,0.0,0.0,0.0,0.0,0.0,0.0
1666088192156302146,0.0,0.0,0.0,0.0,0.0,0.0
1666088192206015457,0.0,0.0,0.0,0.0,0.0,0.0
1666088192255775879,0.0,0.0,0.0,0.0,0.0,0.0
1666088192305797570,0.0,0.0,0.0,0.0,0.0,0.0
1666088192355783295,0.0,0.0,0.0,0.0,0.0,0.0
1666088192406050567,0.0,0.0,0.0,0.0,0.0,0.0
1666088192455906475,0.0,0.0,0.0,0.0,0.0,0.0
1666088192505735971,0.0,0.0,0.0,0.0,0.0,0.0
1666088192556313667,0.0,0.0,0.0,0.0,0.0,0.0
1666088192605899305,0.0,0.0,0.0,0.0,0.0,0.0
1666088192656352814,0.0,0.0,0.0,0.0,0.0,0.0
1666088192709649835,0.0,0.0,0.0,0.0,0.0,0.0
1666088192756024979,0.0,0.0,0.0,0.0,0.0,0.0
1666088192806251645,0.0,0.0,0.0,0.0,0.0,0.0
1666088192855778207,0.0,0.0,0.0,0.0,0.0,0.0
1666088192905729076,0.0,0.0,0.0,0.0,0.0,0.0
1666088192956071325,0.0,0.0,0.0,0.0,0.0,0.0
1666088193006107831,0.0,0.0,0.0,0.0,0.0,0.0
1666088193056589203,0.0,0.0,0.0,0.0,0.0,0.0
1666088193105911326,0.0,0.0,0.0,0.0,0.0,0.0
1666088193155921554,0.0,0.0,0.0,0.0,0.0,0.0
1666088193206007689,0.0,0.0,0.0,0.0,0.0,0.0
1666088193256037355,0.0,0.0,0.0,0.0,0.0,0.0
1666088193305984764,0.0,0.0,0.0,0.0,0.0,0.0
1666088193356061727,0.0,0.0,0.0,0.0,0.0,0.0
1666088193406840761,0.0,0.0,0.0,0.0,0.0,0.0
1666088193455791471,0.0,0.0,0.0,0.0,0.0,0.0
1666088193506069459,0.0,0.0,0.0,0.0,0.0,0.0
1666088193557893175,0.0,0.0,0.0,0.0,0.0,0.0
1666088193606077801,0.0,0.0,0.0,0.0,0.0,0.0
1666088193656837311,0.0,0.0,0.0,0.0,0.0,0.0
1666088193705936277,0.0,0.0,0.0,0.0,0.0,0.0
1666088193756034276,0.0,0.0,0.0,0.0,0.0,0.0
1666088193806022054,0.0,0.0,0.0,0.0,0.0,0.0
1666088193856385455,0.0,0.0,0.0,0.0,0.0,0.0
1666088193905918328,0.0,0.0,0.0,0.0,0.0,0.0
1666088193955926048,0.0,0.0,0.0,0.0,0.0,0.0
1666088194006035823,0.0,0.0,0.0,0.0,0.0,0.0
