%time,field.x,field.y,field.z
1663843108648125745,1.005216121673584,0.0413508266210556,0.0
1663843108721607908,0.9968270659446716,0.03277674689888954,0.0
1663843108803302601,0.9869097471237183,0.027059199288487434,0.0
1663843108873761228,0.9751114249229431,0.02081364206969738,0.0
1663843109011587046,0.9674610495567322,0.02505914494395256,0.0
1663843109139075026,0.9665334224700928,0.02770340070128441,0.0
1663843109277348096,0.9677240252494812,0.02859818935394287,0.0
1663843109378612434,0.9719041585922241,0.031199511140584946,0.0
1663843109512366140,0.9716576933860779,0.03056991845369339,0.0
1663843109652767681,0.9753817319869995,0.030224021524190903,0.0
1663843109782448784,0.9850601553916931,0.03632887080311775,0.0
1663843109904597937,0.9918273687362671,0.047304801642894745,0.0
1663843110131537427,1.005681037902832,0.06170908734202385,0.0
1663843110133479506,1.022045612335205,0.08290538936853409,0.0
1663843110238110164,1.0461961030960083,0.10231265425682068,0.0
1663843110463112777,1.075499176979065,0.12620411813259125,0.0
1663843110481494619,1.1168445348739624,0.15814213454723358,0.0
1663843110577768320,1.1625558137893677,0.1921977996826172,0.0
1663843110720041904,1.2033023834228516,0.23560628294944763,0.0
1663843110863537649,1.2363409996032715,0.27165839076042175,0.0
1663843110954342645,1.2796238660812378,0.31284475326538086,0.0
1663843111093705294,1.3219058513641357,0.3516964614391327,0.0
1663843111193800601,1.3737715482711792,0.3966299593448639,0.0
1663843111426712229,1.4266809225082397,0.44438111782073975,0.0
1663843111429976812,1.4729496240615845,0.4922214150428772,0.0
1663843111533537916,1.5155038833618164,0.5385158658027649,0.0
1663843111765111435,1.556480050086975,0.5871439576148987,0.0
1663843111771469852,1.5944701433181763,0.6335702538490295,0.0
1663843111883745109,1.6243605613708496,0.6765708923339844,0.0
1663843112012101626,1.6505244970321655,0.7169737219810486,0.0
1663843112102983087,1.6682931184768677,0.7524515390396118,0.0
1663843112195842876,1.6773579120635986,0.7881816625595093,0.0
1663843112323869242,1.6822375059127808,0.8204599618911743,0.0
1663843112399736309,1.6816362142562866,0.849456787109375,0.0
1663843112491758805,1.6781171560287476,0.8758453726768494,0.0
1663843112628043619,1.670175313949585,0.8972399830818176,0.0
1663843112707779810,1.6597868204116821,0.9159765243530273,0.0
1663843112822127515,1.6485226154327393,0.9323714971542358,0.0
1663843112942402046,1.6362030506134033,0.9467536211013794,0.0
1663843113025122374,1.6257848739624023,0.9680167436599731,0.0
1663843113221043635,1.6090584993362427,0.9842923879623413,0.0
1663843113229663835,1.5882216691970825,0.9993511438369751,0.0
1663843113320505457,1.5656404495239258,1.0117079019546509,0.0
1663843113415921406,1.5411577224731445,1.0194408893585205,0.0
1663843113601305175,1.514606237411499,1.02788245677948,0.0
1663843113615531243,1.4884511232376099,1.0359266996383667,0.0
1663843113701753568,1.4650251865386963,1.0452995300292969,0.0
1663843113829109438,1.4475725889205933,1.0594732761383057,0.0
1663843113976468392,1.4290143251419067,1.0767170190811157,0.0
1663843113977968853,1.41111159324646,1.0934051275253296,0.0
1663843114111800702,1.3915470838546753,1.106025218963623,0.0
1663843114181531980,1.3773666620254517,1.1172153949737549,0.0
1663843114279390765,1.365992546081543,1.1305733919143677,0.0
1663843114480151920,1.3564977645874023,1.1439555883407593,0.0
1663843114481699608,1.3542557954788208,1.1608127355575562,0.0
1663843114679247223,1.35172438621521,1.177293062210083,0.0
1663843114681417139,1.3495917320251465,1.192545771598816,0.0
1663843114793738417,1.3481853008270264,1.2085198163986206,0.0
1663843114888082467,1.3484811782836914,1.2182350158691406,0.0
1663843114984092557,1.3511606454849243,1.2289865016937256,0.0
1663843115109974213,1.3531025648117065,1.2339739799499512,0.0
1663843115188586775,1.3559119701385498,1.2382880449295044,0.0
1663843115296081152,1.3605023622512817,1.243619441986084,0.0
1663843115399342528,1.3660253286361694,1.2507637739181519,0.0
1663843115518510967,1.3689154386520386,1.2562756538391113,0.0
1663843115690252012,1.3717020750045776,1.2588646411895752,0.0
1663843115795374634,1.3740404844284058,1.2579466104507446,0.0
1663843115798936859,1.3812024593353271,1.2554157972335815,0.0
1663843115988410015,1.3889753818511963,1.2491509914398193,0.0
1663843116102870333,1.3957096338272095,1.2403779029846191,0.0
1663843116105627322,1.4053078889846802,1.232634425163269,0.0
1663843116229280043,1.4158498048782349,1.2246376276016235,0.0
1663843116438190785,1.428625464439392,1.2193433046340942,0.0
1663843116442940700,1.4362438917160034,1.2079617977142334,0.0
1663843116678926064,1.4408611059188843,1.1953823566436768,0.0
1663843116680682044,1.4432530403137207,1.1864148378372192,0.0
1663843116817800505,1.4422751665115356,1.1698375940322876,0.0
1663843116953677920,1.4475821256637573,1.1460208892822266,0.0
1663843117094339017,1.4557313919067383,1.113481879234314,0.0
1663843117212162030,1.4689984321594238,1.0797147750854492,0.0
1663843117438322713,1.4771356582641602,1.0388168096542358,0.0
1663843117443894368,1.4840611219406128,0.9959408044815063,0.0
1663843117546942348,1.4877421855926514,0.9544013142585754,0.0
1663843117680064010,1.4895087480545044,0.9132173657417297,0.0
1663843117821485219,1.4758801460266113,0.8698325753211975,0.0
1663843117967284134,1.4684655666351318,0.8424948453903198,0.0
1663843118076003840,1.4615097045898438,0.8290221691131592,0.0
1663843118190082646,1.448583722114563,0.8195000290870667,0.0
1663843118329574590,1.4275774955749512,0.8147569298744202,0.0
1663843118442089140,1.40300452709198,0.816093385219574,0.0
1663843118673848129,1.376874566078186,0.8221579790115356,0.0
1663843118675525295,1.344117522239685,0.8332945704460144,0.0
1663843118781796940,1.319414496421814,0.8586971759796143,0.0
1663843118924064099,1.2880457639694214,0.8840067982673645,0.0
1663843118995101106,1.256438136100769,0.9164682626724243,0.0
1663843119083400474,1.2230485677719116,0.9475522041320801,0.0
1663843119266328772,1.1887239217758179,0.9751809239387512,0.0
1663843119281032334,1.1617581844329834,1.0016896724700928,0.0
1663843119376860537,1.1370102167129517,1.0348197221755981,0.0
1663843119555246751,1.119907259941101,1.0673565864562988,0.0
1663843119584095348,1.1036626100540161,1.0981287956237793,0.0
1663843119678589429,1.0888193845748901,1.1323318481445312,0.0
1663843119867311001,1.0742074251174927,1.1696996688842773,0.0
1663843119885669730,1.0547356605529785,1.2135593891143799,0.0
1663843119976436778,1.0340254306793213,1.2535326480865479,0.0
1663843120158252253,1.0157256126403809,1.291090726852417,0.0
1663843120194690713,0.9953709244728088,1.3301677703857422,0.0
1663843120345568093,0.9760164022445679,1.3712416887283325,0.0
1663843120389834846,0.9615752696990967,1.4158363342285156,0.0
1663843120521086040,0.9450583457946777,1.457506537437439,0.0
1663843120542614574,0.9316572546958923,1.4969953298568726,0.0
1663843120625671841,0.9246097803115845,1.5344659090042114,0.0
1663843120716402400,0.9177795648574829,1.5659784078598022,0.0
1663843120911181475,0.9098103642463684,1.5952140092849731,0.0
1663843121026247608,0.9079590439796448,1.6268177032470703,0.0
1663843121030474521,0.9088365435600281,1.6575384140014648,0.0
1663843121220077516,0.9117841720581055,1.6899230480194092,0.0
1663843121261972158,0.9224935173988342,1.733999490737915,0.0
1663843121421626536,0.932163655757904,1.7679553031921387,0.0
1663843121461667054,0.948656439781189,1.805226445198059,0.0
1663843121615944135,0.965893566608429,1.8388168811798096,0.0
1663843121617473744,0.983941912651062,1.8661627769470215,0.0
1663843121815355918,1.002923607826233,1.8932199478149414,0.0
1663843121823200031,1.0235625505447388,1.9199274778366089,0.0
1663843121941578940,1.0492339134216309,1.9420887231826782,0.0
1663843122051567511,1.0809807777404785,1.9661102294921875,0.0
1663843122138602444,1.116726040840149,1.99099862575531,0.0
1663843122361042091,1.151479721069336,2.0033063888549805,0.0
1663843122363312677,1.1895827054977417,2.011211395263672,0.0
1663843122461666712,1.225034236907959,2.0128843784332275,0.0
1663843122586068694,1.2496716976165771,2.0297443866729736,0.0
1663843122774623189,1.2761578559875488,2.0393471717834473,0.0
1663843122917309634,1.3081996440887451,2.0450897216796875,0.0
1663843122918840246,1.3428810834884644,2.03490948677063,0.0
1663843123127974929,1.3772715330123901,2.020009756088257,0.0
1663843123134701719,1.4090662002563477,1.9964498281478882,0.0
1663843123260874616,1.4387439489364624,1.9549765586853027,0.0
1663843123381974176,1.4614629745483398,1.9086257219314575,0.0
1663843123521853862,1.4732390642166138,1.854783296585083,0.0
1663843123655531298,1.4725725650787354,1.8006829023361206,0.0
1663843123792995272,1.4569766521453857,1.7480970621109009,0.0
1663843123931652916,1.4320309162139893,1.698927879333496,0.0
1663843124050800600,1.3945841789245605,1.6527024507522583,0.0
1663843124158454624,1.3540284633636475,1.6097536087036133,0.0
1663843124287323233,1.3065191507339478,1.562671184539795,0.0
1663843124421240202,1.258975625038147,1.5123519897460938,0.0
1663843124539417612,1.214005947113037,1.455889344215393,0.0
1663843124651653694,1.174080491065979,1.4025002717971802,0.0
1663843124788256958,1.1409952640533447,1.3403122425079346,0.0
1663843124920491301,1.1144764423370361,1.2718682289123535,0.0
1663843125054457568,1.092481255531311,1.1665542125701904,0.0
1663843125191869508,1.0651229619979858,1.1069570779800415,0.0
1663843125318719724,1.029858946800232,1.0334815979003906,0.0
1663843125405229386,0.999012291431427,0.970842719078064,0.0
1663843125524914321,0.9701299667358398,0.9162248969078064,0.0
1663843125662929905,0.9377708435058594,0.8734095692634583,0.0
1663843125791798614,0.9073070287704468,0.8356377482414246,0.0
1663843125883971231,0.8815633654594421,0.8045665621757507,0.0
1663843126011445466,0.857067346572876,0.7783362865447998,0.0
1663843126161236157,0.8330771327018738,0.758671760559082,0.0
1663843126166181237,0.809026837348938,0.7365275025367737,0.0
1663843126292037625,0.7899117469787598,0.7284070253372192,0.0
1663843126388715975,0.7731823325157166,0.7226998209953308,0.0
1663843126518951011,0.7583602070808411,0.7191640734672546,0.0
1663843126583370313,0.7472321391105652,0.7127565145492554,0.0
1663843126671132149,0.745172917842865,0.7023126482963562,0.0
1663843126804337386,0.7527185082435608,0.6839935183525085,0.0
1663843126887149512,0.7655043005943298,0.6607846021652222,0.0
1663843126985727109,0.7861365079879761,0.6278219819068909,0.0
1663843127103865385,0.8114347457885742,0.5925700068473816,0.0
1663843127189560994,0.8389116525650024,0.5523356795310974,0.0
1663843127288161783,0.8731642365455627,0.5016255974769592,0.0
1663843127387990026,0.8875843286514282,0.46290186047554016,0.0
1663843127489821619,0.90782231092453,0.41477885842323303,0.0
1663843127590924588,0.9278677701950073,0.3652876019477844,0.0
1663843127717771560,0.9656480550765991,0.290870726108551,0.0
1663843127799005861,0.9819095134735107,0.2360972911119461,0.0
1663843127907503308,0.9999916553497314,0.17685715854167938,0.0
1663843128003967969,1.0267300605773926,0.10733293741941452,0.0
1663843128139999831,1.0446022748947144,0.04602998122572899,0.0
1663843128205159863,1.055826187133789,-0.007706626318395138,0.0
1663843128312530893,1.069357991218567,-0.05318653956055641,0.0
1663843128412824339,1.082344651222229,-0.09497128427028656,0.0
1663843128515893135,1.0889259576797485,-0.13277707993984222,0.0
1663843128621030375,1.0939702987670898,-0.16690775752067566,0.0
1663843128742306595,1.0953514575958252,-0.199101522564888,0.0
1663843128883470996,1.0979887247085571,-0.2248644083738327,0.0
1663843128955928946,1.0986969470977783,-0.2458791583776474,0.0
1663843129037244978,1.0948410034179688,-0.2664717435836792,0.0
1663843129168958416,1.0876753330230713,-0.2882356345653534,0.0
1663843129242218974,1.080467939376831,-0.30642709136009216,0.0
1663843129334415375,1.0748555660247803,-0.33362382650375366,0.0
1663843129463061860,1.0620596408843994,-0.34846073389053345,0.0
1663843129535264429,1.050821304321289,-0.3609394431114197,0.0
1663843129636644805,1.0391628742218018,-0.3709436058998108,0.0
1663843129833017505,1.0252875089645386,-0.3803141713142395,0.0
1663843129837800556,1.0104540586471558,-0.3883657455444336,0.0
1663843130020648393,0.9980621337890625,-0.40821099281311035,0.0
1663843130022384723,0.9840285778045654,-0.4256579875946045,0.0
1663843130120648747,0.9680368900299072,-0.4401758015155792,0.0
1663843130341933901,0.950530469417572,-0.4533070921897888,0.0
1663843130343638998,0.9289922118186951,-0.4670162498950958,0.0
1663843130536904516,0.9074494242668152,-0.4773436486721039,0.0
1663843130638927332,0.8858233690261841,-0.48668625950813293,0.0
1663843130740865611,0.864443838596344,-0.4942771792411804,0.0
1663843130877944522,0.8422781229019165,-0.49889734387397766,0.0
1663843130998786110,0.8392046093940735,-0.4721473157405853,0.0
1663843131260818459,0.8239498138427734,-0.4724273681640625,0.0
1663843131265147243,0.8122483491897583,-0.46707719564437866,0.0
1663843131475583550,0.8023782968521118,-0.45936623215675354,0.0
1663843131477862890,0.7949104905128479,-0.4467056095600128,0.0
1663843131571804112,0.788885235786438,-0.431648850440979,0.0
1663843131699889099,0.7843382358551025,-0.4128071963787079,0.0
1663843131902214313,0.7828385233879089,-0.39249980449676514,0.0
1663843131903754170,0.7819889187812805,-0.36950966715812683,0.0
1663843132028808045,0.7840241193771362,-0.3431248664855957,0.0
1663843132163521690,0.7866919040679932,-0.3151094615459442,0.0
1663843132288491956,0.7900065779685974,-0.28530922532081604,0.0
1663843132430963969,0.7944042086601257,-0.256386935710907,0.0
1663843132498757777,0.800072431564331,-0.22834524512290955,0.0
1663843132593321372,0.8045403361320496,-0.2017083764076233,0.0
1663843132702243724,0.8079016208648682,-0.17753516137599945,0.0
1663843132826216664,0.8113894462585449,-0.15607304871082306,0.0
1663843132926593076,0.8154327273368835,-0.13392725586891174,0.0
1663843133064045388,0.8295453786849976,-0.11346852779388428,0.0
1663843133133529371,0.8310737609863281,-0.0999913215637207,0.0
1663843133229802754,0.8325644731521606,-0.08762288093566895,0.0
1663843133344999087,0.8334256410598755,-0.07735615223646164,0.0
1663843133457221812,0.8341400623321533,-0.06879109144210815,0.0
1663843133561260903,0.8342787027359009,-0.061475854367017746,0.0
1663843133662929923,0.835187554359436,-0.05118760094046593,0.0
1663843133834371876,0.8461979031562805,-0.038342420011758804,0.0
1663843133881685677,0.8479645252227783,-0.0294964462518692,0.0
1663843133961139154,0.8517744541168213,-0.013585494831204414,0.0
1663843134056054892,0.8529269099235535,-0.002622053027153015,0.0
1663843134254166140,0.8510264754295349,0.020100748166441917,0.0
1663843134301898179,0.8485647439956665,0.04376278817653656,0.0
1663843134353989171,0.8505401611328125,0.08232772350311279,0.0
1663843134441319212,0.8390129804611206,0.12482596188783646,0.0
1663843134576655495,0.822367250919342,0.16784821450710297,0.0
1663843134665392191,0.8070487976074219,0.21983450651168823,0.0
1663843134811673980,0.8063642978668213,0.27049320936203003,0.0
1663843134888223555,0.7828318476676941,0.3186395764350891,0.0
1663843135030428135,0.7592132091522217,0.3607204556465149,0.0
1663843135032177640,0.7319037318229675,0.3996967077255249,0.0
1663843135118896016,0.7004942297935486,0.43584129214286804,0.0
1663843135244291680,0.6623501181602478,0.47714462876319885,0.0
1663843135325763948,0.6329856514930725,0.5192973613739014,0.0
1663843135509410711,0.58892422914505,0.5560427308082581,0.0
1663843135527847490,0.5454843640327454,0.5879938006401062,0.0
1663843135614488277,0.5028558969497681,0.6176461577415466,0.0
1663843135760103866,0.45406368374824524,0.651134729385376,0.0
1663843135830480487,0.3976981043815613,0.696487307548523,0.0
1663843135926432792,0.3478654623031616,0.7394218444824219,0.0
1663843136107532459,0.3095836639404297,0.7724929451942444,0.0
1663843136149790031,0.2806876003742218,0.8026416897773743,0.0
1663843136203798251,0.25975582003593445,0.83683180809021,0.0
1663843136304989795,0.24066415429115295,0.8668491840362549,0.0
1663843136409660243,0.22725091874599457,0.9019263386726379,0.0
1663843136509793076,0.22557619214057922,0.936301052570343,0.0
1663843136620279494,0.2426290363073349,0.9685777425765991,0.0
1663843136725144775,0.25017866492271423,1.0122891664505005,0.0
1663843136839875430,0.27201542258262634,1.0587481260299683,0.0
1663843136964435542,0.31409576535224915,1.1075918674468994,0.0
1663843137128686850,0.3626091480255127,1.1429988145828247,0.0
1663843137133118632,0.42875486612319946,1.1574803590774536,0.0
1663843137309702191,0.43027427792549133,1.1921441555023193,0.0
1663843137353840509,0.4317936897277832,1.226807951927185,0.0
1663843137496949219,0.4333131015300751,1.2614717483520508,0.0
1663843137595045922,0.43483251333236694,1.2961355447769165,0.0
1663843137637826602,0.4363519251346588,1.3307993412017822,0.0
1663843137740641838,0.4378713369369507,1.365463137626648,0.0
1663843137946115611,0.43939074873924255,1.4001269340515137,0.0
1663843137950713361,0.4409101605415344,1.4347907304763794,0.0
1663843138143107524,0.4424295723438263,1.4694545269012451,0.0
1663843138147480473,0.44394898414611816,1.5041183233261108,0.0
1663843138349774649,0.0,0.0,0.0
1663843138350183268,1.5426258157854484,-0.8718681160613655,0.0
1663843138649054842,1.4215713573882136,-1.0821849271156831,0.0
1663843138649087523,1.2199972431448747,-1.367380115193021,0.0
1663843138772835494,1.1102123191534454,-1.4539098758480669,0.0
1663843138900761702,1.15207491376336,-1.4634877336231535,0.0
1663843139034032872,1.144489734590448,-1.4676840842519776,0.0
1663843139167323553,1.122372684987538,-1.4429313519816112,0.0
1663843139299566729,1.2460227012634277,-1.1905280351638794,0.0
1663843139440531797,1.2045775651931763,-1.2655766010284424,0.0
1663843139571767350,1.1844552755355835,-1.2937713861465454,0.0
1663843139702983463,1.175272822380066,-1.308913230895996,0.0
1663843139836913492,1.1722993850708008,-1.3152638673782349,0.0
1663843139977884873,1.1838890314102173,-1.3185302019119263,0.0
1663843140116538409,1.1973477602005005,-1.310256004333496,0.0
1663843140241353132,1.212112307548523,-1.293861746788025,0.0
1663843140340232073,1.2317509651184082,-1.2785134315490723,0.0
1663843140467376151,1.250541090965271,-1.2576326131820679,0.0
1663843140572495063,1.2669039964675903,-1.235314965248108,0.0
1663843140685215313,1.2838557958602905,-1.2072687149047852,0.0
1663843140889842885,1.2941219806671143,-1.1733587980270386,0.0
1663843140986693357,1.305827260017395,-1.1412856578826904,0.0
1663843140991187410,1.3169622421264648,-1.1003361940383911,0.0
1663843141100813100,1.3260172605514526,-1.0633429288864136,0.0
1663843141188173536,1.328703761100769,-1.0292009115219116,0.0
1663843141393731212,1.3299341201782227,-0.9961072206497192,0.0
1663843141395512721,1.3239792585372925,-0.9656664729118347,0.0
1663843141490205907,1.3167650699615479,-0.940904974937439,0.0
1663843141613419745,1.3031755685806274,-0.9258476495742798,0.0
1663843141698376893,1.2884302139282227,-0.9178933501243591,0.0
1663843141788258750,1.270666480064392,-0.9164206981658936,0.0
1663843141991152469,1.2540682554244995,-0.9214497208595276,0.0
1663843141993349770,1.2383477687835693,-0.931610107421875,0.0
1663843142095623258,1.228796362876892,-0.9477415084838867,0.0
1663843142203639802,1.2202681303024292,-0.9605913758277893,0.0
1663843142294034857,1.2216501235961914,-0.9704089760780334,0.0
1663843142481345921,1.2233641147613525,-0.9818113446235657,0.0
1663843142483268132,1.2206040620803833,-0.9937319159507751,0.0
1663843142602264807,1.214426040649414,-1.0164302587509155,0.0
1663843142708958506,1.2044222354888916,-1.044714331626892,0.0
1663843142842847687,1.2041034698486328,-1.0811033248901367,0.0
1663843142910862975,1.2081701755523682,-1.109963297843933,0.0
1663843143005703356,1.2064968347549438,-1.1420930624008179,0.0
1663843143125299567,1.2031718492507935,-1.1753771305084229,0.0
1663843143204633532,1.1999824047088623,-1.2099133729934692,0.0
1663843143315807369,1.1955690383911133,-1.2488583326339722,0.0
1663843143413708578,1.1927376985549927,-1.2895153760910034,0.0
1663843143550309262,1.1844615936279297,-1.3301013708114624,0.0
1663843143618043987,1.1742355823516846,-1.3674416542053223,0.0
1663843143714721797,1.162233591079712,-1.4042861461639404,0.0
1663843143902375329,1.1542036533355713,-1.4373513460159302,0.0
1663843143949584330,1.145261526107788,-1.4649783372879028,0.0
1663843144037795330,1.138635277748108,-1.4963665008544922,0.0
1663843144115864752,1.139091968536377,-1.5245442390441895,0.0
1663843144214322968,1.13816237449646,-1.5556524991989136,0.0
1663843144322866740,1.1364355087280273,-1.5886693000793457,0.0
1663843144422621329,1.131798505783081,-1.6204380989074707,0.0
1663843144542456689,1.1290870904922485,-1.6469582319259644,0.0
1663843144620000586,1.1299004554748535,-1.6768733263015747,0.0
1663843144731441997,1.1324794292449951,-1.700005292892456,0.0
1663843144858732148,1.1411924362182617,-1.7178460359573364,0.0
1663843145005565794,1.1501810550689697,-1.725215196609497,0.0
1663843145098675646,1.159989356994629,-1.7302587032318115,0.0
1663843145211925730,1.1724454164505005,-1.7328540086746216,0.0
1663843145220844128,1.1954994201660156,-1.7197121381759644,0.0
1663843145318091945,1.2209872007369995,-1.700608491897583,0.0
1663843145496164531,1.2463510036468506,-1.678949236869812,0.0
1663843145583972182,1.2725565433502197,-1.6521352529525757,0.0
1663843145587979396,1.286706566810608,-1.6469535827636719,0.0
1663843145707730300,1.306679606437683,-1.6316993236541748,0.0
1663843145805371316,1.328187346458435,-1.6127727031707764,0.0
1663843145927736287,1.3570748567581177,-1.5951027870178223,0.0
1663843146038217675,1.3828824758529663,-1.573071837425232,0.0
1663843146174190351,1.4072394371032715,-1.545611023902893,0.0
1663843146306646195,1.4307302236557007,-1.5148522853851318,0.0
1663843146443312166,1.456082820892334,-1.4550529718399048,0.0
1663843146538918458,1.4761576652526855,-1.4110618829727173,0.0
1663843146645641056,1.4794424772262573,-1.3789583444595337,0.0
1663843146898011661,1.470137357711792,-1.3625985383987427,0.0
1663843146912532768,1.4505289793014526,-1.3497581481933594,0.0
1663843147012701475,1.4243214130401611,-1.3392858505249023,0.0
1663843147176978467,1.3952871561050415,-1.3323322534561157,0.0
1663843147312024810,1.3718127012252808,-1.3424228429794312,0.0
1663843147314737396,1.3461655378341675,-1.3581011295318604,0.0
1663843147525619484,1.3268821239471436,-1.3760935068130493,0.0
1663843147554461873,1.3056721687316895,-1.3951458930969238,0.0
1663843147642102465,1.2880452871322632,-1.4098021984100342,0.0
1663843147742314077,1.2724552154541016,-1.419194221496582,0.0
1663843147889732410,1.2651324272155762,-1.423466444015503,0.0
1663843148037047690,1.257996678352356,-1.4208166599273682,0.0
1663843148040089670,1.2567132711410522,-1.4174214601516724,0.0
1663843148142057421,1.2569231986999512,-1.4113487005233765,0.0
1663843148314183139,1.2591187953948975,-1.4022120237350464,0.0
1663843148368794155,1.2684533596038818,-1.3899532556533813,0.0
1663843148453839805,1.2775506973266602,-1.3723747730255127,0.0
1663843148572321134,1.2931321859359741,-1.3511269092559814,0.0
1663843148757166925,1.3124889135360718,-1.3284105062484741,0.0
1663843148761302275,1.3400678634643555,-1.3025531768798828,0.0
1663843148962729717,1.3692015409469604,-1.2786626815795898,0.0
1663843149005735014,1.3966346979141235,-1.257521629333496,0.0
1663843149058384275,1.4160633087158203,-1.2339812517166138,0.0
1663843149181666812,1.4338210821151733,-1.2180198431015015,0.0
1663843149274560271,1.4486074447631836,-1.2023743391036987,0.0
1663843149410860820,1.4584254026412964,-1.1873981952667236,0.0
1663843149474510817,1.4674434661865234,-1.1788203716278076,0.0
1663843149570904509,1.4752905368804932,-1.177101492881775,0.0
1663843149702288913,1.4811276197433472,-1.1772404909133911,0.0
1663843149771343799,1.4849950075149536,-1.1817655563354492,0.0
1663843149860852726,1.4874130487442017,-1.1933763027191162,0.0
1663843149983303025,1.485652208328247,-1.2104895114898682,0.0
1663843150083079844,1.484771966934204,-1.2337816953659058,0.0
1663843150206239303,1.4856033325195312,-1.2655152082443237,0.0
1663843150291731309,1.4814083576202393,-1.3034671545028687,0.0
1663843150418926657,1.4758899211883545,-1.342674732208252,0.0
1663843150524496117,1.4698235988616943,-1.3837754726409912,0.0
1663843150644046422,1.4602386951446533,-1.4294772148132324,0.0
1663843150755718916,1.4478250741958618,-1.4852322340011597,0.0
1663843150875192465,1.4345940351486206,-1.540217638015747,0.0
1663843151030577685,1.4221765995025635,-1.588476538658142,0.0
1663843151109051651,1.4086768627166748,-1.6324307918548584,0.0
1663843151242740495,1.3958057165145874,-1.66597580909729,0.0
1663843151286987741,1.3911428451538086,-1.6909387111663818,0.0
1663843151389492430,1.389171838760376,-1.7079887390136719,0.0
1663843151482334107,1.3939076662063599,-1.711317777633667,0.0
1663843151671655486,1.3979209661483765,-1.704105019569397,0.0
1663843151734213424,1.4001619815826416,-1.6909185647964478,0.0
1663843151820149905,1.4019176959991455,-1.6716991662979126,0.0
1663843151902426112,1.3970714807510376,-1.6430000066757202,0.0
1663843151986900355,1.390905499458313,-1.6060394048690796,0.0
1663843152200969147,1.3852635622024536,-1.5634890794754028,0.0
1663843152219850873,1.3812583684921265,-1.518570065498352,0.0
1663843152313670016,1.3757015466690063,-1.4690223932266235,0.0
1663843152530346660,1.3710448741912842,-1.422570824623108,0.0
1663843152533364233,1.3657355308532715,-1.3878475427627563,0.0
1663843152645260887,1.3609617948532104,-1.3472659587860107,0.0
1663843152746368294,1.3558456897735596,-1.2920467853546143,0.0
1663843152940180997,1.3512393236160278,-1.2275415658950806,0.0
1663843153044717675,1.3470369577407837,-1.1583900451660156,0.0
1663843153241821108,1.3419870138168335,-1.0828639268875122,0.0
1663843153245199627,1.3318253755569458,-0.9944538474082947,0.0
1663843153353890788,1.3195947408676147,-0.8938382863998413,0.0
1663843153569191553,1.3031312227249146,-0.7890052795410156,0.0
1663843153665703901,1.2840250730514526,-0.6794194579124451,0.0
1663843153777917207,1.266054391860962,-0.5773501396179199,0.0
1663843153865497013,1.2348260879516602,-0.4733690619468689,0.0
1663843153994623187,1.1958478689193726,-0.3707342743873596,0.0
1663843154117334326,1.1488349437713623,-0.2515711486339569,0.0
1663843154320098821,1.108500361442566,-0.17035295069217682,0.0
1663843154322972129,1.069940447807312,-0.09763668477535248,0.0
1663843154457182756,1.0283572673797607,-0.03540711849927902,0.0
1663843154590727097,0.9898582696914673,0.018495533615350723,0.0
1663843154723709027,0.9508105516433716,0.062238797545433044,0.0
1663843154861859341,0.9239975214004517,0.07277968525886536,0.0
1663843154973009274,0.9053665995597839,0.08107742667198181,0.0
1663843155095731425,0.8920524716377258,0.08373257517814636,0.0
1663843155220058215,0.8832495808601379,0.07747583091259003,0.0
1663843155425888310,0.8776246905326843,0.07082567363977432,0.0
1663843155437249921,0.883664608001709,0.059532009065151215,0.0
1663843155542114972,0.8923332691192627,0.048352036625146866,0.0
1663843155670317477,0.903742253780365,0.03841058537364006,0.0
1663843155759271543,0.9186080694198608,0.02957260236144066,0.0
1663843155889433549,0.945611834526062,0.022532235831022263,0.0
1663843155991964897,0.9770450592041016,0.016096245497465134,0.0
1663843156118782512,1.0228486061096191,0.010691476985812187,0.0
1663843156226680901,1.0708471536636353,0.00381588377058506,0.0
1663843156367202962,1.134168028831482,-0.0020634429529309273,0.0
1663843156466634024,1.1986926794052124,-0.012116603553295135,0.0
1663843156595497065,1.2597827911376953,-0.02637019008398056,0.0
1663843156721581818,1.3195757865905762,-0.04503540322184563,0.0
1663843156827364310,1.37448251247406,-0.06524056941270828,0.0
1663843156935771143,1.436081886291504,-0.0914478451013565,0.0
1663843157065638741,1.4875621795654297,-0.1169634684920311,0.0
1663843157148575229,1.5349675416946411,-0.14506767690181732,0.0
1663843157323989940,1.5723437070846558,-0.1738741397857666,0.0
1663843157382734842,1.6034221649169922,-0.20118525624275208,0.0
1663843157524849673,1.6260621547698975,-0.22780610620975494,0.0
1663843157532808378,1.637503743171692,-0.25669679045677185,0.0
1663843157704675967,1.6405067443847656,-0.28375497460365295,0.0
1663843157817897990,1.6376022100448608,-0.3084290623664856,0.0
1663843157863229351,1.6288065910339355,-0.3331407308578491,0.0
1663843157948455973,1.6141031980514526,-0.3573005795478821,0.0
1663843158029634481,1.588092565536499,-0.3835452198982239,0.0
1663843158198847545,1.5575847625732422,-0.4092123508453369,0.0
1663843158290746045,1.5209197998046875,-0.4339481592178345,0.0
1663843158386317586,1.47664213180542,-0.45724818110466003,0.0
1663843158497932559,1.4290180206298828,-0.477451354265213,0.0
1663843158542368492,1.3792451620101929,-0.4959923028945923,0.0
1663843158632863696,1.3266645669937134,-0.5140466690063477,0.0
1663843158716703811,1.2740654945373535,-0.5279557704925537,0.0
1663843158797842155,1.2202162742614746,-0.5374195575714111,0.0
1663843158874929400,1.1706998348236084,-0.5398993492126465,0.0
1663843158967071133,1.121396780014038,-0.5294061899185181,0.0
1663843159142672469,1.0769586563110352,-0.5080180168151855,0.0
1663843159242805319,1.0378408432006836,-0.4735148847103119,0.0
1663843159300491667,1.0041993856430054,-0.4311540424823761,0.0
1663843159378574028,0.9723873138427734,-0.387472003698349,0.0
1663843159477919347,0.943651020526886,-0.346457302570343,0.0
1663843159660039978,0.9142917394638062,-0.3087494969367981,0.0
1663843159755147890,0.8869524598121643,-0.27531173825263977,0.0
1663843159805917705,0.8636598587036133,-0.24637140333652496,0.0
1663843159900371830,0.8432978987693787,-0.2217317670583725,0.0
1663843159997443606,0.8262425661087036,-0.1988055408000946,0.0
1663843160095206321,0.8139419555664062,-0.17736107110977173,0.0
1663843160236557794,0.8031805753707886,-0.1590609848499298,0.0
1663843160325312365,0.7943439483642578,-0.14396393299102783,0.0
1663843160460064870,0.7876067757606506,-0.13127747178077698,0.0
1663843160505757447,0.7826154232025146,-0.12151537090539932,0.0
1663843160594610269,0.7788842916488647,-0.1142994686961174,0.0
1663843160704964243,0.7766276001930237,-0.10666054487228394,0.0
1663843160798490021,0.7715744972229004,-0.10319968312978745,0.0
1663843160917518580,0.7630884051322937,-0.09883635491132736,0.0
1663843161092872762,0.7531009912490845,-0.09643059223890305,0.0
1663843161201014154,0.7289265990257263,-0.09411271661520004,0.0
1663843161320657655,0.7297024130821228,-0.09429429471492767,0.0
1663843161477381979,0.7032024264335632,-0.1058260053396225,0.0
1663843161611154047,0.6656383275985718,-0.12067988514900208,0.0
1663843161714019586,0.621030330657959,-0.13870051503181458,0.0
1663843161853378753,0.578169047832489,-0.1583891212940216,0.0
1663843161941758053,0.5391586422920227,-0.17823153734207153,0.0
1663843162030629314,0.5146345496177673,-0.19663488864898682,0.0
1663843162168282779,0.4788212776184082,-0.22664828598499298,0.0
1663843162275767619,0.41074076294898987,-0.2803293764591217,0.0
1663843162497383079,0.3370942175388336,-0.3335387706756592,0.0
1663843162501465713,0.2741788327693939,-0.3875037431716919,0.0
1663843162627526953,0.22027522325515747,-0.4292280972003937,0.0
1663843162767857976,0.16240616142749786,-0.50938880443573,0.0
1663843162902755553,0.11205918341875076,-0.5951939225196838,0.0
1663843163000160643,0.0779460072517395,-0.6707233190536499,0.0
1663843163133579231,0.047670453786849976,-0.7027657628059387,0.0
1663843163238755823,0.04448818787932396,-0.7592490315437317,0.0
1663843163374496837,0.03538314625620842,-0.8236051797866821,0.0
1663843163461280497,0.03192649036645889,-0.8883628845214844,0.0
1663843163596958058,0.04513924568891525,-0.9411419630050659,0.0
1663843163692340051,0.08265715837478638,-0.9807613492012024,0.0
1663843163828238468,0.1288435459136963,-1.0026462078094482,0.0
1663843163896840000,0.1904369294643402,-1.0014090538024902,0.0
1663843164110709309,0.2542506456375122,-0.9862523674964905,0.0
1663843164112195423,0.32780471444129944,-0.9617632031440735,0.0
1663843164239044619,0.40765395760536194,-0.9201210141181946,0.0
1663843164374987668,0.415764182806015,-0.9418016672134399,0.0
1663843164459279152,0.4238744080066681,-0.9634823203086853,0.0
1663843164556457306,0.43198463320732117,-0.9851629734039307,0.0
1663843164670240252,0.44009485840797424,-1.0068435668945312,0.0
1663843164761529736,0.4482050836086273,-1.0285241603851318,0.0
1663843164854452203,0.4563153088092804,-1.0502047538757324,0.0
1663843164985138651,0.46442553400993347,-1.071885347366333,0.0
1663843165053278926,0.47253575921058655,-1.0935659408569336,0.0
1663843165146933154,0.4806459844112396,-1.1152465343475342,0.0
1663843165333843866,0.4887562096118927,-1.1369271278381348,0.0
1663843165343341093,0.4968664348125458,-1.1586077213287354,0.0
1663843165440120624,0.0,0.0,0.0
1663843165520866281,0.5399971262280759,0.9125432505736412,0.0
1663843165661559263,0.4950171921684386,0.9694435513222794,0.0
1663843165734138583,0.3871631785057608,0.980392481736878,0.0
1663843165816737209,0.2379991521716853,1.104245518040687,0.0
1663843165978336536,0.16935973995109618,1.0929227891300302,0.0
1663843166062859814,0.17066901142139707,1.1542973528254634,0.0
1663843166127769461,0.17344050134653038,1.1550314450578734,0.0
1663843166245219212,1.3582039518299696,2.819883077284731,0.0
1663843166296336071,1.3650506226711456,2.8364836680444,0.0
1663843166386387491,0.0,0.0,0.0
1663843166476321771,1.361699074806394,2.8335076707549325,0.0
1663843166564480484,0.3413873612880707,0.9846205711364746,0.0
1663843166657853656,0.27146074175834656,1.0103955268859863,0.0
1663843166834980431,0.24682462215423584,1.055747151374817,0.0
1663843166902371906,0.22995515167713165,1.0718955993652344,0.0
1663843166981410177,0.21517491340637207,1.0641838312149048,0.0
1663843167072005197,0.20103247463703156,1.0483553409576416,0.0
1663843167144629221,0.18813727796077728,1.0263134241104126,0.0
1663843167241513153,0.16782031953334808,0.9896062612533569,0.0
1663843167329633527,0.13787603378295898,0.9754381775856018,0.0
1663843167533899442,0.11489836126565933,0.9422441124916077,0.0
1663843167641661784,0.1002790704369545,0.9097111225128174,0.0
1663843167685780125,0.08569761365652084,0.8662906289100647,0.0
1663843167780178280,0.07166992127895355,0.8057108521461487,0.0
1663843167864964989,0.06083178520202637,0.7507820129394531,0.0
1663843167961298238,0.05757662653923035,0.7132439613342285,0.0
1663843168122408016,0.05484410747885704,0.662806510925293,0.0
1663843168234129481,0.056551262736320496,0.624815046787262,0.0
1663843168281774905,0.05198933556675911,0.5886389017105103,0.0
1663843168418864914,0.043319910764694214,0.5674471855163574,0.0
1663843168610451599,0.03465048596262932,0.5462554693222046,0.0
1663843168657684019,0.025981061160564423,0.5250637531280518,0.0
1663843168712587165,0.017311636358499527,0.5038720369338989,0.0
1663843168818656065,0.008642210625112057,0.4826803207397461,0.0
1663843168916375589,-2.7215108275413513e-05,0.46148860454559326,0.0
1663843169011957333,-0.008696640841662884,0.44029688835144043,0.0
1663843169140024921,-0.017366066575050354,0.4191051721572876,0.0
1663843169341615680,-0.05721353739500046,0.4168331027030945,0.0
1663843169343102415,-0.06788049638271332,0.3968535363674164,0.0
1663843169468130110,-0.07854745537042618,0.3768739700317383,0.0
1663843169663933135,-0.08921441435813904,0.3568944036960602,0.0
1663843169666288148,-0.0998813733458519,0.3369148373603821,0.0
1663843169807923205,-0.11054833233356476,0.316935271024704,0.0
1663843169942821671,-0.12121529132127762,0.2969557046890259,0.0
1663843170075020338,-0.13188225030899048,0.2769761383533478,0.0
1663843170209082901,-0.14254921674728394,0.2569965720176697,0.0
1663843170331107935,-0.1532161831855774,0.23701700568199158,0.0
1663843170419146429,0.0,0.0,0.0
1663843170508355035,0.0,0.0,0.0
1663843170713174824,0.0,0.0,0.0
1663843170753790039,0.0,0.0,0.0
1663843170936111883,0.0,0.0,0.0
1663843170981602154,0.0,0.0,0.0
1663843171061579764,0.11050277601312215,-0.35131130779933184,0.0
1663843171239439043,0.0,0.0,0.0
1663843171285824617,0.0,0.0,0.0
1663843171439376408,0.0,0.0,0.0
1663843171499230815,0.4353207469196879,3.205024569601264,0.0
1663843171576876538,0.47372461671008775,3.213703300351232,0.0
1663843171663964645,0.5022275912590736,3.2155281127574633,0.0
1663843171803751443,0.5822436492772877,3.2157825835057183,0.0
1663843171878440729,0.673374592461035,3.176269786448538,0.0
1663843172031186215,0.7336356073408297,3.1824065686740894,0.0
1663843172077569264,0.9012082984222894,3.1416256961405162,0.0
1663843172219041895,0.9587867626676158,3.112533511963654,0.0
1663843172316329610,0.9383616947031388,3.097004973398411,0.0
1663843172361947379,1.0025295305028135,3.0739338808253023,0.0
1663843172448897815,0.0,0.0,0.0
1663843172524315729,2.8166642151979615,0.1281824345413748,0.0
1663843172612532046,2.2096988812189973,-0.11566732577617204,0.0
1663843172746725468,2.1717722106429727,-0.20493310142553497,0.0
1663843172827446941,2.142975376567956,-0.28676457918066195,0.0
1663843172968092517,2.1496989921625427,-0.43237683850796105,0.0
1663843173041167733,2.1199197252656483,-0.49122783048206187,0.0
1663843173181742525,0.0,0.0,0.0
1663843173225965010,0.0,0.0,0.0
1663843173269523315,0.7756089333273548,2.597578072594745,0.0
1663843173402654236,0.7608594025278271,2.589452152616924,0.0
1663843173475007852,0.7800126066897919,2.581300290245116,0.0
1663843173554063267,0.786615960875898,2.5871311799765393,0.0
1663843173632276635,0.0,0.0,0.0
1663843173706382975,1.4641091235230816,2.6108120890637676,0.0
1663843173785550169,0.0,0.0,0.0
1663843173948984664,2.0338911641959787,2.572915977498586,0.0
1663843174033923790,0.7577645790071604,2.594567221330318,0.0
1663843174145646919,0.7734217482688093,2.5827184904831246,0.0
1663843174240037915,2.012996041543779,2.562321388905428,0.0
1663843174281669749,2.0094284698513483,2.547765442305733,0.0
1663843174329095090,2.008574102402755,2.5703349609638932,0.0
1663843174450367392,0.0,0.0,0.0
1663843174538542218,1.882268043749108,2.369517544067996,0.0
1663843174693552812,2.0161191226534037,2.5697011506162104,0.0
1663843174769999040,2.0142693013481825,2.564624865526772,0.0
1663843174835419450,2.04385373105564,2.5706156269640803,0.0
1663843174911087401,2.0237003399713998,2.571967620500654,0.0
1663843175002194921,2.024881215340309,2.558990318444086,0.0
1663843175119853005,2.020225826895463,2.5626764105445594,0.0
1663843175207840350,2.0310310790104675,2.5682478039884176,0.0
1663843175346130271,2.0165045662351724,2.553198894699374,0.0
1663843175479042812,0.0,0.0,0.0
1663843175583403732,0.0,0.0,0.0
1663843175675395052,0.7712864840105719,2.593792154396019,0.0
1663843175721599073,2.009488031864921,2.5500961082621996,0.0
1663843175885184171,2.006117826158761,2.5658437361541764,0.0
1663843175976983880,2.018099818885914,2.5528953817495736,0.0
1663843176148592834,1.63e-322,6.93207616880005e-310,0.0
1663843176239433241,-5.834701708983661e-05,0.007812501807208173,0.0
1663843176343197698,2.0045620906928656,2.5535842013775873,0.0
1663843176385604025,1.4259208489878463e+21,3.95e-322,0.0
1663843176469317050,5.3143625205140355,0.05530593522069976,0.0
1663843176648814594,2.01702535390939,2.5639704922480053,0.0
1663843176689694633,5.6e-322,6.93207616880005e-310,0.0
1663843176828270563,6.9319236503463e-310,4.6792455570752e-310,0.0
1663843176869749498,2.017428998739998,2.561921403894651,0.0
1663843176956255793,8.74e-322,6.93207616880005e-310,0.0
1663843177141918721,6.9320761798596e-310,6.9320761798602e-310,0.0
1663843177287885729,1.879523727226431,2.353985188577387,0.0
1663843177418695989,0.7631819458407831,2.5862003325403924,0.0
1663843177504637938,3.16e-322,4.94e-322,0.0
1663843177646528917,6.4e-323,7.365371173429709e+271,0.0
1663843177785632145,1.8542788843036688,2.3923762128182187,0.0
1663843177901208571,3.2e-322,6.93207616880005e-310,0.0
1663843178016839562,-5.297599249049412e-05,0.007812501807208173,0.0
1663843178171528765,1.9932673123059956,2.5943130527748957,0.0
