%time,field.x,field.y,field.z
1663843101041468074,0.0,0.0,0.0
1663843101061557348,0.0,0.0,0.0
1663843101081463364,0.0,0.0,0.0
1663843101101591372,0.0,0.0,0.0
1663843101121635914,0.0,0.0,0.0
1663843101141440906,0.0,0.0,0.0
1663843101162569707,0.0,0.0,0.0
1663843101181556667,0.0,0.0,0.0
1663843101201451953,0.0,0.0,0.0
1663843101245658677,0.0,0.0,0.0
1663843101245701639,0.0,0.0,0.0
1663843101289609564,0.0,0.0,0.0
1663843101289672639,0.0,0.0,0.0
1663843101333593844,0.0,0.0,0.0
1663843101333608761,0.0,0.0,0.0
1663843101377562572,0.0,0.0,0.0
1663843101377588520,0.0,0.0,0.0
1663843101421660700,0.0,0.0,0.0
1663843101421712565,0.0,0.0,0.0
1663843101421725733,0.0,0.0,0.0
1663843101465531246,0.0,0.0,0.0
1663843101465545666,0.0,0.0,0.0
1663843101482265349,0.0,0.0,0.0
1663843101501361148,0.0,0.0,0.0
1663843101541526924,0.0,0.0,0.0
1663843101541538151,0.0,0.0,0.0
1663843101585715752,0.0,0.0,0.0
1663843101585835713,0.0,0.0,0.0
1663843101629569850,0.0,0.0,0.0
1663843101629598519,0.0,0.0,0.0
1663843101673718231,0.0,0.0,0.0
1663843101673731290,0.0,0.0,0.0
1663843101717747364,0.0,0.0,0.0
1663843101717778899,0.0,0.0,0.0
1663843101765531888,0.0,0.0,0.0
1663843101765553087,0.0,0.0,0.0
1663843101765561746,0.0,0.0,0.0
1663843101809514780,0.0,0.0,0.0
1663843101809544145,0.0,0.0,0.0
1663843101821363932,0.0,0.0,0.0
1663843101841185499,0.0,0.0,0.0
1663843101881592192,0.0,0.0,0.0
1663843101881606455,0.0,0.0,0.0
1663843101925561520,0.0,0.0,0.0
1663843101925574847,0.0,0.0,0.0
1663843101969685405,0.0,0.0,0.0
1663843101969745707,0.0,0.0,0.0
1663843102013642595,0.0,0.0,0.0
1663843102013676480,0.0,0.0,0.0
1663843102057562469,0.0,0.0,0.0
1663843102057575747,0.0,0.0,0.0
1663843102101611068,0.0,0.0,0.0
1663843102101621949,0.0,0.0,0.0
1663843102145534872,0.0,0.0,0.0
1663843102145564055,0.0,0.0,0.0
1663843102145571297,0.0,0.0,0.0
1663843102189603618,0.0,0.0,0.0
1663843102189638049,0.0,0.0,0.0
1663843102201182761,0.0,0.0,0.0
1663843102221360844,0.0,0.0,0.0
1663843102261581277,0.0,0.0,0.0
1663843102309637193,0.0,0.0,0.0
1663843102309666843,0.0,0.0,0.0
1663843102309695549,0.0,0.0,0.0
1663843102353539788,0.0,0.0,0.0
1663843102353561231,0.0,0.0,0.0
1663843102361951189,0.0,0.0,0.0
1663843102381842340,0.0,0.0,0.0
1663843102425566957,0.0,0.0,0.0
1663843102425587608,0.0,0.0,0.0
1663843102469578340,0.0,0.0,0.0
1663843102469591336,0.0,0.0,0.0
1663843102513544354,0.0,0.0,0.0
1663843102513576722,0.0,0.0,0.0
1663843102614797366,0.0,0.0,0.0
1663843102614854501,0.0,0.0,0.0
1663843102614867469,0.0,0.0,0.0
1663843102614880094,0.0,0.0,0.0
1663843102614896943,0.0,0.0,0.0
1663843102657510655,0.0,0.0,0.0
1663843102657529123,0.0,0.0,0.0
1663843102661827250,0.0,0.0,0.0
1663843102682210247,0.0,0.0,0.0
1663843102725571508,0.0,0.0,0.0
1663843102725587689,0.0,0.0,0.0
1663843102769544908,0.0,0.0,0.0
1663843102769559326,0.0,0.0,0.0
1663843102813482501,0.0,0.0,0.0
1663843102813496846,0.0,0.0,0.0
1663843102857555847,0.0,0.0,0.0
1663843102857600576,0.0,0.0,0.0
1663843102901516085,0.0,0.0,0.0
1663843102901531612,0.0,0.0,0.0
1663843102945544581,0.0,0.0,0.0
1663843102945558726,0.0,0.0,0.0
1663843102945583627,0.0,0.0,0.0
1663843102989708811,0.0,0.0,0.0
1663843102989748301,0.0,0.0,0.0
1663843103001992618,0.0,0.0,0.0
1663843103023057778,0.0,0.0,0.0
1663843103065520893,0.0,0.0,0.0
1663843103065537799,0.0,0.0,0.0
1663843103109741452,0.0,0.0,0.0
1663843103109762996,0.0,0.0,0.0
1663843103153511477,0.0,0.0,0.0
1663843103153528041,0.0,0.0,0.0
1663843103197526228,0.0,0.0,0.0
1663843103197560601,0.0,0.0,0.0
1663843103245574624,0.0,0.0,0.0
1663843103245590009,0.0,0.0,0.0
1663843103245596057,0.0,0.0,0.0
1663843103289601873,0.0,0.0,0.0
1663843103289660508,0.0,0.0,0.0
1663843103301775791,0.0,0.0,0.0
1663843103323359007,0.0,0.0,0.0
1663843103365558478,0.0,0.0,0.0
1663843103365578536,0.0,0.0,0.0
1663843103409576191,0.0,0.0,0.0
1663843103409619083,0.0,0.0,0.0
1663843103456368390,0.0,0.0,0.0
1663843103456388058,0.0,0.0,0.0
1663843103497550656,0.0,0.0,0.0
1663843103497565379,0.0,0.0,0.0
1663843103541539187,0.0,0.0,0.0
1663843103541561376,0.0,0.0,0.0
1663843103585583277,0.0,0.0,0.0
1663843103585632945,0.0,0.0,0.0
1663843103585657457,0.0,0.0,0.0
1663843103633532207,0.0,0.0,0.0
1663843103633555327,0.0,0.0,0.0
1663843103643321831,0.0,0.0,0.0
1663843103662637793,0.0,0.0,0.0
1663843103709670931,0.0,0.0,0.0
1663843103709699291,0.0,0.0,0.0
1663843103753653465,0.0,0.0,0.0
1663843103753681028,0.0,0.0,0.0
1663843103797689476,0.0,0.0,0.0
1663843103797703037,0.0,0.0,0.0
1663843103841638750,0.0,0.0,0.0
1663843103841673456,0.0,0.0,0.0
1663843103885499974,0.0,0.0,0.0
1663843103885514263,0.0,0.0,0.0
1663843103885525713,0.0,0.0,0.0
1663843103929571455,0.0,0.0,0.0
1663843103929586083,0.0,0.0,0.0
1663843103943306330,0.0,0.0,0.0
1663843103962546764,0.0,0.0,0.0
1663843104005583018,0.0,0.0,0.0
1663843104005606301,0.0,0.0,0.0
1663843104049543696,0.0,0.0,0.0
1663843104049595670,0.0,0.0,0.0
1663843104093592924,0.0,0.0,0.0
1663843104093631985,0.0,0.0,0.0
1663843104137533530,0.0,0.0,0.0
1663843104137547191,0.0,0.0,0.0
1663843104181580232,0.0,0.0,0.0
1663843104181597032,0.0,0.0,0.0
1663843104225538310,0.0,0.0,0.0
1663843104225555766,0.0,0.0,0.0
1663843104225573971,0.0,0.0,0.0
1663843104269632708,0.0,0.0,0.0
1663843104269660028,0.0,0.0,0.0
1663843104282215237,0.0,0.0,0.0
1663843104302607968,0.0,0.0,0.0
1663843104349513393,0.0,0.0,0.0
1663843104349526514,0.0,0.0,0.0
1663843104393596018,0.0,0.0,0.0
1663843104393620579,0.0,0.0,0.0
1663843104437749601,0.0,0.0,0.0
1663843104437801158,0.0,0.0,0.0
1663843104481587543,0.0,0.0,0.0
1663843104481608557,0.0,0.0,0.0
1663843104529523170,0.0,0.0,0.0
1663843104529537546,0.0,0.0,0.0
1663843104529546045,0.0,0.0,0.0
1663843104573596681,0.0,0.0,0.0
1663843104573621980,0.0,0.0,0.0
1663843104582290041,0.0,0.0,0.0
1663843104603430119,0.0,0.0,0.0
1663843104649512936,0.0,0.0,0.0
1663843104649533302,0.0,0.0,0.0
1663843104693536967,0.0,0.0,0.0
1663843104693560148,0.0,0.0,0.0
1663843104737619501,0.0,0.0,0.0
1663843104737672417,0.0,0.0,0.0
1663843104781555832,0.0,0.0,0.0
1663843104781577136,0.0,0.0,0.0
1663843104825607284,0.0,0.0,0.0
1663843104825634695,0.0,0.0,0.0
1663843104825651505,0.0,0.0,0.0
1663843104869556182,0.0,0.0,0.0
1663843104869588532,0.0,0.0,0.0
1663843104883206631,0.0,0.0,0.0
1663843104903565228,0.0,0.0,0.0
1663843104945549630,0.0,0.0,0.0
1663843104945570064,0.0,0.0,0.0
1663843104993581816,0.0,0.0,0.0
1663843104993604577,0.0,0.0,0.0
1663843105037612578,0.0,0.0,0.0
1663843105037648141,0.0,0.0,0.0
1663843105081539681,0.0,0.0,0.0
1663843105081556781,0.0,0.0,0.0
1663843105125589274,0.0,0.0,0.0
1663843105125624143,0.0,0.0,0.0
1663843105125654981,0.0,0.0,0.0
1663843105169529890,0.0,0.0,0.0
1663843105169543714,0.0,0.0,0.0
1663843105182953918,0.0,0.0,0.0
1663843105203125029,0.0,0.0,0.0
1663843105245530195,0.0,0.0,0.0
1663843105245556374,0.0,0.0,0.0
1663843105289619488,0.0,0.0,0.0
1663843105289638630,0.0,0.0,0.0
1663843105333565405,0.0,0.0,0.0
1663843105333582920,0.0,0.0,0.0
1663843105377573139,0.0,0.0,0.0
1663843105377609268,0.0,0.0,0.0
1663843105421634849,0.0,0.0,0.0
1663843105421657442,0.0,0.0,0.0
1663843105465588434,0.0,0.0,0.0
1663843105465603220,0.0,0.0,0.0
1663843105469453904,0.0,0.0,0.0
1663843105509642985,0.0,0.0,0.0
1663843105509670573,0.0,0.0,0.0
1663843105522909608,0.0,0.0,0.0
1663843105542919865,0.0,0.0,0.0
1663843105589715976,0.0,0.0,0.0
1663843105589755090,0.0,0.0,0.0
1663843105633526484,0.0,0.0,0.0
1663843105633548538,0.0,0.0,0.0
1663843105677548525,0.0,0.0,0.0
1663843105677563619,0.0,0.0,0.0
1663843105721995258,0.0,0.0,0.0
1663843105722056136,0.0,0.0,0.0
1663843105765564586,0.0,0.0,0.0
1663843105765577249,0.0,0.0,0.0
1663843105765623983,0.0,0.0,0.0
1663843105809559682,0.0,0.0,0.0
1663843105809609041,0.0,0.0,0.0
1663843105823586984,0.0,0.0,0.0
1663843105843653506,0.0,0.0,0.0
1663843105885567446,0.0,0.0,0.0
1663843105885583907,0.0,0.0,0.0
1663843105929618228,0.0,0.0,0.0
1663843105929678626,0.0,0.0,0.0
1663843105973541177,0.0,0.0,0.0
1663843105973561207,0.0,0.0,0.0
1663843106021659283,0.0,0.0,0.0
1663843106021687748,0.0,0.0,0.0
1663843106065562232,0.0,0.0,0.0
1663843106065575503,0.0,0.0,0.0
1663843106065606963,0.0,0.0,0.0
1663843106109643489,0.0,0.0,0.0
1663843106109662620,0.0,0.0,0.0
1663843106124207876,0.0,0.0,0.0
1663843106143440864,0.0,0.0,0.0
1663843106189878378,0.0,0.0,0.0
1663843106189924944,0.0,0.0,0.0
1663843106233524840,0.0,0.0,0.0
1663843106233541984,0.0,0.0,0.0
1663843106282005503,0.0,0.0,0.0
1663843106282022211,0.0,0.0,0.0
1663843106325552364,0.0,0.0,0.0
1663843106325572224,0.0,0.0,0.0
1663843106325579664,0.0,0.0,0.0
1663843106369635215,0.0,0.0,0.0
1663843106369659446,0.0,0.0,0.0
1663843106383558475,0.0,0.0,0.0
1663843106404427687,0.0,0.0,0.0
1663843106445519927,0.0,0.0,0.0
1663843106445537705,0.0,0.0,0.0
1663843106489632256,0.0,0.0,0.0
1663843106489663496,0.0,0.0,0.0
1663843106533534501,0.0,0.0,0.0
1663843106533550035,0.0,0.0,0.0
1663843106577658625,0.0,0.0,0.0
1663843106577671343,0.0,0.0,0.0
1663843106621566998,0.0,0.0,0.0
1663843106621600538,0.0,0.0,0.0
1663843106665522157,0.0,0.0,0.0
1663843106665542078,0.0,0.0,0.0
1663843106665547292,0.0,0.0,0.0
1663843106709567652,0.0,0.0,0.0
1663843106709585874,0.0,0.0,0.0
1663843106725489583,0.0,0.0,0.0
1663843106743225934,0.0,0.0,0.0
1663843106785562741,0.0,0.0,0.0
1663843106785583572,0.0,0.0,0.0
1663843106829834724,0.0,0.0,0.0
1663843106829903782,0.0,0.0,0.0
1663843106873544297,0.0,0.0,0.0
1663843106873577299,0.0,0.0,0.0
1663843106917634763,0.0,0.0,0.0
1663843106917651709,0.0,0.0,0.0
1663843106961627065,0.0,0.0,0.0
1663843106961642997,0.0,0.0,0.0
1663843107005611137,0.0,0.0,0.0
1663843107005631781,0.0,0.0,0.0
1663843107005661839,0.0,0.0,0.0
1663843107054082850,0.0,0.0,0.0
1663843107054117550,0.0,0.0,0.0
1663843107063536287,0.0,0.0,0.0
1663843107083094630,0.0,0.0,0.0
1663843107125667190,0.0,0.0,0.0
1663843107125690077,0.0,0.0,0.0
1663843107169576018,0.0,0.0,0.0
1663843107169596403,0.0,0.0,0.0
1663843107213520664,0.0,0.0,0.0
1663843107213535053,0.0,0.0,0.0
1663843107257573147,0.0,0.0,0.0
1663843107257591366,0.0,0.0,0.0
1663843107301579228,0.0,0.0,0.0
1663843107301599008,0.0,0.0,0.0
1663843107349511199,0.0,0.0,0.0
1663843107349528285,0.0,0.0,0.0
1663843107349534950,0.0,0.0,0.0
1663843107397070348,0.0,0.0,0.0
1663843107397090861,0.0,0.0,0.0
1663843107403118481,0.0,0.0,0.0
1663843107423181583,0.0,0.0,0.0
1663843107465599310,0.0,0.0,0.0
1663843107465623985,0.0,0.0,0.0
1663843107513604404,0.0,0.0,0.0
1663843107513658355,0.0,0.0,0.0
1663843107557699437,0.0,0.0,0.0
1663843107557730238,0.0,0.0,0.0
1663843107605631372,0.0,0.0,0.0
1663843107605668253,0.0,0.0,0.0
1663843107605707946,0.0,0.0,0.0
1663843107653661984,0.0,0.0,0.0
1663843107653695921,0.0,0.0,0.0
1663843107664650968,0.0,0.0,0.0
1663843107684155626,0.0,0.0,0.0
1663843107726010867,0.0,0.0,0.0
1663843107726042083,0.0,0.0,0.0
1663843107769681164,0.0,0.0,0.0
1663843107769730439,0.0,0.0,0.0
1663843107817720696,0.0,0.0,0.0
1663843107817758113,0.0,0.0,0.0
1663843107861720950,0.0,0.0,0.0
1663843107861760029,0.0,0.0,0.0
1663843107909568030,0.0,0.0,0.0
1663843107909597878,0.0,0.0,0.0
1663843107909610405,0.0,0.0,0.0
1663843107957877888,0.0,0.0,0.0
1663843107957906702,0.0,0.0,0.0
1663843107964266607,0.0,0.0,0.0
1663843107984915734,0.0,0.0,0.0
1663843108029636372,0.0,0.0,0.0
1663843108029683393,0.0,0.0,0.0
1663843108069590468,0.0,0.0,0.0
1663843108069607872,0.0,0.0,0.0
1663843108113730529,0.0,0.0,0.0
1663843108113753813,0.0,0.0,0.0
1663843108162032273,0.0,0.0,0.0
1663843108162080557,0.0,0.0,0.0
1663843108205687529,0.0,0.0,0.0
1663843108205736080,0.0,0.0,0.0
1663843108205772412,0.0,0.0,0.0
1663843108249559416,0.0,0.0,0.0
1663843108249573381,0.0,0.0,0.0
1663843108264988105,0.0,0.0,0.0
1663843108283970572,0.0,0.0,0.0
1663843108325699344,0.0,0.0,0.0
1663843108325725913,0.0,0.0,0.0
1663843108373555220,0.0,0.0,0.0
1663843108373572858,0.0,0.0,0.0
1663843108417724224,0.0,0.0,0.0
1663843108417774712,0.0,0.0,0.0
1663843108461621986,0.0,0.0,0.0
1663843108461650370,0.0,0.0,0.0
1663843108505550860,0.0,0.0,0.0
1663843108505571119,0.0,0.0,0.0
1663843108505578144,0.0,0.0,0.0
1663843108549627246,0.0,0.0,0.0
1663843108549675659,0.0,0.0,0.0
1663843108565718058,0.0,0.0,0.0
1663843108585006203,0.0,0.0,0.0
1663843108629855763,0.0,0.0,0.0
1663843108629907241,0.0,0.0,0.0
1663843108673725200,0.0,0.0,0.0
1663843108673778544,0.0,0.0,0.0
1663843108717801202,0.0,0.0,0.0
1663843108717833173,0.0,0.0,0.0
1663843108763470477,0.0,0.0,0.0
1663843108763528951,0.0,0.0,0.0
1663843108805559689,0.0,0.0,0.0
1663843108805600972,0.0,0.0,0.0
1663843108805622517,0.0,0.0,0.0
1663843108849926930,0.0,0.0,0.0
1663843108849960802,0.0,0.0,0.0
1663843108866092860,0.0,0.0,0.0
1663843108884392688,0.0,0.0,0.0
1663843108925695867,0.0,0.0,0.0
1663843108925767939,0.0,0.0,0.0
1663843108969560620,0.0,0.0,0.0
1663843108969586868,0.0,0.0,0.0
1663843109013504461,0.0,0.0,0.0
1663843109013513118,0.0,0.0,0.0
1663843109057597375,0.0,0.0,0.0
1663843109057628952,0.0,0.0,0.0
1663843109101656253,0.0,0.0,0.0
1663843109101705026,0.0,0.0,0.0
1663843109145505808,0.0,0.0,0.0
1663843109145525826,0.0,0.0,0.0
1663843109145534375,0.0,0.0,0.0
1663843109189832977,0.0,0.0,0.0
1663843109189888593,0.0,0.0,0.0
1663843109204758062,0.0,0.0,0.0
1663843109224557846,0.0,0.0,0.0
1663843109269663641,0.0,0.0,0.0
1663843109269693107,0.0,0.0,0.0
1663843109313648901,0.0,0.0,0.0
1663843109313702159,0.0,0.0,0.0
1663843109361875596,0.0,0.0,0.0
1663843109361910982,0.0,0.0,0.0
1663843109405773142,0.0,0.0,0.0
1663843109405813294,0.0,0.0,0.0
1663843109405848109,0.0,0.0,0.0
1663843109449848461,0.0,0.0,0.0
1663843109449950266,0.0,0.0,0.0
1663843109466310665,0.0,0.0,0.0
1663843109484470445,0.0,0.0,0.0
1663843109529622605,0.0,0.0,0.0
1663843109529665029,0.0,0.0,0.0
1663843109578014184,0.0,0.0,0.0
1663843109578049262,0.0,0.0,0.0
1663843109621671830,0.0,0.0,0.0
1663843109621714810,0.0,0.0,0.0
1663843109665604557,0.0,0.0,0.0
1663843109665652379,0.0,0.0,0.0
1663843109665682516,0.0,0.0,0.0
1663843109709671721,0.0,0.0,0.0
1663843109709699276,0.0,0.0,0.0
1663843109724461202,0.0,0.0,0.0
1663843109744229200,0.0,0.0,0.0
1663843109785580632,0.0,0.0,0.0
1663843109785606931,0.0,0.0,0.0
1663843109829871676,0.0,0.0,0.0
1663843109829923058,0.0,0.0,0.0
1663843109873578121,0.0,0.0,0.0
1663843109873595573,0.0,0.0,0.0
1663843109922031970,0.0,0.0,0.0
1663843109922097394,0.0,0.0,0.0
1663843109965793833,0.0,0.0,0.0
1663843109965831907,0.0,0.0,0.0
1663843110009515604,0.0,0.0,0.0
1663843110009568832,0.0,0.0,0.0
1663843110009578623,0.0,0.0,0.0
1663843110053576895,0.0,0.0,0.0
1663843110053601515,0.0,0.0,0.0
1663843110064697957,0.0,0.0,0.0
1663843110085004603,0.0,0.0,0.0
1663843110125559687,0.0,0.0,0.0
1663843110125575659,0.0,0.0,0.0
1663843110169696040,0.0,0.0,0.0
1663843110169754049,0.0,0.0,0.0
1663843110217659698,0.0,0.0,0.0
1663843110217702285,4.26460415686131e-05,-1.4886277370910684e-08,0.0
1663843110261873037,0.0001279381247058393,-4.4658832112732054e-08,0.0
1663843110261911530,0.0001705841662744524,-5.9545109483642737e-08,0.0
1663843110309687481,0.0001705841662744524,-5.9545109483642737e-08,0.0
1663843110309734014,0.0002132302078430655,-7.443138685455342e-08,0.0
1663843110309752580,0.0005543985403919703,-1.935216058218389e-07,0.0
1663843110353538345,0.0007249827066664227,-2.5306671530548166e-07,0.0
1663843110353570018,0.0007676287482350358,-2.6795299267639235e-07,0.0
1663843110364907269,0.0008955668729408751,-3.126118247891244e-07,0.0
1663843110385160490,0.0010661510392153274,-3.721569342727672e-07,0.0
1663843110425554360,0.0011514431158571898,-4.16815765251842e-07,0.0
1663843110425570357,0.001194089154178121,-4.391451807413794e-07,0.0
1663843110469628196,0.001194089154178121,-4.391451807413794e-07,0.0
1663843110469655063,0.0012367351924990522,-4.614745962309168e-07,0.0
1663843110514271282,0.0013220272600474056,-5.210197020868593e-07,0.0
1663843110514312611,0.0013220272600474056,-5.210197020868593e-07,0.0
1663843110557542554,0.0013646732938215824,-5.507922550148305e-07,0.0
1663843110557573683,0.001407319327595759,-5.805648079428018e-07,0.0
1663843110601652047,0.001791133578950907,-9.155060130781545e-07,0.0
1663843110601694453,0.002302885914091104,-1.3620942865919582e-06,0.0
1663843110649893042,0.0028572843531554015,-1.7491374746555845e-06,0.0
1663843110649958560,0.003070514522026285,-1.8980002392954409e-06,0.0
1663843110650111625,0.0032837446616680336,-2.084078686592859e-06,0.0
1663843110693728272,0.0038381430247365804,-2.5678826495661463e-06,0.0
1663843110693766297,0.004563125378055239,-3.327082672140868e-06,0.0
1663843110706011414,0.005458691964550584,-4.108612150790024e-06,0.0
1663843110724593653,0.006183674317869243,-4.867812173364746e-06,0.0
1663843110765591019,0.007292470638695702,-6.222463104629771e-06,0.0
1663843110765618843,0.008315974701010167,-7.651545296913657e-06,0.0
1663843110813540306,0.009552708456085485,-9.594203734382028e-06,0.0
1663843110813554701,0.011002671749332091,-1.2124869654020295e-05,0.0
1663843110861590660,0.012324696218972194,-1.4893715276984972e-05,0.0
1663843110861616471,0.013817303922802608,-1.8280340541896204e-05,0.0
1663843110905698539,0.015565786513967825,-2.2552697982754002e-05,0.0
1663843110906260748,0.01735691502199073,-2.6929259263632724e-05,0.0
1663843110906343129,0.019531856781732828,-3.2243655104699745e-05,0.0
1663843110953612398,0.021536214874044175,-3.714123558568308e-05,0.0
1663843110953639754,0.02349792704949783,-4.193461222664549e-05,0.0
1663843110964940520,0.02584345247667068,-4.7665823427796196e-05,0.0
1663843110985339865,0.028231624802799345,-5.308442385165417e-05,0.0
1663843111030319953,0.030960965643346654,-5.880075029906511e-05,0.0
1663843111030417100,0.03356236954329226,-6.379509339034427e-05,0.0
1663843111073712383,0.036462295202248016,-6.936255781996693e-05,0.0
1663843111073761322,0.039404868619496186,-7.398474513670202e-05,0.0
1663843111117699695,0.04230479745858077,-7.752767834154901e-05,0.0
1663843111117756891,0.04541795635936275,-8.133112134087003e-05,0.0
1663843111164768275,0.04844582254370971,-8.555882282637653e-05,0.0
1663843111164784617,0.051516335432152206,-8.931016386680275e-05,0.0
1663843111209670036,0.05492801641931054,-9.347832057838743e-05,0.0
1663843111209708852,0.058254406597721825,-9.638114435622715e-05,0.0
1663843111209734815,0.061879318971631556,-9.954447796028326e-05,0.0
1663843111253944331,0.06558952430555257,-0.00010148713710787301,0.0
1663843111253990391,0.06942766822210257,-0.00010215701959976679,0.0
1663843111265099838,0.07343639631272146,-0.00010145736455267775,0.0
1663843111284923688,0.07727453976160527,-9.94477171586196e-05,0.0
1663843111329542265,0.08145385107147458,-9.653000697167841e-05,0.0
1663843111329572699,0.08559051426840407,-9.147611695888221e-05,0.0
1663843111373746452,0.09011098806499643,-8.358639379765728e-05,0.0
1663843111373795088,0.0945461669308858,-7.42973633206145e-05,0.0
1663843111417644978,0.09893869817358673,-6.433100896958976e-05,0.0
1663843111417689850,0.10358710105789239,-5.216149087317281e-05,0.0
1663843111461757523,0.10823550174741724,-3.918067361332385e-05,0.0
1663843111461787950,0.11305448095745396,-2.404135412287314e-05,0.0
1663843111505580540,0.11817197811957407,-7.07102867834346e-06,0.0
1663843111505607798,0.12316153177299288,1.1216722497997986e-05,0.0
1663843111549645901,0.12827901217711382,3.265289966090566e-05,0.0
1663843111549702435,0.1334391262264416,5.6969544241499337e-05,0.0
1663843111549738849,0.13894039051295007,8.577435992202424e-05,0.0
1663843111594269801,0.14452692393589028,0.00011892590573430727,0.0
1663843111594353210,0.14998549753456414,0.00015512906762427147,0.0
1663843111605812616,0.15557197199109146,0.00019705587510905452,0.0
1663843111625725343,0.16154219984060394,0.00024811518512144165,0.0
1663843111669562414,0.16793874393030223,0.0003162186188931175,0.0
1663843111669585937,0.17412197193569756,0.00039068542295659953,0.0
1663843111713621690,0.18009189288563296,0.0004698780978445636,0.0
1663843111713650373,0.18614701098535028,0.0005565430478661705,0.0
1663843111761671635,0.19254318017338493,0.0006536722771512659,0.0
1663843111761718160,0.19915246489775132,0.0007598068760756288,0.0
1663843111805718812,0.20580433332642284,0.0008701091394734359,0.0
1663843111805790277,0.2121576453810415,0.0009798974172789908,0.0
1663843111849712110,0.21889461037893002,0.0011021963586596536,0.0
1663843111849784507,0.22571676529069715,0.0012308061814720992,0.0
1663843111849822605,0.23258146665000115,0.001365012313628483,0.0
1663843111893634909,0.2396165968903795,0.0015086921228573099,0.0
1663843111893678393,0.24665157281219952,0.001659739023118445,0.0
1663843111905648263,0.25381434827368726,0.0018185328295633003,0.0
1663843111927079669,0.26114755072250184,0.001986227022471583,0.0
1663843111969591759,0.268992113818976,0.002176574068573768,0.0
1663843111969640550,0.27670854191003025,0.0023732451700292506,0.0
1663843112013561787,0.2842115697628346,0.002573650193207018,0.0
1663843112013588057,0.29179967953268093,0.0027829545000246448,0.0
1663843112061667616,0.29960066973484073,0.0030076690141157937,0.0
1663843112061725601,0.3076570982062488,0.003251000346954129,0.0
1663843112105514021,0.31609684838807656,0.0035162301815076695,0.0
1663843112105532987,0.32470681049342726,0.003795834677432045,0.0
1663843112105542623,0.3334016682755522,0.004088830523466408,0.0
1663843112149645354,0.34205369855032935,0.004386430443997263,0.0
1663843112149683580,0.3510464221715975,0.004703606191785225,0.0
1663843112167579673,0.35999624736546143,0.005027089055014414,0.0
1663843112185340839,0.3690311367629157,0.0053583834096403455,0.0
1663843112225760498,0.3783641675077822,0.005705503539635632,0.0
1663843112269604561,0.3876542766001514,0.006059145929410889,0.0
1663843112269635147,0.39698655986922965,0.006425812337678859,0.0
1663843112269652545,0.4063610654381665,0.0068039701866131124,0.0
1663843112313588504,0.41569262755991854,0.007188552605807515,0.0
1663843112313616601,0.4253221793728518,0.0075921504069366135,0.0
1663843112325810651,0.4346955923750935,0.007996485305439066,0.0
1663843112345505352,0.44445194170354557,0.00842928112641072,0.0
1663843112389618369,0.4541652303167994,0.008870358981338278,0.0
1663843112389640125,0.4639206518024057,0.009323587488394907,0.0
1663843112433641054,0.4739732736398178,0.009811725359111385,0.0
1663843112433685544,0.4839824360249805,0.010315264890983819,0.0
1663843112477619115,0.4942462345779227,0.010849575263886939,0.0
1663843112477648071,0.5044239160683942,0.011397215756119964,0.0
1663843112522106773,0.5146007247713372,0.011960842630854857,0.0
1663843112522175408,0.5251169367536537,0.012565362089757387,0.0
1663843112565812978,0.5356744301073931,0.013194441921796174,0.0
1663843112565862504,0.5466562340820585,0.013871889581547954,0.0
1663843112609635559,0.5574656289124061,0.014572796295169558,0.0
1663843112609675510,0.5682731517321736,0.015301999503987447,0.0
1663843112609693861,0.5793766556348234,0.016078432133302078,0.0
1663843112653650709,0.5903504861128616,0.016874672366498356,0.0
1663843112653691146,0.6017052257671421,0.017724453674076383,0.0
1663843112665646131,0.6131005278871984,0.01860327504346051,0.0
1663843112686436050,0.6246211835595159,0.019520086946673027,0.0
1663843112729583611,0.6361812358216677,0.020478621704728295,0.0
1663843112729618844,0.647781402888718,0.021469027971307907,0.0
1663843112773570260,0.6596763100059964,0.02251597361662775,0.0
1663843112773584531,0.6716105289495863,0.023602072622703123,0.0
1663843112817670212,0.6833716373459024,0.024707611870862067,0.0
1663843112817717851,0.6952143074696049,0.02585627626600191,0.0
1663843112861576161,0.7073932052158843,0.02707189186861692,0.0
1663843112861592541,0.7198225303001925,0.028354145215398283,0.0
1663843112909859788,0.732074916910011,0.029687344070367425,0.0
1663843112909919289,0.74419591139712,0.0310447893541715,0.0
1663843112909961813,0.7564401709663531,0.03245067143478682,0.0
1663843112953581911,0.7686799534110857,0.03389501299029442,0.0
1663843112953612690,0.7810844830440498,0.03539832276597687,0.0
1663843112967779667,0.7934001227115232,0.03692576870632003,0.0
1663843112986822453,0.8057966110306513,0.038494007543508,0.0
1663843113029606009,0.8183161173045329,0.04010889914877833,0.0
1663843113029628014,0.8307444933584025,0.04176278321488144,0.0
1663843113073760028,0.843253310145704,0.04345848803007121,0.0
1663843113073799173,0.8556315080782511,0.04516509625676974,0.0
1663843113117610704,0.867963568896209,0.046893864866310545,0.0
1663843113117664499,0.8803338950663007,0.048656625809345835,0.0
1663843113161658088,0.8927846013889851,0.050459673623660314,0.0
1663843113161675318,0.9054421437199903,0.05232200539200689,0.0
1663843113209823524,0.9183063160481103,0.054244568827972156,0.0
1663843113209863371,0.931038251222361,0.05618600670626747,0.0
1663843113253599280,0.9434720810570109,0.0581019777387752,0.0
1663843113253626688,0.9560282754655136,0.06006373513792298,0.0
1663843113253649446,0.9682433656383573,0.06199841535846257,0.0
1663843113297627344,0.9805800057565887,0.06398325950599422,0.0
1663843113297663237,0.9928696712669454,0.06599136472402856,0.0
1663843113307007133,1.0047760992480923,0.06796459617218795,0.0
1663843113326001064,1.0163395276480107,0.06992040369016267,0.0
1663843113370008865,1.0280666190433776,0.0719312723970175,0.0
1663843113370044231,1.0397898282380773,0.07396465178335997,0.0
1663843113417513449,1.0514258146042985,0.0760017352436613,0.0
1663843113417530459,1.062764617801519,0.07800515347526717,0.0
1663843113461570000,1.0740582761891726,0.08001889415351715,0.0
1663843113461620061,1.0854746736167753,0.08207302826820155,0.0
1663843113505675402,1.09701371073995,0.08416794632803179,0.0
1663843113505725380,1.1085056531750894,0.0862833329036342,0.0
1663843113549521169,1.1199927663740117,0.08842478840210811,0.0
1663843113549541518,1.131643381861255,0.09061987763232805,0.0
1663843113549550240,1.1432893744150767,0.09283936302235757,0.0
1663843113593617333,1.155055922655098,0.09510950296513444,0.0
1663843113593654124,1.166900192453045,0.09742681661927852,0.0
1663843113605752908,1.1787801859182183,0.09978342845150429,0.0
1663843113628447546,1.1906552176549885,0.10216491649704343,0.0
1663843113669707640,1.202521441039437,0.10458991271368286,0.0
1663843113669742402,1.2144639310099292,0.10706743130286486,0.0
1663843113713546261,1.2262751246158479,0.10954782950108813,0.0
1663843113713566818,1.2368291897995194,0.11178924012416497,0.0
1663843113757752401,1.2471268100199837,0.11400625975156808,0.0
1663843113757803735,1.2571269209128562,0.11618663653443471,0.0
1663843113801692389,1.267495678429676,0.11847774137555538,0.0
1663843113801749626,1.278065249495019,0.12084806926726335,0.0
1663843113845609001,1.2886718448729384,0.12324809677042475,0.0
1663843113845655522,1.299024354911186,0.12561153277412793,0.0
1663843113889819290,1.3091637023276836,0.12795052167393095,0.0
1663843113889849543,1.3195460683296267,0.13037421593966841,0.0
1663843113889867817,1.3302125811282355,0.132893707112309,0.0
1663843113933685210,1.3407065488354506,0.13540146612033835,0.0
1663843113933731726,1.3511934726504877,0.13793851999837037,0.0
1663843113945853438,1.3613798218438606,0.14044806908095972,0.0
1663843113969307272,1.3715586802286976,0.14298783057934633,0.0
1663843114011267549,1.3818962558689418,0.1455959616294093,0.0
1663843114012118320,1.3919377080793531,0.14815736221823023,0.0
1663843114053847730,1.401971968366632,0.1507467938078886,0.0
1663843114053879007,1.4117917463541048,0.15331380727149588,0.0
1663843114097633526,1.4215612822963077,0.15590415278998174,0.0
1663843114097660264,1.4314869154258283,0.15857114646978956,0.0
1663843114141716599,1.4407842127759911,0.1611111112895654,0.0
1663843114141775078,1.4502392643394484,0.16372079342096255,0.0
1663843114185559167,1.4597289920997336,0.1663650176462387,0.0
1663843114185575370,1.4692126958839986,0.16903076655605453,0.0
1663843114185585729,1.4788138879467345,0.17175125022320065,0.0
1663843114229669507,1.4880813108209747,0.17439814133789566,0.0
1663843114229693309,1.4975885819418377,0.17713688224308047,0.0
1663843114247140377,1.507042884868415,0.17990509662971665,0.0
1663843114267259243,1.5164081158254814,0.18267387136996632,0.0
1663843114313691182,1.5258896465315823,0.18550043843631966,0.0
1663843114313726230,1.53503560902297,0.1882582841235198,0.0
1663843114357661834,1.5443350369748787,0.19109785541611538,0.0
1663843114357682696,1.5535022665897407,0.19393208079864493,0.0
1663843114401608755,1.5626188480375396,0.1967855498161613,0.0
1663843114401645533,1.571929199702469,0.1997336027866465,0.0
1663843114445718743,1.5810195087852459,0.202669692619717,0.0
1663843114445751528,1.5902195448172585,0.2056820605679175,0.0
1663843114489730586,1.5993669391398715,0.20871790252850622,0.0
1663843114489778761,1.6083403893552075,0.2117360587317309,0.0
1663843114489799624,1.617422749786492,0.21483148460337032,0.0
1663843114533767936,1.6266140964844862,0.218003498354246,0.0
1663843114533811594,1.635591899760235,0.2211404457299755,0.0
1663843114546329880,1.6445983526257866,0.2243244918208595,0.0
1663843114566732092,1.6535467546842118,0.22754435068374684,0.0
1663843114609569878,1.662443221092257,0.2307823996464245,0.0
1663843114609589141,1.6714060714332393,0.23408719260415012,0.0
1663843114653650773,1.6803943645901356,0.2374459897781794,0.0
1663843114653702758,1.6892887394592584,0.24081221707051453,0.0
1663843114697610329,1.698170123408273,0.24421257141180483,0.0
1663843114697650622,1.7071161058592532,0.24768248932399367,0.0
1663843114741995889,1.7159607852515533,0.251177204898052,0.0
1663843114742073011,1.7249485058553122,0.2547738563955485,0.0
1663843114789697417,1.7338426570762842,0.2583745516602249,0.0
1663843114789726135,1.7427222825576547,0.2620109212290633,0.0
1663843114789737376,1.7516253510145041,0.2657023344212834,0.0
1663843114833908158,1.760550242007997,0.26945218033811014,0.0
1663843114833984217,1.769613643312267,0.2733124408883353,0.0
1663843114847649278,1.7789321452606113,0.2773352656774974,0.0
1663843114866592602,1.7879874336498434,0.2813215745088811,0.0
1663843114909736101,1.797256093301414,0.2854579432193494,0.0
1663843114909875013,1.806540352949322,0.28966361004167895,0.0
1663843114953829549,1.8159179734627555,0.2939728682970087,0.0
1663843114953843461,1.8257335871429587,0.298554136123774,0.0
1663843114997619805,1.8350594051154403,0.302974384120124,0.0
1663843114997664628,1.8443611708609813,0.30744502470287904,0.0
1663843115041651759,1.8532951021360442,0.3117946760046975,0.0
1663843115041678668,1.862084574250009,0.3161482516446061,0.0
1663843115085626463,1.8709685864586298,0.3205989731088221,0.0
1663843115085667735,1.8797927073380105,0.3250737688156009,0.0
1663843115130075960,1.8884051535012867,0.32949426592908765,0.0
1663843115130109328,1.8971488576114053,0.33403238152397496,0.0
1663843115130123943,1.9059457901353185,0.33865283308682836,0.0
1663843115173635335,1.9147945323151874,0.3433577927622054,0.0
1663843115173666619,1.923722752904935,0.3481852636265816,0.0
1663843115186823524,1.9326663963789588,0.3530736531404985,0.0
1663843115206400171,1.9416988775486084,0.35806602303114354,0.0
1663843115249536495,1.9505986548617005,0.36303382681225166,0.0
1663843115249555008,1.9595527261246215,0.36807918667340167,0.0
1663843115293800263,1.9684864719253603,0.37316044973269635,0.0
1663843115293824187,1.9773266647582755,0.3782335258514923,0.0
1663843115337746378,1.9861842197366706,0.3833618765210273,0.0
1663843115337790025,1.9949017423961233,0.3884764166873633,0.0
1663843115381739465,2.003708751405109,0.3936910933888149,0.0
1663843115381776837,2.0123492239323477,0.39885207380854826,0.0
1663843115425729379,2.020896760205239,0.4040021751737999,0.0
1663843115425781566,2.0295319551245954,0.40925452047241223,0.0
1663843115469732746,2.0379997042949847,0.41445373372658173,0.0
1663843115469751806,2.0466268432430854,0.4198007021588577,0.0
1663843115469769190,2.0552324486319864,0.42518225897228185,0.0
1663843115517557123,2.0637310997821117,0.4305735865467586,0.0
1663843115517594873,2.07227892375328,0.4360464562879011,0.0
1663843115527195340,2.080839566688216,0.44157822844253164,0.0
1663843115548507873,2.0894117085569848,0.4471706022289229,0.0
1663843115589721856,2.097956418680806,0.45280480045803045,0.0
1663843115589752781,2.1064044816096,0.4584304409190563,0.0
1663843115633617084,2.1152162020899965,0.4643561371659949,0.0
1663843115633679551,2.1239148594602058,0.4702966353091571,0.0
1663843115677525393,2.132796047471935,0.4764233565352892,0.0
1663843115677546938,2.1417160727152855,0.4826437381300809,0.0
1663843115726360338,2.150503170708745,0.4888308769170178,0.0
1663843115726410546,2.15936637497228,0.4951319568014255,0.0
1663843115769695093,2.1682020013041345,0.5014716496055498,0.0
1663843115769748814,2.177355288552704,0.5080999595337283,0.0
1663843115769774193,2.186547257041995,0.514820075319865,0.0
1663843115813648799,2.1954865848629743,0.5214517466516704,0.0
1663843115813680886,2.203607443552372,0.5275401989995524,0.0
1663843115827887619,2.211731373263325,0.5336954306508971,0.0
1663843115847410788,2.2198240446198088,0.5398917021867621,0.0
1663843115889560547,2.228017951763439,0.5462361029616145,0.0
1663843115889583304,2.2362804037995603,0.552700732327483,0.0
1663843115933695683,2.2445134353082206,0.5592027888225203,0.0
1663843115933761084,2.25261345143503,0.5656666324326186,0.0
1663843115977633347,2.260765280462667,0.5722702094929268,0.0
1663843115977674097,2.2690827767381494,0.5790755774640811,0.0
1663843116025969240,2.2774338678627917,0.5859743863357247,0.0
1663843116026061387,2.285685655086434,0.5928592817692961,0.0
1663843116069663362,2.293740641556981,0.599647017120097,0.0
1663843116069710621,2.301955999811467,0.6066413078084283,0.0
1663843116069747337,2.3101669501750184,0.6137063329992424,0.0
1663843116113608936,2.3184184806533485,0.620919832553348,0.0
1663843116113635784,2.3265387522124508,0.6280888964131542,0.0
1663843116127125735,2.3344953287946075,0.6351854242109115,0.0
1663843116147060597,2.34241713032834,0.6423207502828037,0.0
1663843116189537394,2.3501790101682603,0.6493785663641345,0.0
1663843116189554971,2.358160157569237,0.6567021974978978,0.0
1663843116233621163,2.366169275919456,0.6641213193365301,0.0
1663843116233653365,2.374299087194574,0.6717237410016964,0.0
1663843116277584090,2.3822478976273453,0.6792695175525734,0.0
1663843116277611684,2.3900942255073163,0.6867991348288246,0.0
1663843116321652026,2.397963582358738,0.6944277358668185,0.0
1663843116321785330,2.4059743036226795,0.7022778934029779,0.0
1663843116365626530,2.4141242168538235,0.7103513552144365,0.0
1663843116365666027,2.422317866498431,0.7185621835945396,0.0
1663843116409567324,2.4302286902929255,0.7265730476204935,0.0
1663843116409584043,2.438220963747148,0.734743041649841,0.0
1663843116409590870,2.4462462822603115,0.7430593096799282,0.0
1663843116453875756,2.4544430898019107,0.7516247988128504,0.0
1663843116453931101,2.4624556944369065,0.7600712742623854,0.0
1663843116469714337,2.4704620687114756,0.7685823007734662,0.0
1663843116487389102,2.4784297388713674,0.7771295713038735,0.0
1663843116529530207,2.4865032270129146,0.7858695401127304,0.0
1663843116529555075,2.4945914749752442,0.7947117930917177,0.0
1663843116573638990,2.5023050903197057,0.8032606106049016,0.0
1663843116573691891,2.5098676090156267,0.8117158570656364,0.0
1663843116617727035,2.5174199672737863,0.8202372493009233,0.0
1663843116617768714,2.524822486327951,0.8286633599199342,0.0
1663843116661560942,2.5320158020755015,0.8369324916523437,0.0
1663843116661584906,2.5392155177036897,0.8453088458073955,0.0
1663843116705631985,2.5464758234746867,0.8538577982942627,0.0
1663843116705681142,2.5537370735213787,0.8625175562422785,0.0
1663843116749683421,2.560847073719227,0.8711919164894486,0.0
1663843116749715780,2.5678841551144984,0.879925536240011,0.0
1663843116749960767,2.574738889689844,0.8885864731384758,0.0
1663843116793529067,2.581416086531575,0.8971698896997063,0.0
1663843116793555681,2.58828173023064,0.9061465314189855,0.0
1663843116806741724,2.5950703545377523,0.915181559917872,0.0
1663843116827758456,2.6017260871342422,0.9242091759993802,0.0
1663843116869759848,2.608323016877427,0.9333325302900647,0.0
1663843116869803143,2.614597453658786,0.9422667783659248,0.0
1663843116913635897,2.6208373504875198,0.9513289327144469,0.0
1663843116913689235,2.6269391162534155,0.960381987455385,0.0
1663843116961533982,2.6329051323379304,0.9694230570214735,0.0
1663843116961548727,2.638709942181665,0.9784165636566392,0.0
1663843117009910436,2.644424995459803,0.9874673727335525,0.0
1663843117009987501,2.650072135844285,0.9966108722273693,0.0
1663843117010031567,2.655559540699546,1.0058014852032895,0.0
1663843117053686560,2.6609074474873364,1.014975371338659,0.0
1663843117053723467,2.6662855373825396,1.024427151414705,0.0
1663843117067870669,2.671609102364285,1.034007443004058,0.0
1663843117087537376,2.676691429189973,1.0433796237390291,0.0
1663843117129807673,2.681794947608024,1.0530307089298712,0.0
1663843117130024401,2.6867418502218716,1.0626192629403326,0.0
1663843117173718271,2.69157729454847,1.0722167759348453,0.0
1663843117173730313,2.696317274636394,1.0819567387471782,0.0
1663843117217604558,2.7009886902162785,1.0917770174604757,0.0
1663843117217634719,2.7055956686654867,1.1016747492800802,0.0
1663843117261629896,2.710064839034143,1.1114950715608585,0.0
1663843117261643921,2.714609414751494,1.1217023557438202,0.0
1663843117305610644,2.719141840076921,1.1321013942766533,0.0
1663843117310295675,2.723557181835623,1.1424580265817865,0.0
1663843117349660907,2.727927534118563,1.1529262118428967,0.0
1663843117349704066,2.7321221512447798,1.1632822248791437,0.0
1663843117349735608,2.7362637404290084,1.1737054617823406,0.0
1663843117393537276,2.7403652402090577,1.1842361246063544,0.0
1663843117393557042,2.744377923183445,1.1947553190097737,0.0
1663843117407449892,2.748305817518457,1.2052609496240712,0.0
1663843117427806899,2.7521657880221513,1.2157917262441356,0.0
1663843117470081460,2.7560027904107893,1.226466944949507,0.0
1663843117470203922,2.7597811501515404,1.2372986516001565,0.0
1663843117513937094,2.7635385028057584,1.2482729806556352,0.0
1663843117513988078,2.767205423515141,1.2591879169846814,0.0
1663843117561609967,2.770754145268852,1.2699623986730344,0.0
1663843117561643767,2.7741358915944425,1.2804324868130186,0.0
1663843117609708494,2.7775455134726545,1.2912070698029272,0.0
1663843117609742090,2.7809018718508978,1.3020430164701418,0.0
1663843117609758536,2.784096699896385,1.3125716454231178,0.0
1663843117653751121,2.787134566478367,1.3228801440599491,0.0
1663843117653798234,2.7901184164920063,1.3332044075499798,0.0
1663843117667946180,2.7930249161363934,1.3434620913776891,0.0
1663843117687084060,2.79590410346716,1.3538160306198244,0.0
1663843117729821024,2.7987775554131757,1.3643484861510962,0.0
1663843117729876153,2.80154619051705,1.3746883913044468,0.0
1663843117773706708,2.8042588324934483,1.3849990358623758,0.0
1663843117773728165,2.8069621179127697,1.395444343968129,0.0
1663843117817590700,2.8096518471322187,1.406113191637663,0.0
1663843117817627010,2.812257690394036,1.4166271760258191,0.0
1663843117861618207,2.8148654102387556,1.427316364539506,0.0
1663843117861677161,2.8173841571270293,1.4378077003741478,0.0
1663843117905826536,2.819890135851496,1.4484335846308487,0.0
1663843117905937475,2.8223841843286466,1.459193646724129,0.0
1663843117949715854,2.8247403923415413,1.4695478042289958,0.0
1663843117949752709,2.827049899631185,1.479999844938722,0.0
1663843117949780210,2.829308397254537,1.4904193941697292,0.0
1663843117993589645,2.8315553336657215,1.500972284306868,0.0
1663843117993643352,2.833728968835896,1.5113227295869665,0.0
1663843118008816486,2.8358010845536787,1.5213022810339174,0.0
1663843118028145134,2.8378848527848732,1.5314536083081731,0.0
1663843118069657648,2.8399215899109653,1.5415274730178647,0.0
1663843118069698943,2.8419569719603945,1.5517321021154216,0.0
1663843118117523073,2.8439092850714607,1.5616923265788538,0.0
1663843118117542721,2.845829675798702,1.5715718804069154,0.0
1663843118161615792,2.8477213210856203,1.5814135551536845,0.0
1663843118161659012,2.8495747224463455,1.5911757013250456,0.0
1663843118209689519,2.851437407165105,1.6011096898528039,0.0
1663843118209730898,2.8532810165739306,1.6110472361686117,0.0
1663843118209761651,2.855153513382405,1.6212396495811767,0.0
1663843118253574095,2.8570692784725766,1.631770975377959,0.0
1663843118253595574,2.8589780718960363,1.6423902371766428,0.0
1663843118269701048,2.860853241771459,1.6528855483025875,0.0
1663843118288901046,2.8627082586525754,1.6633844401518658,0.0
1663843118329560295,2.8643946407335106,1.6730469737932907,0.0
1663843118329584988,2.866044621384602,1.6826292537521261,0.0
1663843118377704385,2.867667836863411,1.6922161039578938,0.0
1663843118377741068,2.8692799670161406,1.70189130303932,0.0
1663843118421539302,2.870851289137983,1.7114867953220474,0.0
1663843118421556099,2.8723353961729843,1.720793987404036,0.0
1663843118465976928,2.8737902565260436,1.7301057960089996,0.0
1663843118466028806,2.875211023790425,1.7393797260497754,0.0
1663843118513643356,2.8766663214547905,1.7490366289254147,0.0
1663843118513681745,2.8781400445746392,1.7589926132842244,0.0
1663843118513696039,2.879569295594153,1.7688258139838022,0.0
1663843118557483513,2.8809788221034394,1.7787049412442626,0.0
1663843118557498232,2.8823732312447325,1.7887154030506836,0.0
1663843118567626071,2.883771629042991,1.7988975212933576,0.0
1663843118587937987,2.8851504760124045,1.8090823055004437,0.0
1663843118633676835,2.886513621845121,1.8193122276235023,0.0
1663843118633714661,2.8878606968786382,1.8295442783494893,0.0
1663843118677529625,2.88918991157207,1.8397786645794427,0.0
1663843118677548185,2.890492196124691,1.8499305272523228,0.0
1663843118721659877,2.8917856780453146,1.8601694909560438,0.0
1663843118721706368,2.8930208641692277,1.870243810440996,0.0
1663843118765844546,2.8942280954247597,1.880278565800585,0.0
1663843118765887021,2.8952261613683485,1.8887491778029832,0.0
1663843118809659034,2.8961190975508377,1.8965021520529752,0.0
1663843118809707496,2.897055173678639,1.9048081960953758,0.0
1663843118809778809,2.898034784349293,1.9136672223425237,0.0
1663843118853563685,2.8989314617451267,1.9219347171221808,0.0
1663843118853584243,2.8998001352584435,1.9300765481956967,0.0
1663843118867817665,2.9006501469569432,1.938177469786973,0.0
1663843118887958919,2.9014816423012726,1.946237441684647,0.0
1663843118929529622,2.902329184805066,1.9545958518859503,0.0
1663843118929547048,2.9031877669886375,1.9631674598310076,0.0
1663843118978038017,2.904034380116707,1.9717402582271615,0.0
1663843118978104312,2.904854832054718,1.9802299144004314,0.0
1663843119025726190,2.9056414481228208,1.9885514431850202,0.0
1663843119025765001,2.9063660941701936,1.9964076117851843,0.0
1663843119069636209,2.9070847132859057,2.0043499782610223,0.0
1663843119069670372,2.907786696384223,2.012293832388564,0.0
1663843119069683075,2.908460094690749,2.020068951646029,0.0
1663843119113892041,2.90911631622263,2.027802741014302,0.0
1663843119113955387,2.9097141394312107,2.035027878128025,0.0
1663843119128614011,2.9102998559046287,2.0423395753120173,0.0
1663843119148989956,2.9108656723021453,2.0496100651386,0.0
1663843119189627802,2.911406106506912,2.0568824857386794,0.0
1663843119189683204,2.9119300387358225,2.0641561138246933,0.0
1663843119233646235,2.9124361965921364,2.071431000403784,0.0
1663843119233667340,2.9129143931557895,2.0785368174805416,0.0
1663843119277612546,2.9133761648996015,2.085600984310804,0.0
1663843119277639939,2.9138392962290918,2.092921468507172,0.0
1663843119321722470,2.9142962009266284,2.1004132524890182,0.0
1663843119321750843,2.91473479839678,2.1079061305336984,0.0
1663843119369572701,2.915136791978087,2.1151875158191182,0.0
1663843119369597352,2.9155132467196405,2.1222994487567513,0.0
1663843119369610217,2.915868022314008,2.1293270967035616,0.0
1663843119413702087,2.9162003210887155,2.136270454788559,0.0
1663843119413778670,2.91652269100416,2.1433423543768435,0.0
1663843119430587978,2.9168277800639393,2.150415020551262,0.0
1663843119451102482,2.9171017162594066,2.1571475247937153,0.0
1663843119493616066,2.917342177930294,2.1635825863135443,0.0
1663843119493670766,2.917574677165817,2.1702739772540105,0.0
1663843119537668775,2.9177951348126894,2.1771364501657438,0.0
1663843119537737556,2.918000021448332,2.183999405615466,0.0
1663843119581560901,2.9181893065519273,2.1909054712442977,0.0
1663843119581582002,2.9183540586859245,2.1975988728717972,0.0
1663843119625653508,2.9185010490169314,2.2043353443707665,0.0
1663843119625711746,2.918635709304103,2.211285345131862,0.0
1663843119673606244,2.918745267599767,2.2181078325892725,0.0
1663843119673628962,2.918838155103258,2.2249305673810085,0.0
1663843119673657264,2.9189153239619494,2.2318387955393293,0.0
1663843119721871644,2.9189760889132166,2.2385339487290157,0.0
1663843119721933984,2.9190230398887924,2.2456130363647957,0.0
1663843119728462078,2.9190539288169504,2.2526922123071835,0.0
1663843119748620017,2.919069291444278,2.2600273158161546,0.0
1663843119793619838,2.919068033553821,2.2672344971705654,0.0
1663843119793658681,2.919039786917798,2.274271037763372,0.0
1663843119837645192,2.918992969899912,2.281520714105641,0.0
1663843119837683613,2.9189272999531473,2.2888981874745786,0.0
1663843119885716475,2.918842985829762,2.2964460663882997,0.0
1663843119885776664,2.918739067935232,2.3040790009365546,0.0
1663843119933714084,2.918617869070654,2.311626377686315,0.0
1663843119933745896,2.9184750731550086,2.319343990745612,0.0
1663843119933780415,2.91830304653136,2.327103664162224,0.0
1663843119981536366,2.9181328989108373,2.3339675687234465,0.0
1663843119981563312,2.91796448122328,2.3401916129643965,0.0
1663843119989786323,2.9177758250122596,2.3465857370798004,0.0
1663843120009112264,2.917559288821875,2.3533629997767473,0.0
1663843120050528749,2.9173278207580324,2.3602677802841634,0.0
1663843120050643608,2.9170991232821564,2.3669166311357164,0.0
1663843120093632140,2.916863820954794,2.373522578602626,0.0
1663843120093671969,2.9166140001840355,2.3800853162183366,0.0
1663843120137676732,2.9163489728766976,2.3868608559098696,0.0
1663843120137700582,2.9160690358884347,2.3938918826250277,0.0
1663843120181758724,2.9157822577388646,2.4008799519068296,0.0
1663843120181802792,2.915492398617259,2.4076544747147324,0.0
1663843120225721898,2.915192928393045,2.41430051396879,0.0
1663843120225761588,2.914873512692422,2.4210737075431217,0.0
1663843120269705654,2.9145396609137197,2.4278035067528823,0.0
1663843120269744283,2.9141879526862917,2.4344042802260133,0.0
1663843120269777301,2.9138251207296917,2.440833603016978,0.0
1663843120313617907,2.913439848458889,2.4472616201184256,0.0
1663843120313656749,2.913038647481598,2.4536032023583028,0.0
1663843120328202649,2.9126090468896964,2.4600711497522414,0.0
1663843120347940443,2.912149097935578,2.466665265013627,0.0
1663843120389841563,2.9116661340258574,2.473257734579938,0.0
1663843120433753114,2.91114520843776,2.4798473131440417,0.0
1663843120433800026,2.910602508611508,2.4863923427336423,0.0
1663843120433822966,2.9100443103882334,2.492850462808622,0.0
1663843120477581139,2.9094788550952018,2.499136696845883,0.0
1663843120477625562,2.908869348094502,2.5056330112106404,0.0
1663843120489009287,2.9082213058465594,2.5122541562344676,0.0
1663843120509592715,2.9075564791790454,2.5187879102038426,0.0
1663843120549657327,2.9068789049089436,2.5252345987543947,0.0
1663843120549688896,2.906182726842445,2.531550607274737,0.0
1663843120593691359,2.9054404046637843,2.53807601095675,0.0
1663843120593742149,2.904691329829732,2.5444718475300325,0.0
1663843120641880384,2.903891602795477,2.551119343696511,0.0
1663843120641899331,2.903047710267545,2.5579332986009438,0.0
1663843120685612262,2.9021950389759117,2.5646172050995615,0.0
1663843120685646368,2.901328979002535,2.5712133752235182,0.0
1663843120733657273,2.90043529673507,2.5778058597465554,0.0
1663843120733697039,2.899481056456601,2.5845191006238157,0.0
1663843120733710656,2.898495191488086,2.591227770227323,0.0
1663843120781684526,2.8974597183694626,2.5980583900191707,0.0
1663843120781712666,2.8964153474962226,2.604758200991452,0.0
1663843120788952127,2.895344090344868,2.6114537656204315,0.0
1663843120809646242,2.894204525454612,2.618397474517524,0.0
1663843120853547588,2.893022945326625,2.6254206630158463,0.0
1663843120853579034,2.8918094690447553,2.632395127974716,0.0
1663843120897634338,2.890594024868041,2.6392393473915274,0.0
1663843120897690151,2.889350697599529,2.6461218971587073,0.0
1663843120941636010,2.8881355027780478,2.6527494876680615,0.0
1663843120941693618,2.8869096132084686,2.659331733741847,0.0
1663843120985640313,2.886217570640301,2.6629768269474625,0.0
1663843120985674100,2.8855608209138697,2.666368150085542,0.0
1663843121029662539,2.8845777117636846,2.6713468944915366,0.0
1663843121029697611,2.8834033942331545,2.6771136975105008,0.0
1663843121029744822,2.882433993430008,2.6817906460632357,0.0
1663843121073696271,2.8815458203574305,2.686005329340254,0.0
1663843121074100870,2.8805211370982664,2.6908013833893687,0.0
1663843121089775893,2.8794599051962333,2.6956768081864806,0.0
1663843121109470121,2.8782885808322365,2.700964678356898,0.0
1663843121149836861,2.8770307219086404,2.706582803183505,0.0
1663843121193573177,2.875704671502459,2.7124478580389044,0.0
1663843121193601894,2.874422979554862,2.7179730717167585,0.0
1663843121193621642,2.8731806992298816,2.723244723383841,0.0
1663843121237625787,2.871884112092283,2.72867881176233,0.0
1663843121237655792,2.87057330300416,2.734109487065192,0.0
1663843121250446093,2.8692159991722805,2.7396605262165243,0.0
1663843121270185585,2.867862735075782,2.7451247228795843,0.0
1663843121313652338,2.8665017477074293,2.750543040708376,0.0
1663843121313689475,2.8651046583132165,2.75599619668561,0.0
1663843121357657274,2.863691395252845,2.7614451834179903,0.0
1663843121357708833,2.8621191066677256,2.767425631768801,0.0
1663843121401609226,2.8604929901803366,2.773524174482358,0.0
1663843121401648381,2.8588668087961366,2.779534384573234,0.0
1663843121445806468,2.8571949694832095,2.7856205517884347,0.0
1663843121445887488,2.85552372819797,2.7916183883815155,0.0
1663843121489915991,2.8536681520556244,2.7981846030678192,0.0
1663843121489941550,2.8517652573844487,2.804781657555145,0.0
1663843121533510339,2.8498621347309494,2.811289829475962,0.0
1663843121533525685,2.8478878573886615,2.8179548780840293,0.0
1663843121533531263,2.845876902764433,2.8246534910369943,0.0
1663843121577669210,2.843718533667894,2.8317530651381797,0.0
1663843121577710100,2.8415253387469135,2.838886586478142,0.0
1663843121589898082,2.8392945817958624,2.846053127663303,0.0
1663843121610081589,2.8369849997692103,2.8533737306134523,0.0
1663843121653622213,2.834611031425246,2.860763344878999,0.0
1663843121653665017,2.8321216607632267,2.8684293923325135,0.0
1663843121697566580,2.8296241766821413,2.876047934111677,0.0
1663843121697582861,2.8271443129651637,2.883537578489977,0.0
1663843121741636615,2.82459900978747,2.8911402778336153,0.0
1663843121741667636,2.8220161687998857,2.898775340523948,0.0
1663843121785674883,2.819272829269645,2.906806270494792,0.0
1663843121785716860,2.8165462068426335,2.9146625438113443,0.0
1663843121829825131,2.813833198799338,2.9223880596037963,0.0
1663843121829879765,2.8111048316222718,2.930062918759683,0.0
1663843121877729750,2.808387698605824,2.937605915097152,0.0
1663843121877804605,2.806383694977719,2.943093981221274,0.0
1663843121877846619,2.8044741836062665,2.948253293655089,0.0
1663843121921733782,2.8022715722447713,2.954122575480861,0.0
1663843121921775005,2.79969001223516,2.9608972006968854,0.0
1663843121930391164,2.7972357303258537,2.9672181719746895,0.0
1663843121949790783,2.7948383382209068,2.9733324541504893,0.0
1663843121993535691,2.7924385004688768,2.979399939451138,0.0
1663843121993566147,2.7900470577322114,2.9853789728359255,0.0
1663843122037556171,2.7874408033528835,2.991823201422995,0.0
1663843122037575292,2.784686587876455,2.9985755689799,0.0
1663843122081678133,2.781797559357005,3.005595307748963,0.0
1663843122081730113,2.7789986213856217,3.0123292602841754,0.0
1663843122125878313,2.776293702047886,3.0187327011832945,0.0
1663843122125907168,2.773497233991731,3.0252825923803095,0.0
1663843122169709604,2.7705730798382646,3.0320561253091483,0.0
1663843122169742349,2.7675693790679503,3.0389345968556247,0.0
1663843122213625448,2.764606983537799,3.0456449017831653,0.0
1663843122213649496,2.761701168660704,3.052147020528765,0.0
1663843122213656941,2.7586897746746413,3.0587886827284594,0.0
1663843122257479285,2.755573740962964,3.0655231347093417,0.0
1663843122257495369,2.7522981536786513,3.0725125889047282,0.0
1663843122269369142,2.7488932687724428,3.0796768046963883,0.0
1663843122290105445,2.7454657050199107,3.086782879821977,0.0
1663843122333565304,2.741961023900226,3.09394631537479,0.0
1663843122333607859,2.7384567671887203,3.1010148853764274,0.0
1663843122382009910,2.7347023816848743,3.1084828968681064,0.0
1663843122382078637,2.730845604095956,3.1160424613135222,0.0
1663843122429640756,2.7268625366784556,3.123680838109502,0.0
1663843122429778076,2.7227544438225064,3.131446228844822,0.0
1663843122469639607,2.7185788197397507,3.139223953489222,0.0
1663843122469673603,2.7142959313808404,3.1470891222393913,0.0
1663843122469682000,2.7098441536987976,3.155153503598524,0.0
1663843122513856067,2.705301521354836,3.1632649573076668,0.0
1663843122513950028,2.700664447392981,3.1714210533770513,0.0
1663843122530723787,2.695953484138678,3.179583970953444,0.0
1663843122550072743,2.6910227230197576,3.1879147943481523,0.0
1663843122597602047,2.6859855867622198,3.196281449759034,0.0
1663843122597661632,2.680772967613203,3.2047910045074364,0.0
1663843122642656422,2.6755642776920667,3.213152607465202,0.0
1663843122642751706,2.6702730803786485,3.221512759192402,0.0
1663843122685622660,2.6647637388662857,3.2300878549195864,0.0
1663843122685662322,2.6591105524456427,3.238773073325812,0.0
1663843122729585949,2.653355187826106,3.2474421570837437,0.0
1663843122729609338,2.6473834460045933,3.256325696836336,0.0
1663843122773537486,2.6413621825327893,3.2651757457131394,0.0
1663843122773558600,2.6353096419467206,3.2739526796963743,0.0
1663843122773568187,2.6291745816006564,3.2827242253679674,0.0
1663843122817690513,2.623006155222862,3.291420105640476,0.0
1663843122817719674,2.6166276753392936,3.300280373129621,0.0
1663843122830407474,2.610008235445084,3.309334634225814,0.0
1663843122850691232,2.60329277625183,3.3183179095936755,0.0
1663843122893595509,2.5966163178984694,3.3271170071561227,0.0
1663843122893623177,2.590005669617801,3.335698010368384,0.0
1663843122941681039,2.583276749852132,3.344295160151392,0.0
1663843122941721000,2.576482007779039,3.35284038254548,0.0
1663843122989665230,2.5695176653406104,3.3614683050078136,0.0
1663843122989714481,2.5624902646056102,3.370044944823351,0.0
1663843123033550691,2.555289594354803,3.3786997367612894,0.0
1663843123033566677,2.547980092596346,3.387318805388579,0.0
1663843123033591545,2.540621070078891,3.395895631581664,0.0
1663843123077644514,2.533049606607771,3.404627125846191,0.0
1663843123077682973,2.5256041401848437,3.4131290191473256,0.0
1663843123090011778,2.517919446903027,3.4218180401710363,0.0
1663843123112515367,2.5101938930511682,3.430470751588165,0.0
1663843123153631385,2.5022879517635115,3.4392481076875407,0.0
1663843123153669014,2.4942120577956195,3.448101645368259,0.0
1663843123201656751,2.486068732942767,3.4569512426973596,0.0
1663843123201756835,2.4778029408992683,3.4658618755461674,0.0
1663843123245678893,2.469587297174022,3.4746443758009997,0.0
1663843123245695387,2.4612517768397675,3.4834898151134275,0.0
1663843123289787825,2.452882353987444,3.4923031831978557,0.0
1663843123289837830,2.4444776195365914,3.501082883345541,0.0
1663843123333831215,2.435980018767451,3.509891631995375,0.0
1663843123333896960,2.427312685876665,3.5187733779993997,0.0
1663843123333942585,2.418581411883233,3.527652185316532,0.0
1663843123377628149,2.40969916793881,3.5366216699589343,0.0
1663843123377658739,2.4009648195072746,3.545377386546569,0.0
1663843123390183341,2.3920534913658953,3.55425766244944,0.0
1663843123411808931,2.3830614852430334,3.5631777643759435,0.0
1663843123453989292,2.3739854479098943,3.572134204039074,0.0
1663843123497704088,2.364828267385762,3.581129799186698,0.0
1663843123497727495,2.355649133834478,3.5901029922894456,0.0
1663843123497769448,2.346610165568498,3.598914516841142,0.0
1663843123541658091,2.337558902908238,3.607713412027102,0.0
1663843123541710733,2.328651479542518,3.6163543541345082,0.0
1663843123550254089,2.3196507035303857,3.6250828073204935,0.0
1663843123570453687,2.3106162560159285,3.6338377960391015,0.0
1663843123617750199,2.3014562105703735,3.642708299550582,0.0
1663843123617787684,2.292503058008688,3.6513633226083404,0.0
1663843123665515708,2.2834518187827517,3.6601009503086552,0.0
1663843123665536837,2.274362249982928,3.668860268277071,0.0
1663843123713902186,2.2652312423101333,3.677638029459295,0.0
1663843123713972681,2.256004907832243,3.686501234837637,0.0
1663843123713999713,2.2467170644578336,3.695423528251835,0.0
1663843123757735736,2.237298317576854,3.70445578177079,0.0
1663843123757778762,2.227716061748297,3.7136255916464638,0.0
1663843123771517910,2.2181178161850608,3.7227786633728153,0.0
1663843123791063504,2.208542474913315,3.731893951410663,0.0
1663843123833714734,2.1987736996240597,3.7411771430495007,0.0
1663843123833750266,2.189148338638935,3.750301695960518,0.0
1663843123881629974,2.179448265462982,3.7594713927540195,0.0
1663843123881653292,2.169736996631071,3.7686292318319867,0.0
1663843123929652050,2.1599213602168317,3.777862860557402,0.0
1663843123929692926,2.1501877435755463,3.786996943214357,0.0
1663843123977796862,2.1405892471771097,3.795963358808665,0.0
1663843123977824464,2.1309439013471145,3.8049420655215886,0.0
1663843123977835193,2.121093712784751,3.8140762218949935,0.0
1663843124021521999,2.1113168333078183,3.82310122651661,0.0
1663843124021538721,2.1015163599558457,3.832100604428663,0.0
1663843124031496660,2.091719164869207,3.841040403551365,0.0
1663843124051155691,2.081988710125295,3.8498634411347217,0.0
1663843124093709717,2.0724041446354917,3.8584661999182908,0.0
1663843124093750564,2.0627866176592935,3.867032093285518,0.0
1663843124141807588,2.0531028228463537,3.8755875463309586,0.0
1663843124141839888,2.0434765670154054,3.8840146962734785,0.0
1663843124185642390,2.03416371200158,3.8920874361005025,0.0
1663843124185684613,2.02497607425351,3.8999788983649113,0.0
1663843124229594933,2.0157540910745615,3.907830197003196,0.0
1663843124229641514,2.006397406993585,3.9157204273304074,0.0
1663843124277622300,1.9970774922118357,3.9234552222547268,0.0
1663843124277665103,1.9880047491181057,3.930886466576008,0.0
1663843124277911591,1.9790844591110093,3.938099669573675,0.0
1663843124321645575,1.9701856811030816,3.945203470728889,0.0
1663843124321691787,1.9610414729359842,3.9524095957314924,0.0
1663843124330792817,1.951746143583796,3.9596301917680066,0.0
1663843124351457550,1.942429517310426,3.9667532904118383,0.0
1663843124393680508,1.933159477360665,3.9737260916076216,0.0
1663843124393713147,1.9239495913897127,3.9804939005446927,0.0
1663843124441621946,1.9148642375653917,3.9870705998990785,0.0
1663843124441645824,1.905971799318636,3.9934041524276296,0.0
1663843124490004935,1.8969927685438277,3.9996890022585276,0.0
1663843124490039123,1.8877549910490163,4.006049827320377,0.0
1663843124537669679,1.8785436173360397,4.0122981263580275,0.0
1663843124537718446,1.8698166635455342,4.018120481897295,0.0
1663843124537757096,1.861302430708464,4.023645464887473,0.0
1663843124585845519,1.8526702765849434,4.029144753566275,0.0
1663843124585902924,1.8438829223095115,4.034637834696973,0.0
1663843124590643533,1.835046076993863,4.040050939197875,0.0
1663843124611367147,1.8261859314362705,4.045343130984212,0.0
1663843124657489289,1.817447061582272,4.050421110514105,0.0
1663843124657504816,1.8090585681786076,4.055167091731906,0.0
1663843124701595068,1.8005802365961379,4.059839662461533,0.0
1663843124701824715,1.791901350285284,4.064409714244373,0.0
1663843124745715756,1.7829710489873263,4.068957966924295,0.0
