%time,field.linear.x,field.linear.y,field.linear.z,field.angular.x,field.angular.y,field.angular.z
1663843101041468074,0.0,0.0,0.0,0.0,0.0,0.0
1663843101061557348,0.0,0.0,0.0,0.0,0.0,0.0
1663843101081463364,0.0,0.0,0.0,0.0,0.0,0.0
1663843101101591372,0.0,0.0,0.0,0.0,0.0,0.0
1663843101121635914,0.0,0.0,0.0,0.0,0.0,0.0
1663843101141440906,0.0,0.0,0.0,0.0,0.0,0.0
1663843101162569707,0.0,0.0,0.0,0.0,0.0,0.0
1663843101181556667,0.0,0.0,0.0,0.0,0.0,0.0
1663843101201451953,0.0,0.0,0.0,0.0,0.0,0.0
1663843101245658677,0.0,0.0,0.0,0.0,0.0,0.0
1663843101245701639,0.0,0.0,0.0,0.0,0.0,0.0
1663843101289609564,0.0,0.0,0.0,0.0,0.0,0.0
1663843101289672639,0.0,0.0,0.0,0.0,0.0,0.0
1663843101333593844,0.0,0.0,0.0,0.0,0.0,0.0
1663843101333608761,0.0,0.0,0.0,0.0,0.0,0.0
1663843101377562572,0.0,0.0,0.0,0.0,0.0,0.0
1663843101377588520,0.0,0.0,0.0,0.0,0.0,0.0
1663843101421660700,0.0,0.0,0.0,0.0,0.0,0.0
1663843101421712565,0.0,0.0,0.0,0.0,0.0,0.0
1663843101421725733,0.0,0.0,0.0,0.0,0.0,0.0
1663843101465531246,0.0,0.0,0.0,0.0,0.0,0.0
1663843101465545666,0.0,0.0,0.0,0.0,0.0,0.0
1663843101482265349,0.0,0.0,0.0,0.0,0.0,0.0
1663843101501361148,0.0,0.0,0.0,0.0,0.0,0.0
1663843101541526924,0.0,0.0,0.0,0.0,0.0,0.0
1663843101541538151,0.0,0.0,0.0,0.0,0.0,0.0
1663843101585715752,0.0,0.0,0.0,0.0,0.0,0.0
1663843101585835713,0.0,0.0,0.0,0.0,0.0,0.0
1663843101629569850,0.0,0.0,0.0,0.0,0.0,0.0
1663843101629598519,0.0,0.0,0.0,0.0,0.0,0.0
1663843101673718231,0.0,0.0,0.0,0.0,0.0,0.0
1663843101673731290,0.0,0.0,0.0,0.0,0.0,0.0
1663843101717747364,0.0,0.0,0.0,0.0,0.0,0.0
1663843101717778899,0.0,0.0,0.0,0.0,0.0,0.0
1663843101765531888,0.0,0.0,0.0,0.0,0.0,0.0
1663843101765553087,0.0,0.0,0.0,0.0,0.0,0.0
1663843101765561746,0.0,0.0,0.0,0.0,0.0,0.0
1663843101809514780,0.0,0.0,0.0,0.0,0.0,0.0
1663843101809544145,0.0,0.0,0.0,0.0,0.0,0.0
1663843101821363932,0.0,0.0,0.0,0.0,0.0,0.0
1663843101841185499,0.0,0.0,0.0,0.0,0.0,0.0
1663843101881592192,0.0,0.0,0.0,0.0,0.0,0.0
1663843101881606455,0.0,0.0,0.0,0.0,0.0,0.0
1663843101925561520,0.0,0.0,0.0,0.0,0.0,0.0
1663843101925574847,0.0,0.0,0.0,0.0,0.0,0.0
1663843101969685405,0.0,0.0,0.0,0.0,0.0,0.0
1663843101969745707,0.0,0.0,0.0,0.0,0.0,0.0
1663843102013642595,0.0,0.0,0.0,0.0,0.0,0.0
1663843102013676480,0.0,0.0,0.0,0.0,0.0,0.0
1663843102057562469,0.0,0.0,0.0,0.0,0.0,0.0
1663843102057575747,0.0,0.0,0.0,0.0,0.0,0.0
1663843102101611068,0.0,0.0,0.0,0.0,0.0,0.0
1663843102101621949,0.0,0.0,0.0,0.0,0.0,0.0
1663843102145534872,0.0,0.0,0.0,0.0,0.0,0.0
1663843102145564055,0.0,0.0,0.0,0.0,0.0,0.0
1663843102145571297,0.0,0.0,0.0,0.0,0.0,0.0
1663843102189603618,0.0,0.0,0.0,0.0,0.0,0.0
1663843102189638049,0.0,0.0,0.0,0.0,0.0,0.0
1663843102201182761,0.0,0.0,0.0,0.0,0.0,0.0
1663843102221360844,0.0,0.0,0.0,0.0,0.0,0.0
1663843102261581277,0.0,0.0,0.0,0.0,0.0,0.0
1663843102309637193,0.0,0.0,0.0,0.0,0.0,0.0
1663843102309666843,0.0,0.0,0.0,0.0,0.0,0.0
1663843102309695549,0.0,0.0,0.0,0.0,0.0,0.0
1663843102353539788,0.0,0.0,0.0,0.0,0.0,0.0
1663843102353561231,0.0,0.0,0.0,0.0,0.0,0.0
1663843102361951189,0.0,0.0,0.0,0.0,0.0,0.0
1663843102381842340,0.0,0.0,0.0,0.0,0.0,0.0
1663843102425566957,0.0,0.0,0.0,0.0,0.0,0.0
1663843102425587608,0.0,0.0,0.0,0.0,0.0,0.0
1663843102469578340,0.0,0.0,0.0,0.0,0.0,0.0
1663843102469591336,0.0,0.0,0.0,0.0,0.0,0.0
1663843102513544354,0.0,0.0,0.0,0.0,0.0,0.0
1663843102513576722,0.0,0.0,0.0,0.0,0.0,0.0
1663843102614797366,0.0,0.0,0.0,0.0,0.0,0.0
1663843102614854501,0.0,0.0,0.0,0.0,0.0,0.0
1663843102614867469,0.0,0.0,0.0,0.0,0.0,0.0
1663843102614880094,0.0,0.0,0.0,0.0,0.0,0.0
1663843102614896943,0.0,0.0,0.0,0.0,0.0,0.0
1663843102657510655,0.0,0.0,0.0,0.0,0.0,0.0
1663843102657529123,0.0,0.0,0.0,0.0,0.0,0.0
1663843102661827250,0.0,0.0,0.0,0.0,0.0,0.0
1663843102682210247,0.0,0.0,0.0,0.0,0.0,0.0
1663843102725571508,0.0,0.0,0.0,0.0,0.0,0.0
1663843102725587689,0.0,0.0,0.0,0.0,0.0,0.0
1663843102769544908,0.0,0.0,0.0,0.0,0.0,0.0
1663843102769559326,0.0,0.0,0.0,0.0,0.0,0.0
1663843102813482501,0.0,0.0,0.0,0.0,0.0,0.0
1663843102813496846,0.0,0.0,0.0,0.0,0.0,0.0
1663843102857555847,0.0,0.0,0.0,0.0,0.0,0.0
1663843102857600576,0.0,0.0,0.0,0.0,0.0,0.0
1663843102901516085,0.0,0.0,0.0,0.0,0.0,0.0
1663843102901531612,0.0,0.0,0.0,0.0,0.0,0.0
1663843102945544581,0.0,0.0,0.0,0.0,0.0,0.0
1663843102945558726,0.0,0.0,0.0,0.0,0.0,0.0
1663843102945583627,0.0,0.0,0.0,0.0,0.0,0.0
1663843102989708811,0.0,0.0,0.0,0.0,0.0,0.0
1663843102989748301,0.0,0.0,0.0,0.0,0.0,0.0
1663843103001992618,0.0,0.0,0.0,0.0,0.0,0.0
1663843103023057778,0.0,0.0,0.0,0.0,0.0,0.0
1663843103065520893,0.0,0.0,0.0,0.0,0.0,0.0
1663843103065537799,0.0,0.0,0.0,0.0,0.0,0.0
1663843103109741452,0.0,0.0,0.0,0.0,0.0,0.0
1663843103109762996,0.0,0.0,0.0,0.0,0.0,0.0
1663843103153511477,0.0,0.0,0.0,0.0,0.0,0.0
1663843103153528041,0.0,0.0,0.0,0.0,0.0,0.0
1663843103197526228,0.0,0.0,0.0,0.0,0.0,0.0
1663843103197560601,0.0,0.0,0.0,0.0,0.0,0.0
1663843103245574624,0.0,0.0,0.0,0.0,0.0,0.0
1663843103245590009,0.0,0.0,0.0,0.0,0.0,0.0
1663843103245596057,0.0,0.0,0.0,0.0,0.0,0.0
1663843103289601873,0.0,0.0,0.0,0.0,0.0,0.0
1663843103289660508,0.0,0.0,0.0,0.0,0.0,0.0
1663843103301775791,0.0,0.0,0.0,0.0,0.0,0.0
1663843103323359007,0.0,0.0,0.0,0.0,0.0,0.0
1663843103365558478,0.0,0.0,0.0,0.0,0.0,0.0
1663843103365578536,0.0,0.0,0.0,0.0,0.0,0.0
1663843103409576191,0.0,0.0,0.0,0.0,0.0,0.0
1663843103409619083,0.0,0.0,0.0,0.0,0.0,0.0
1663843103456368390,0.0,0.0,0.0,0.0,0.0,0.0
1663843103456388058,0.0,0.0,0.0,0.0,0.0,0.0
1663843103497550656,0.0,0.0,0.0,0.0,0.0,0.0
1663843103497565379,0.0,0.0,0.0,0.0,0.0,0.0
1663843103541539187,0.0,0.0,0.0,0.0,0.0,0.0
1663843103541561376,0.0,0.0,0.0,0.0,0.0,0.0
1663843103585583277,0.0,0.0,0.0,0.0,0.0,0.0
1663843103585632945,0.0,0.0,0.0,0.0,0.0,0.0
1663843103585657457,0.0,0.0,0.0,0.0,0.0,0.0
1663843103633532207,0.0,0.0,0.0,0.0,0.0,0.0
1663843103633555327,0.0,0.0,0.0,0.0,0.0,0.0
1663843103643321831,0.0,0.0,0.0,0.0,0.0,0.0
1663843103662637793,0.0,0.0,0.0,0.0,0.0,0.0
1663843103709670931,0.0,0.0,0.0,0.0,0.0,0.0
1663843103709699291,0.0,0.0,0.0,0.0,0.0,0.0
1663843103753653465,0.0,0.0,0.0,0.0,0.0,0.0
1663843103753681028,0.0,0.0,0.0,0.0,0.0,0.0
1663843103797689476,0.0,0.0,0.0,0.0,0.0,0.0
1663843103797703037,0.0,0.0,0.0,0.0,0.0,0.0
1663843103841638750,0.0,0.0,0.0,0.0,0.0,-0.015533430342749534
1663843103841673456,0.0,0.0,0.0,0.0,0.0,-0.012217304763960306
1663843103885499974,0.0,0.0,0.0,0.0,0.0,0.0
1663843103885514263,0.0,0.0,0.0,0.0,0.0,0.0
1663843103885525713,0.0,0.0,0.0,0.0,0.0,0.0
1663843103929571455,0.0,0.0,0.0,0.0,0.0,0.0
1663843103929586083,0.0,0.0,0.0,0.0,0.0,0.008552113334772213
1663843103943306330,0.0,0.0,0.0,0.0,0.0,0.0
1663843103962546764,0.0,0.0,0.0,0.0,0.0,0.0
1663843104005583018,0.0,0.0,0.0,0.0,0.0,0.0
1663843104005606301,0.0,0.0,0.0,0.0,0.0,0.0
1663843104049543696,0.0,0.0,0.0,0.0,0.0,0.0
1663843104049595670,0.0,0.0,0.0,0.0,0.0,0.0
1663843104093592924,0.0,0.0,0.0,0.0,0.0,0.006981317007977318
1663843104093631985,0.0,0.0,0.0,0.0,0.0,0.0
1663843104137533530,0.0,0.0,0.0,0.0,0.0,0.0
1663843104137547191,0.0,0.0,0.0,0.0,0.0,0.0
1663843104181580232,0.0,0.0,0.0,0.0,0.0,0.0
1663843104181597032,0.0,0.0,0.0,0.0,0.0,0.0
1663843104225538310,0.0,0.0,0.0,0.0,0.0,0.0
1663843104225555766,0.0,0.0,0.0,0.0,0.0,0.0
1663843104225573971,0.0,0.0,0.0,0.0,0.0,0.0
1663843104269632708,0.0,0.0,0.0,0.0,0.0,0.0
1663843104269660028,0.0,0.0,0.0,0.0,0.0,0.0
1663843104282215237,0.0,0.0,0.0,0.0,0.0,0.0
1663843104302607968,0.0,0.0,0.0,0.0,0.0,0.0
1663843104349513393,0.0,0.0,0.0,0.0,0.0,0.0
1663843104349526514,0.0,0.0,0.0,0.0,0.0,0.0
1663843104393596018,0.0,0.0,0.0,0.0,0.0,0.0
1663843104393620579,0.0,0.0,0.0,0.0,0.0,0.0
1663843104437749601,0.0,0.0,0.0,0.0,0.0,0.0
1663843104437801158,0.0,0.0,0.0,0.0,0.0,0.0
1663843104481587543,0.0,0.0,0.0,0.0,0.0,0.0
1663843104481608557,0.0,0.0,0.0,0.0,0.0,0.0
1663843104529523170,0.0,0.0,0.0,0.0,0.0,0.0
1663843104529537546,0.0,0.0,0.0,0.0,0.0,0.0
1663843104529546045,0.0,0.0,0.0,0.0,0.0,0.0
1663843104573596681,0.0,0.0,0.0,0.0,0.0,0.0
1663843104573621980,0.0,0.0,0.0,0.0,0.0,0.0
1663843104582290041,0.0,0.0,0.0,0.0,0.0,0.0
1663843104603430119,0.0,0.0,0.0,0.0,0.0,0.0
1663843104649512936,0.0,0.0,0.0,0.0,0.0,0.0
1663843104649533302,0.0,0.0,0.0,0.0,0.0,0.0
1663843104693536967,0.0,0.0,0.0,0.0,0.0,0.0
1663843104693560148,0.0,0.0,0.0,0.0,0.0,0.0
1663843104737619501,0.0,0.0,0.0,0.0,0.0,0.0
1663843104737672417,0.0,0.0,0.0,0.0,0.0,0.0
1663843104781555832,0.0,0.0,0.0,0.0,0.0,0.0
1663843104781577136,0.0,0.0,0.0,0.0,0.0,0.0
1663843104825607284,0.0,0.0,0.0,0.0,0.0,0.0
1663843104825634695,0.0,0.0,0.0,0.0,0.0,0.0
1663843104825651505,0.0,0.0,0.0,0.0,0.0,0.0
1663843104869556182,0.0,0.0,0.0,0.0,0.0,0.0
1663843104869588532,0.0,0.0,0.0,0.0,0.0,0.0
1663843104883206631,0.0,0.0,0.0,0.0,0.0,0.0
1663843104903565228,0.0,0.0,0.0,0.0,0.0,0.0
1663843104945549630,0.0,0.0,0.0,0.0,0.0,0.0
1663843104945570064,0.0,0.0,0.0,0.0,0.0,0.0
1663843104993581816,0.0,0.0,0.0,0.0,0.0,0.0
1663843104993604577,0.0,0.0,0.0,0.0,0.0,0.0
1663843105037612578,0.0,0.0,0.0,0.0,0.0,0.0
1663843105037648141,0.0,0.0,0.0,0.0,0.0,0.0
1663843105081539681,0.0,0.0,0.0,0.0,0.0,0.0
1663843105081556781,0.0,0.0,0.0,0.0,0.0,0.0
1663843105125589274,0.0,0.0,0.0,0.0,0.0,0.0
1663843105125624143,0.0,0.0,0.0,0.0,0.0,0.0
1663843105125654981,0.0,0.0,0.0,0.0,0.0,0.0
1663843105169529890,0.0,0.0,0.0,0.0,0.0,0.0
1663843105169543714,0.0,0.0,0.0,0.0,0.0,0.0
1663843105182953918,0.0,0.0,0.0,0.0,0.0,0.0
1663843105203125029,0.0,0.0,0.0,0.0,0.0,0.0
1663843105245530195,0.0,0.0,0.0,0.0,0.0,0.0
1663843105245556374,0.0,0.0,0.0,0.0,0.0,0.0
1663843105289619488,0.0,0.0,0.0,0.0,0.0,0.0
1663843105289638630,0.0,0.0,0.0,0.0,0.0,0.0
1663843105333565405,0.0,0.0,0.0,0.0,0.0,0.0
1663843105333582920,0.0,0.0,0.0,0.0,0.0,0.0
1663843105377573139,0.0,0.0,0.0,0.0,0.0,0.0
1663843105377609268,0.0,0.0,0.0,0.0,0.0,0.0
1663843105421634849,0.0,0.0,0.0,0.0,0.0,0.0
1663843105421657442,0.0,0.0,0.0,0.0,0.0,0.0
1663843105465588434,0.0,0.0,0.0,0.0,0.0,0.0
1663843105465603220,0.0,0.0,0.0,0.0,0.0,0.0
1663843105469453904,0.0,0.0,0.0,0.0,0.0,0.0
1663843105509642985,0.0,0.0,0.0,0.0,0.0,0.0
1663843105509670573,0.0,0.0,0.0,0.0,0.0,0.0
1663843105522909608,0.0,0.0,0.0,0.0,0.0,0.0
1663843105542919865,0.0,0.0,0.0,0.0,0.0,0.0
1663843105589715976,0.0,0.0,0.0,0.0,0.0,0.0
1663843105589755090,0.0,0.0,0.0,0.0,0.0,0.0
1663843105633526484,0.0,0.0,0.0,0.0,0.0,0.0
1663843105633548538,0.0,0.0,0.0,0.0,0.0,0.0
1663843105677548525,0.0,0.0,0.0,0.0,0.0,0.0
1663843105677563619,0.0,0.0,0.0,0.0,0.0,0.0
1663843105721995258,0.0,0.0,0.0,0.0,0.0,0.0
1663843105722056136,0.0,0.0,0.0,0.0,0.0,0.0
1663843105765564586,0.0,0.0,0.0,0.0,0.0,0.0
1663843105765577249,0.0,0.0,0.0,0.0,0.0,0.0
1663843105765623983,0.0,0.0,0.0,0.0,0.0,0.0
1663843105809559682,0.0,0.0,0.0,0.0,0.0,0.0
1663843105809609041,0.0,0.0,0.0,0.0,0.0,0.0
1663843105823586984,0.0,0.0,0.0,0.0,0.0,0.0
1663843105843653506,0.0,0.0,0.0,0.0,0.0,0.0
1663843105885567446,0.0,0.0,0.0,0.0,0.0,0.0
1663843105885583907,0.0,0.0,0.0,0.0,0.0,0.0
1663843105929618228,0.0,0.0,0.0,0.0,0.0,0.0
1663843105929678626,0.0,0.0,0.0,0.0,0.0,0.0
1663843105973541177,0.0,0.0,0.0,0.0,0.0,0.0
1663843105973561207,0.0,0.0,0.0,0.0,0.0,0.0
1663843106021659283,0.0,0.0,0.0,0.0,0.0,0.0
1663843106021687748,0.0,0.0,0.0,0.0,0.0,0.0
1663843106065562232,0.0,0.0,0.0,0.0,0.0,0.0
1663843106065575503,0.0,0.0,0.0,0.0,0.0,0.0
1663843106065606963,0.0,0.0,0.0,0.0,0.0,0.0
1663843106109643489,0.0,0.0,0.0,0.0,0.0,0.0
1663843106109662620,0.0,0.0,0.0,0.0,0.0,0.0
1663843106124207876,0.0,0.0,0.0,0.0,0.0,0.0
1663843106143440864,0.0,0.0,0.0,0.0,0.0,0.0
1663843106189878378,0.0,0.0,0.0,0.0,0.0,0.0
1663843106189924944,0.0,0.0,0.0,0.0,0.0,0.0
1663843106233524840,0.0,0.0,0.0,0.0,0.0,0.0
1663843106233541984,0.0,0.0,0.0,0.0,0.0,0.0
1663843106282005503,0.0,0.0,0.0,0.0,0.0,0.0
1663843106282022211,0.0,0.0,0.0,0.0,0.0,0.0
1663843106325552364,0.0,0.0,0.0,0.0,0.0,0.0
1663843106325572224,0.0,0.0,0.0,0.0,0.0,0.0
1663843106325579664,0.0,0.0,0.0,0.0,0.0,0.0
1663843106369635215,0.0,0.0,0.0,0.0,0.0,0.0
1663843106369659446,0.0,0.0,0.0,0.0,0.0,0.0
1663843106383558475,0.0,0.0,0.0,0.0,0.0,0.0
1663843106404427687,0.0,0.0,0.0,0.0,0.0,0.0
1663843106445519927,0.0,0.0,0.0,0.0,0.0,0.0
1663843106445537705,0.0,0.0,0.0,0.0,0.0,0.0
1663843106489632256,0.0,0.0,0.0,0.0,0.0,0.0
1663843106489663496,0.0,0.0,0.0,0.0,0.0,0.0
1663843106533534501,0.0,0.0,0.0,0.0,0.0,0.0
1663843106533550035,0.0,0.0,0.0,0.0,0.0,0.0
1663843106577658625,0.0,0.0,0.0,0.0,0.0,0.0
1663843106577671343,0.0,0.0,0.0,0.0,0.0,0.0
1663843106621566998,0.0,0.0,0.0,0.0,0.0,0.0
1663843106621600538,0.0,0.0,0.0,0.0,0.0,0.0
1663843106665522157,0.0,0.0,0.0,0.0,0.0,0.0
1663843106665542078,0.0,0.0,0.0,0.0,0.0,0.0
1663843106665547292,0.0,0.0,0.0,0.0,0.0,0.0
1663843106709567652,0.0,0.0,0.0,0.0,0.0,0.0
1663843106709585874,0.0,0.0,0.0,0.0,0.0,0.0
1663843106725489583,0.0,0.0,0.0,0.0,0.0,0.0
1663843106743225934,0.0,0.0,0.0,0.0,0.0,0.0
1663843106785562741,0.0,0.0,0.0,0.0,0.0,0.0
1663843106785583572,0.0,0.0,0.0,0.0,0.0,0.0
1663843106829834724,0.0,0.0,0.0,0.0,0.0,0.0
1663843106829903782,0.0,0.0,0.0,0.0,0.0,0.0
1663843106873544297,0.0,0.0,0.0,0.0,0.0,0.0
1663843106873577299,0.0,0.0,0.0,0.0,0.0,0.0
1663843106917634763,0.0,0.0,0.0,0.0,0.0,0.0
1663843106917651709,0.0,0.0,0.0,0.0,0.0,0.0
1663843106961627065,0.0,0.0,0.0,0.0,0.0,0.0
1663843106961642997,0.0,0.0,0.0,0.0,0.0,0.0
1663843107005611137,0.0,0.0,0.0,0.0,0.0,0.0
1663843107005631781,0.0,0.0,0.0,0.0,0.0,0.0
1663843107005661839,0.0,0.0,0.0,0.0,0.0,0.0
1663843107054082850,0.0,0.0,0.0,0.0,0.0,0.0
1663843107054117550,0.0,0.0,0.0,0.0,0.0,0.0
1663843107063536287,0.0,0.0,0.0,0.0,0.0,0.0
1663843107083094630,0.0,0.0,0.0,0.0,0.0,0.0
1663843107125667190,0.0,0.0,0.0,0.0,0.0,0.0
1663843107125690077,0.0,0.0,0.0,0.0,0.0,0.0
1663843107169576018,0.0,0.0,0.0,0.0,0.0,0.0
1663843107169596403,0.0,0.0,0.0,0.0,0.0,0.0
1663843107213520664,0.0,0.0,0.0,0.0,0.0,0.0
1663843107213535053,0.0,0.0,0.0,0.0,0.0,0.0
1663843107257573147,0.0,0.0,0.0,0.0,0.0,0.0
1663843107257591366,0.0,0.0,0.0,0.0,0.0,0.0
1663843107301579228,0.0,0.0,0.0,0.0,0.0,0.0
1663843107301599008,0.0,0.0,0.0,0.0,0.0,0.0
1663843107349511199,0.0,0.0,0.0,0.0,0.0,0.0
1663843107349528285,0.0,0.0,0.0,0.0,0.0,0.0
1663843107349534950,0.0,0.0,0.0,0.0,0.0,0.0
1663843107397070348,0.0,0.0,0.0,0.0,0.0,0.0
1663843107397090861,0.0,0.0,0.0,0.0,0.0,0.0
1663843107403118481,0.0,0.0,0.0,0.0,0.0,0.0
1663843107423181583,0.0,0.0,0.0,0.0,0.0,0.0
1663843107465599310,0.0,0.0,0.0,0.0,0.0,0.0
1663843107465623985,0.0,0.0,0.0,0.0,0.0,0.0
1663843107513604404,0.0,0.0,0.0,0.0,0.0,0.0
1663843107513658355,0.0,0.0,0.0,0.0,0.0,0.0
1663843107557699437,0.0,0.0,0.0,0.0,0.0,0.0
1663843107557730238,0.0,0.0,0.0,0.0,0.0,0.0
1663843107605631372,0.0,0.0,0.0,0.0,0.0,0.0
1663843107605668253,0.0,0.0,0.0,0.0,0.0,0.0
1663843107605707946,0.0,0.0,0.0,0.0,0.0,0.0
1663843107653661984,0.0,0.0,0.0,0.0,0.0,0.0
1663843107653695921,0.0,0.0,0.0,0.0,0.0,0.0
1663843107664650968,0.0,0.0,0.0,0.0,0.0,0.0
1663843107684155626,0.0,0.0,0.0,0.0,0.0,0.0
1663843107726010867,0.0,0.0,0.0,0.0,0.0,0.0
1663843107726042083,0.0,0.0,0.0,0.0,0.0,0.0
1663843107769681164,0.0,0.0,0.0,0.0,0.0,0.0
1663843107769730439,0.0,0.0,0.0,0.0,0.0,0.0
1663843107817720696,0.0,0.0,0.0,0.0,0.0,0.0
1663843107817758113,0.0,0.0,0.0,0.0,0.0,0.0
1663843107861720950,0.0,0.0,0.0,0.0,0.0,0.0
1663843107861760029,0.0,0.0,0.0,0.0,0.0,0.0
1663843107909568030,0.0,0.0,0.0,0.0,0.0,0.0
1663843107909597878,0.0,0.0,0.0,0.0,0.0,0.0
1663843107909610405,0.0,0.0,0.0,0.0,0.0,0.0
1663843107957877888,0.0,0.0,0.0,0.0,0.0,0.0
1663843107957906702,0.0,0.0,0.0,0.0,0.0,0.0
1663843107964266607,0.0,0.0,0.0,0.0,0.0,0.0
1663843107984915734,0.0,0.0,0.0,0.0,0.0,0.0
1663843108029636372,0.0,0.0,0.0,0.0,0.0,0.0
1663843108029683393,0.0,0.0,0.0,0.0,0.0,0.0
1663843108069590468,0.0,0.0,0.0,0.0,0.0,0.0
1663843108069607872,0.0,0.0,0.0,0.0,0.0,0.0
1663843108113730529,0.0,0.0,0.0,0.0,0.0,0.0
1663843108113753813,0.0,0.0,0.0,0.0,0.0,0.0
1663843108162032273,0.0,0.0,0.0,0.0,0.0,0.0
1663843108162080557,0.0,0.0,0.0,0.0,0.0,0.0
1663843108205687529,0.0,0.0,0.0,0.0,0.0,0.0
1663843108205736080,0.0,0.0,0.0,0.0,0.0,0.0
1663843108205772412,0.0,0.0,0.0,0.0,0.0,0.0
1663843108249559416,0.0,0.0,0.0,0.0,0.0,0.0
1663843108249573381,0.0,0.0,0.0,0.0,0.0,0.0
1663843108264988105,0.0,0.0,0.0,0.0,0.0,0.0
1663843108283970572,0.0,0.0,0.0,0.0,0.0,0.0
1663843108325699344,0.0,0.0,0.0,0.0,0.0,0.0
1663843108325725913,0.0,0.0,0.0,0.0,0.0,0.0
1663843108373555220,0.0,0.0,0.0,0.0,0.0,0.0
1663843108373572858,0.0,0.0,0.0,0.0,0.0,0.0
1663843108417724224,0.0,0.0,0.0,0.0,0.0,0.0
1663843108417774712,0.0,0.0,0.0,0.0,0.0,0.0
1663843108461621986,0.0,0.0,0.0,0.0,0.0,0.0
1663843108461650370,0.0,0.0,0.0,0.0,0.0,0.0
1663843108505550860,0.0,0.0,0.0,0.0,0.0,0.0
1663843108505571119,0.0,0.0,0.0,0.0,0.0,0.0
1663843108505578144,0.0,0.0,0.0,0.0,0.0,0.0
1663843108549627246,0.0,0.0,0.0,0.0,0.0,0.0
1663843108549675659,0.0,0.0,0.0,0.0,0.0,0.0
1663843108565718058,0.0,0.0,0.0,0.0,0.0,0.0
1663843108585006203,0.0,0.0,0.0,0.0,0.0,0.0
1663843108629855763,0.0,0.0,0.0,0.0,0.0,0.0
1663843108629907241,0.0,0.0,0.0,0.0,0.0,0.0
1663843108673725200,0.0,0.0,0.0,0.0,0.0,0.0
1663843108673778544,0.0,0.0,0.0,0.0,0.0,0.0
1663843108717801202,0.0,0.0,0.0,0.0,0.0,0.0
1663843108717833173,0.0,0.0,0.0,0.0,0.0,0.0
1663843108763470477,0.0,0.0,0.0,0.0,0.0,0.0
1663843108763528951,0.0,0.0,0.0,0.0,0.0,-0.005934119456780722
1663843108805559689,0.0,0.0,0.0,0.0,0.0,0.0013962634015954637
1663843108805600972,0.0,0.0,0.0,0.0,0.0,0.0041887902047863905
1663843108805622517,0.0,0.0,0.0,0.0,0.0,0.0012217304763960308
1663843108849926930,0.0,0.0,0.0,0.0,0.0,-0.00017453292519943296
1663843108849960802,0.0,0.0,0.0,0.0,0.0,0.00017453292519943296
1663843108866092860,0.0,0.0,0.0,0.0,0.0,0.0027925268031909274
1663843108884392688,0.0,0.0,0.0,0.0,0.0,0.00017453292519943296
1663843108925695867,0.0,0.0,0.0,0.0,0.0,-0.002617993877991494
1663843108925767939,0.0,0.0,0.0,0.0,0.0,-0.006806784082777885
1663843108969560620,0.0,0.0,0.0,0.0,0.0,-0.0015707963267948967
1663843108969586868,0.0,0.0,0.0,0.0,0.0,0.002967059728390361
1663843109013504461,0.0,0.0,0.0,0.0,0.0,0.004014257279586958
1663843109013513118,0.0,0.0,0.0,0.0,0.0,0.0027925268031909274
1663843109057597375,0.0,0.0,0.0,0.0,0.0,0.004014257279586958
1663843109057628952,0.0,0.0,0.0,0.0,0.0,0.0
1663843109101656253,0.0,0.0,0.0,0.0,0.0,0.0022689280275926286
1663843109101705026,0.0,0.0,0.0,0.0,0.0,-0.0027925268031909274
1663843109145505808,0.0,0.0,0.0,0.0,0.0,-0.005759586531581288
1663843109145525826,0.0,0.0,0.0,0.0,0.0,-0.004886921905584123
1663843109145534375,0.0,0.0,0.0,0.0,0.0,-0.004014257279586958
1663843109189832977,0.0,0.0,0.0,0.0,0.0,-0.00017453292519943296
1663843109189888593,0.0,0.0,0.0,0.0,0.0,0.0
1663843109204758062,0.0,0.0,0.0,0.0,0.0,0.0005235987755982988
1663843109224557846,0.0,0.0,0.0,0.0,0.0,0.0015707963267948967
1663843109269663641,0.0,0.0,0.0,0.0,0.0,-0.0008726646259971648
1663843109269693107,0.0,0.0,0.0,0.0,0.0,-0.0015707963267948967
1663843109313648901,0.0,0.0,0.0,0.0,0.0,0.0
1663843109313702159,0.0,0.0,0.0,0.0,0.0,0.0015707963267948967
1663843109361875596,0.0,0.0,0.0,0.0,0.0,-0.0012217304763960308
1663843109361910982,0.0,0.0,0.0,0.0,0.0,-0.0013962634015954637
1663843109405773142,0.0,0.0,0.0,0.0,0.0,-0.0013962634015954637
1663843109405813294,0.0,0.0,0.0,0.0,0.0,-0.0012217304763960308
1663843109405848109,0.0,0.0,0.0,0.0,0.0,-0.0008726646259971648
1663843109449848461,0.0,0.0,0.0,0.0,0.0,0.0013962634015954637
1663843109449950266,0.0,0.0,0.0,0.0,0.0,-0.0008726646259971648
1663843109466310665,0.0,0.0,0.0,0.0,0.0,0.0022689280275926286
1663843109484470445,0.0,0.0,0.0,0.0,0.0,0.0019198621771937623
1663843109529622605,0.0,0.0,0.0,0.0,0.0,0.00017453292519943296
1663843109529665029,0.0,0.0,0.0,0.0,0.0,-0.004363323129985824
1663843109578014184,0.0,0.0,0.0,0.0,0.0,-0.003316125578789226
1663843109578049262,0.0,0.0,0.0,0.0,0.0,-0.00017453292519943296
1663843109621671830,0.0,0.0,0.0,0.0,0.0,0.0006981317007977319
1663843109621714810,0.0,0.0,0.0,0.0,0.0,0.0017453292519943296
1663843109665604557,0.0,0.0,0.0,0.0,0.0,0.00017453292519943296
1663843109665652379,0.0,0.0,0.0,0.0,0.0,0.0010471975511965976
1663843109665682516,0.0,0.0,0.0,0.0,0.0,0.0031415926535897933
1663843109709671721,0.0,0.0,0.0,0.0,0.0,0.0041887902047863905
1663843109709699276,0.0,0.0,0.0,0.0,0.0,0.0024434609527920616
1663843109724461202,0.0,0.0,0.0,0.0,0.0,0.0008726646259971648
1663843109744229200,0.0,0.0,0.0,0.0,0.0,0.0010471975511965976
1663843109785580632,0.0,0.0,0.0,0.0,0.0,-0.0013962634015954637
1663843109785606931,0.0,0.0,0.0,0.0,0.0,-0.0013962634015954637
1663843109829871676,0.0,0.0,0.0,0.0,0.0,-0.0012217304763960308
1663843109829923058,0.0,0.0,0.0,0.0,0.0,-0.0008726646259971648
1663843109873578121,0.0,0.0,0.0,0.0,0.0,-0.00017453292519943296
1663843109873595573,0.0,0.0,0.0,0.0,0.0,0.0024434609527920616
1663843109922031970,0.0,0.0,0.0,0.0,0.0,0.002617993877991494
1663843109922097394,0.0,0.0,0.0,0.0,0.0,-0.002617993877991494
1663843109965793833,0.0,0.0,0.0,0.0,0.0,-0.0008726646259971648
1663843109965831907,0.0,0.0,0.0,0.0,0.0,0.0031415926535897933
1663843110009515604,0.0,0.0,0.0,0.0,0.0,0.0022689280275926286
1663843110009568832,0.0,0.0,0.0,0.0,0.0,0.0013962634015954637
1663843110009578623,0.0,0.0,0.0,0.0,0.0,-0.0010471975511965976
1663843110053576895,0.0,0.0,0.0,0.0,0.0,0.0013962634015954637
1663843110053601515,0.0,0.0,0.0,0.0,0.0,0.0005235987755982988
1663843110064697957,0.0,0.0,0.0,0.0,0.0,-0.002967059728390361
1663843110085004603,0.0,0.0,0.0,0.0,0.0,-0.0012217304763960308
1663843110125559687,0.0,0.0,0.0,0.0,0.0,-0.0005235987755982988
1663843110125575659,0.0,0.0,0.0,0.0,0.0,0.0012217304763960308
1663843110169696040,0.0,0.0,0.0,0.0,0.0,0.0038397243543875246
1663843110169754049,0.0,0.0,0.0,0.0,0.0,-0.0008726646259971648
1663843110217659698,0.0,0.0,0.0,0.0,0.0,-0.0010471975511965976
1663843110217702285,0.002132302208337933,0.0,0.0,0.0,0.0,0.0
1663843110261873037,0.004264604416675866,0.0,0.0,0.0,0.0,-0.0017453292519943296
1663843110261911530,0.002132302208337933,0.0,0.0,0.0,0.0,0.002967059728390361
1663843110309687481,0.0,0.0,0.0,0.0,0.0,0.0008726646259971648
1663843110309734014,0.002132302208337933,0.0,0.0,0.0,0.0,-0.0027925268031909274
1663843110309752580,0.017058417666703463,0.0,0.0,0.0,0.0,0.0013962634015954637
1663843110353538345,0.008529208833351731,0.0,0.0,0.0,0.0,0.0038397243543875246
1663843110353570018,0.002132302208337933,0.0,0.0,0.0,0.0,-0.0010471975511965976
1663843110364907269,0.006396906625013799,0.0,0.0,0.0,0.0,-0.006283185307179587
1663843110385160490,0.008529208833351731,0.0,0.0,0.0,0.0,-0.0010471975511965976
1663843110425554360,0.004264604416675866,0.0,0.0,0.0,0.0,-0.0013962634015954637
1663843110425570357,0.002132302208337933,0.0,0.0,0.0,0.0,-0.002967059728390361
1663843110469628196,0.0,0.0,0.0,0.0,0.0,-0.003316125578789226
1663843110469655063,0.002132302208337933,0.0,0.0,0.0,0.0,-0.0019198621771937623
1663843110514271282,0.004264604416675866,0.0,0.0,0.0,0.0,-0.0013962634015954637
1663843110514312611,0.0,0.0,0.0,0.0,0.0,-0.0010471975511965976
1663843110557542554,0.002132302208337933,0.0,0.0,0.0,0.0,-0.0005235987755982988
1663843110557573683,0.002132302208337933,0.0,0.0,0.0,0.0,-0.004014257279586958
1663843110601652047,0.019190719875041395,0.0,0.0,0.0,0.0,0.00034906585039886593
1663843110601694453,0.025587626500055197,0.0,0.0,0.0,0.0,0.0031415926535897933
1663843110649893042,0.027719928708393127,0.0,0.0,0.0,0.0,0.00034906585039886593
1663843110649958560,0.010661511041689664,0.0,0.0,0.0,0.0,-0.0041887902047863905
1663843110650111625,0.010661511041689664,0.0,0.0,0.0,0.0,-0.0054105206811824215
1663843110693728272,0.027719928708393127,0.0,0.0,0.0,0.0,-0.002617993877991494
1663843110693766297,0.03624913754174486,0.0,0.0,0.0,0.0,0.003490658503988659
1663843110706011414,0.044778346375096596,0.0,0.0,0.0,0.0,-0.005585053606381855
1663843110724593653,0.03624913754174486,0.0,0.0,0.0,0.0,-0.009599310885968814
1663843110765591019,0.05543985741678625,0.0,0.0,0.0,0.0,-0.01291543646475804
1663843110765618843,0.051175253000110395,0.0,0.0,0.0,0.0,-0.010471975511965976
1663843110813540306,0.06183676404180006,0.0,0.0,0.0,0.0,-0.010471975511965976
1663843110813554701,0.07249827508348972,0.0,0.0,0.0,0.0,-0.014835298641951801
1663843110861590660,0.06610136845847592,0.0,0.0,0.0,0.0,-0.010297442586766544
1663843110861616471,0.07463057729182765,0.0,0.0,0.0,0.0,0.0
1663843110905698539,0.08742439054185526,0.0,0.0,0.0,0.0,-0.0012217304763960308
1663843110906260748,0.08955669275019319,0.0,0.0,0.0,0.0,-0.0036651914291880917
1663843110906343129,0.10874741262523457,0.0,0.0,0.0,0.0,0.0015707963267948967
1663843110953612398,0.10021820379188286,0.0,0.0,0.0,0.0,-0.00017453292519943296
1663843110953639754,0.09808590158354492,0.0,0.0,0.0,0.0,0.0
1663843110964940520,0.11727662145858632,0.0,0.0,0.0,0.0,0.00890117918517108
1663843110985339865,0.11940892366692425,0.0,0.0,0.0,0.0,0.012566370614359173
1663843111030319953,0.1364673413336277,0.0,0.0,0.0,0.0,0.0019198621771937623
1663843111030417100,0.1300704347086139,0.0,0.0,0.0,0.0,0.00645771823237902
1663843111073712383,0.14499655016697943,0.0,0.0,0.0,0.0,0.019547687622336492
1663843111073761322,0.14712885237531736,0.0,0.0,0.0,0.0,0.012217304763960306
1663843111117699695,0.14499655016697943,0.0,0.0,0.0,0.0,-0.0036651914291880917
1663843111117756891,0.1556580612086691,0.0,0.0,0.0,0.0,-0.00471238898038469
1663843111164768275,0.15139345679199323,0.0,0.0,0.0,0.0,0.005759586531581288
1663843111164784617,0.15352575900033116,0.0,0.0,0.0,0.0,0.00715584993317675
1663843111209670036,0.17058417666703463,0.0,0.0,0.0,0.0,0.005235987755982988
1663843111209708852,0.16631957225035876,0.0,0.0,0.0,0.0,0.010471975511965976
1663843111209734815,0.18124568770872432,0.0,0.0,0.0,0.0,0.015184364492350668
1663843111253944331,0.18551029212540016,0.0,0.0,0.0,0.0,0.020943951023931952
1663843111253990391,0.19190719875041395,0.0,0.0,0.0,0.0,0.020245819323134222
1663843111265099838,0.2004364075837657,0.0,0.0,0.0,0.0,0.014660765716752367
1663843111284923688,0.19190719875041395,0.0,0.0,0.0,0.0,0.011344640137963142
1663843111329542265,0.20896561641711744,0.0,0.0,0.0,0.0,0.019547687622336492
1663843111329572699,0.20683331420877948,0.0,0.0,0.0,0.0,0.022514747350726852
1663843111373746452,0.22602403408382088,0.0,0.0,0.0,0.0,0.018500490071139894
1663843111373795088,0.221759429667145,0.0,0.0,0.0,0.0,0.01291543646475804
1663843111417644978,0.2196271274588071,0.0,0.0,0.0,0.0,0.012391837689159739
1663843111417689850,0.23242094070883468,0.0,0.0,0.0,0.0,0.01780235837034216
1663843111461757523,0.23242094070883468,0.0,0.0,0.0,0.0,0.01308996938995747
1663843111461787950,0.2409501495421864,0.0,0.0,0.0,0.0,0.013439035240356337
1663843111505580540,0.25587626500055194,0.0,0.0,0.0,0.0,0.010821041362364843
1663843111505607798,0.24947935837553817,0.0,0.0,0.0,0.0,0.024085543677521744
1663843111549645901,0.25587626500055194,0.0,0.0,0.0,0.0,0.028797932657906436
1663843111549702435,0.25800856720888987,0.0,0.0,0.0,0.0,0.031939525311496235
1663843111549738849,0.27506698487559333,0.0,0.0,0.0,0.0,0.03316125578789226
1663843111594269801,0.2793315892922692,0.0,0.0,0.0,0.0,0.039968039870670144
1663843111594353210,0.2729346826672554,0.0,0.0,0.0,0.0,0.049567350756638956
1663843111605812616,0.2793315892922692,0.0,0.0,0.0,0.0,0.059341194567807204
1663843111625725343,0.2985223091673106,0.0,0.0,0.0,0.0,0.07906341511534314
1663843111669562414,0.31984533125069,0.0,0.0,0.0,0.0,0.0736528944341607
1663843111669585937,0.30918382020900026,0.0,0.0,0.0,0.0,0.05969026041820607
1663843111713621690,0.2985223091673106,0.0,0.0,0.0,0.0,0.05567600313861911
1663843111713650373,0.30278691358398646,0.0,0.0,0.0,0.0,0.04468042885105484
1663843111761671635,0.31984533125069,0.0,0.0,0.0,0.0,0.04014257279586957
1663843111761718160,0.33050684229237964,0.0,0.0,0.0,0.0,0.024260076602721177
1663843111805718812,0.3326391445007175,0.0,0.0,0.0,0.0,0.03577924966588375
1663843111805790277,0.317713029042352,0.0,0.0,0.0,0.0,0.043807764225057666
1663843111849712110,0.3369037489173934,0.0,0.0,0.0,0.0,0.03769911184307752
1663843111849784507,0.34116835333406925,0.0,0.0,0.0,0.0,0.034208453339088854
1663843111849822605,0.34330065554240724,0.0,0.0,0.0,0.0,0.049043751981040655
1663843111893634909,0.3518298643757589,0.0,0.0,0.0,0.0,0.052185344634630454
1663843111893678393,0.3518298643757589,0.0,0.0,0.0,0.0,0.03665191429188092
1663843111905648263,0.35822677100077277,0.0,0.0,0.0,0.0,0.03159045946109736
1663843111927079669,0.36675597983412445,0.0,0.0,0.0,0.0,0.05881759579220891
1663843111969591759,0.3923436063341797,0.0,0.0,0.0,0.0,0.06824237375297829
1663843111969640550,0.38594669970916584,0.0,0.0,0.0,0.0,0.05881759579220891
1663843112013561787,0.3752851886674762,0.0,0.0,0.0,0.0,0.04939281783143952
1663843112013588057,0.37954979308415204,0.0,0.0,0.0,0.0,0.07190756518216637
1663843112061667616,0.3902113041258417,0.0,0.0,0.0,0.0,0.07173303225696695
1663843112061725601,0.40300511737586936,0.0,0.0,0.0,0.0,0.05777039824101231
1663843112105514021,0.42219583725091075,0.0,0.0,0.0,0.0,0.05253441048502932
1663843112105532987,0.4307250460842625,0.0,0.0,0.0,0.0,0.04537856055185257
1663843112105542623,0.4349896505009383,0.0,0.0,0.0,0.0,0.035953782591083186
1663843112149645354,0.4328573482926004,0.0,0.0,0.0,0.0,0.04799655442984406
1663843112149683580,0.4499157659593038,0.0,0.0,0.0,0.0,0.040491638646268445
1663843112167579673,0.44778346375096595,0.0,0.0,0.0,0.0,0.021118483949131385
1663843112185340839,0.45204806816764176,0.0,0.0,0.0,0.0,0.033859387488689996
1663843112225760498,0.4669741836260073,0.0,0.0,0.0,0.0,0.04537856055185257
1663843112269604561,0.46484188141766936,0.0,0.0,0.0,0.0,0.04939281783143952
1663843112269635147,0.4669741836260073,0.0,0.0,0.0,0.0,0.05183627878423159
1663843112269652545,0.4691064858343453,0.0,0.0,0.0,0.0,0.038397243543875255
1663843112313588504,0.4669741836260073,0.0,0.0,0.0,0.0,0.04747295565424577
1663843112313616601,0.4819002990843728,0.0,0.0,0.0,0.0,0.061086523819801536
1663843112325810651,0.4691064858343453,0.0,0.0,0.0,0.0,0.06335545184739416
1663843112345505352,0.4882972057093866,0.0,0.0,0.0,0.0,0.0609119908946021
1663843112389618369,0.48616490350104874,0.0,0.0,0.0,0.0,0.05131268000863328
1663843112389640125,0.4882972057093866,0.0,0.0,0.0,0.0,0.08621926504851989
1663843112433641054,0.5032233211677521,0.0,0.0,0.0,0.0,0.09058258817850572
1663843112433685544,0.5010910189594143,0.0,0.0,0.0,0.0,0.09337511498169662
1663843112477619115,0.5138848322094418,0.0,0.0,0.0,0.0,0.0895353906273091
1663843112477648071,0.5096202277927661,0.0,0.0,0.0,0.0,0.08988445647770799
1663843112522106773,0.5096202277927661,0.0,0.0,0.0,0.0,0.1101302758008422
1663843112522175408,0.5266786454594694,0.0,0.0,0.0,0.0,0.11222467090323537
1663843112565812978,0.5288109476678073,0.0,0.0,0.0,0.0,0.10471975511965977
1663843112565862504,0.5501339697511867,0.0,0.0,0.0,0.0,0.12269664641520137
1663843112609635559,0.5416047609178349,0.0,0.0,0.0,0.0,0.13456488532876282
1663843112609675510,0.5416047609178349,0.0,0.0,0.0,0.0,0.13596114873035825
1663843112609693861,0.5565308763762006,0.0,0.0,0.0,0.0,0.1340412865531645
1663843112653650709,0.5501339697511867,0.0,0.0,0.0,0.0,0.11938052083641214
1663843112653691146,0.5693246896262281,0.0,0.0,0.0,0.0,0.1233947781159991
1663843112665646131,0.5714569918345661,0.0,0.0,0.0,0.0,0.11955505376161156
1663843112686436050,0.5778538984595799,0.0,0.0,0.0,0.0,0.1218239817892042
1663843112729583611,0.5799862006679177,0.0,0.0,0.0,0.0,0.13316862192716736
1663843112729618844,0.5821185028762557,0.0,0.0,0.0,0.0,0.14521139376592823
1663843112773570260,0.5970446183346212,0.0,0.0,0.0,0.0,0.15498523757709648
1663843112773584531,0.5991769205429591,0.0,0.0,0.0,0.0,0.15690509975429023
1663843112817670212,0.5906477117096074,0.0,0.0,0.0,0.0,0.15812683023068627
1663843112817717851,0.5949123161262834,0.0,0.0,0.0,0.0,0.14974924982111348
1663843112861576161,0.6119707337929867,0.0,0.0,0.0,0.0,0.17976891295541597
1663843112861592541,0.6247645470430144,0.0,0.0,0.0,0.0,0.18936822384138477
1663843112909859788,0.6162353382096627,0.0,0.0,0.0,0.0,0.16144295580947549
1663843112909919289,0.6098384315846489,0.0,0.0,0.0,0.0,0.14748032179352083
1663843112909961813,0.6162353382096627,0.0,0.0,0.0,0.0,0.17418385934903408
1663843112953581911,0.6162353382096627,0.0,0.0,0.0,0.0,0.16318828506146982
1663843112953612690,0.6247645470430144,0.0,0.0,0.0,0.0,0.14154620233674012
1663843112967779667,0.6204999426263385,0.0,0.0,0.0,0.0,0.12164944886400476
1663843112986822453,0.6247645470430144,0.0,0.0,0.0,0.0,0.13526301702956053
1663843113029606009,0.6311614536680282,0.0,0.0,0.0,0.0,0.1322959573011702
1663843113029628014,0.6268968492513523,0.0,0.0,0.0,0.0,0.12531464029319286
1663843113073760028,0.6311614536680282,0.0,0.0,0.0,0.0,0.1223475805648025
1663843113073799173,0.6247645470430144,0.0,0.0,0.0,0.0,0.1174606586592184
1663843113117610704,0.6226322448346764,0.0,0.0,0.0,0.0,0.1181587903600161
1663843113117664499,0.6247645470430144,0.0,0.0,0.0,0.0,0.11903145498601327
1663843113161658088,0.6290291514596902,0.0,0.0,0.0,0.0,0.12374384396639797
1663843113161675318,0.63969066250138,0.0,0.0,0.0,0.0,0.11728612573401893
1663843113209823524,0.6503521735430695,0.0,0.0,0.0,0.0,0.08970992355250852
1663843113209863371,0.6439552669180557,0.0,0.0,0.0,0.0,0.08744099552491591
1663843113253599280,0.6290291514596902,0.0,0.0,0.0,0.0,0.11117747335203879
1663843113253626688,0.635426058084704,0.0,0.0,0.0,0.0,0.11833332328521554
1663843113253649446,0.6183676404180005,0.0,0.0,0.0,0.0,0.13124875974997358
1663843113297627344,0.6247645470430144,0.0,0.0,0.0,0.0,0.12374384396639797
1663843113297663237,0.6226322448346764,0.0,0.0,0.0,0.0,0.11554079648202462
1663843113307007133,0.603441524959635,0.0,0.0,0.0,0.0,0.11955505376161156
1663843113326001064,0.5863831072929316,0.0,0.0,0.0,0.0,0.11554079648202462
1663843113370008865,0.5949123161262834,0.0,0.0,0.0,0.0,0.09773843811168245
1663843113370044231,0.5949123161262834,0.0,0.0,0.0,0.0,0.08499753457212385
1663843113417513449,0.5906477117096074,0.0,0.0,0.0,0.0,0.08011061266653972
1663843113417530459,0.5757215962512419,0.0,0.0,0.0,0.0,0.08569566627292158
1663843113461570000,0.5735892940429039,0.0,0.0,0.0,0.0,0.07906341511534314
1663843113461620061,0.5799862006679177,0.0,0.0,0.0,0.0,0.08709192967451704
1663843113505675402,0.5863831072929316,0.0,0.0,0.0,0.0,0.09773843811168245
1663843113505725380,0.5842508050845936,0.0,0.0,0.0,0.0,0.11780972450961724
1663843113549521169,0.5842508050845936,0.0,0.0,0.0,0.0,0.10157816246606997
1663843113549541518,0.5927800139179454,0.0,0.0,0.0,0.0,0.11397000015522972
1663843113549550240,0.5927800139179454,0.0,0.0,0.0,0.0,0.12252211349000193
1663843113593617333,0.5991769205429591,0.0,0.0,0.0,0.0,0.143116998663535
1663843113593654124,0.603441524959635,0.0,0.0,0.0,0.0,0.12880529879718153
1663843113605752908,0.6055738271679729,0.0,0.0,0.0,0.0,0.10786134777324957
1663843113628447546,0.6055738271679729,0.0,0.0,0.0,0.0,0.14241886696273728
1663843113669707640,0.6055738271679729,0.0,0.0,0.0,0.0,0.1589994948566834
1663843113669742402,0.6098384315846489,0.0,0.0,0.0,0.0,0.1174606586592184
1663843113713546261,0.603441524959635,0.0,0.0,0.0,0.0,0.12461650859239512
1663843113713566818,0.5394724587094971,0.0,0.0,0.0,0.0,0.14974924982111348
1663843113757752401,0.5266786454594694,0.0,0.0,0.0,0.0,0.14102260356114182
1663843113757803735,0.5117525300011039,0.0,0.0,0.0,0.0,0.14206980111233844
1663843113801692389,0.5309432498761453,0.0,0.0,0.0,0.0,0.09843656981248018
1663843113801749626,0.5416047609178349,0.0,0.0,0.0,0.0,0.10279989294246601
1663843113845609001,0.5437370631261729,0.0,0.0,0.0,0.0,0.10925761117484502
1663843113845655522,0.5309432498761453,0.0,0.0,0.0,0.0,0.12374384396639797
1663843113889819290,0.5202817388344556,0.0,0.0,0.0,0.0,0.13473941825396224
1663843113889849543,0.5330755520844833,0.0,0.0,0.0,0.0,0.14154620233674012
1663843113889867817,0.5480016675428488,0.0,0.0,0.0,0.0,0.13962634015954636
1663843113933685210,0.5394724587094971,0.0,0.0,0.0,0.0,0.14206980111233844
1663843113933731726,0.5394724587094971,0.0,0.0,0.0,0.0,0.15393804002589986
1663843113945853438,0.5245463432511316,0.0,0.0,0.0,0.0,0.15044738152191117
1663843113969307272,0.5245463432511316,0.0,0.0,0.0,0.0,0.13805554383275145
1663843114011267549,0.5330755520844833,0.0,0.0,0.0,0.0,0.13718287920675432
1663843114012118320,0.5181494366261178,0.0,0.0,0.0,0.0,0.15428710587629874
1663843114053847730,0.5181494366261178,0.0,0.0,0.0,0.0,0.1768018532270256
1663843114053879007,0.507487925584428,0.0,0.0,0.0,0.0,0.18046704465621366
1663843114097633526,0.5053556233760901,0.0,0.0,0.0,0.0,0.17016960206944712
1663843114097660264,0.5138848322094418,0.0,0.0,0.0,0.0,0.13718287920675432
1663843114141716599,0.4819002990843728,0.0,0.0,0.0,0.0,0.1356120828799594
1663843114141775078,0.49042950791772455,0.0,0.0,0.0,0.0,0.1265363707695889
1663843114185559167,0.49256181012606254,0.0,0.0,0.0,0.0,0.11868238913561441
1663843114185575370,0.49256181012606254,0.0,0.0,0.0,0.0,0.1153662635568252
1663843114185585729,0.49895871675107634,0.0,0.0,0.0,0.0,0.1096066770252439
1663843114229669507,0.4819002990843728,0.0,0.0,0.0,0.0,0.1275835683207855
1663843114229693309,0.49469411233440047,0.0,0.0,0.0,0.0,0.15690509975429023
1663843114247140377,0.49256181012606254,0.0,0.0,0.0,0.0,0.1202531854624093
1663843114267259243,0.4882972057093866,0.0,0.0,0.0,0.0,0.13177235852557187
1663843114313691182,0.49469411233440047,0.0,0.0,0.0,0.0,0.17400932642383465
1663843114313726230,0.477635694667697,0.0,0.0,0.0,0.0,0.18535396656179778
1663843114357661834,0.48616490350104874,0.0,0.0,0.0,0.0,0.19024088846738194
1663843114357682696,0.47976799687603494,0.0,0.0,0.0,0.0,0.1754055898254301
1663843114401608755,0.477635694667697,0.0,0.0,0.0,0.0,0.17662732030182612
1663843114401645533,0.4882972057093866,0.0,0.0,0.0,0.0,0.21397736629450478
1663843114445718743,0.477635694667697,0.0,0.0,0.0,0.0,0.21537362969610024
1663843114445751528,0.4840326012927108,0.0,0.0,0.0,0.0,0.2064724505109292
1663843114489730586,0.4819002990843728,0.0,0.0,0.0,0.0,0.21293016874330817
1663843114489778761,0.4733710902510211,0.0,0.0,0.0,0.0,0.21275563581810877
1663843114489799624,0.47976799687603494,0.0,0.0,0.0,0.0,0.20874137853852182
1663843114533767936,0.48616490350104874,0.0,0.0,0.0,0.0,0.1989675347273536
1663843114533811594,0.4755033924593591,0.0,0.0,0.0,0.0,0.19093902016817965
1663843114546329880,0.477635694667697,0.0,0.0,0.0,0.0,0.19320794819577228
1663843114566732092,0.4755033924593591,0.0,0.0,0.0,0.0,0.20053833105414848
1663843114609569878,0.4733710902510211,0.0,0.0,0.0,0.0,0.21868975527488949
1663843114609589141,0.477635694667697,0.0,0.0,0.0,0.0,0.2331759880664424
1663843114653650773,0.47976799687603494,0.0,0.0,0.0,0.0,0.2162462943220974
1663843114653702758,0.4755033924593591,0.0,0.0,0.0,0.0,0.20891591146372127
1663843114697610329,0.4755033924593591,0.0,0.0,0.0,0.0,0.22514747350726852
1663843114697650622,0.47976799687603494,0.0,0.0,0.0,0.0,0.22619467105846514
1663843114741995889,0.4755033924593591,0.0,0.0,0.0,0.0,0.22549653935766736
1663843114742073011,0.4840326012927108,0.0,0.0,0.0,0.0,0.210835773640915
1663843114789697417,0.47976799687603494,0.0,0.0,0.0,0.0,0.21764255772369293
1663843114789726135,0.47976799687603494,0.0,0.0,0.0,0.0,0.2389355745980237
1663843114789737376,0.4819002990843728,0.0,0.0,0.0,0.0,0.25080381351158515
1663843114833908158,0.4840326012927108,0.0,0.0,0.0,0.0,0.25726153174396416
1663843114833984217,0.49256181012606254,0.0,0.0,0.0,0.0,0.2607521902479528
1663843114847649278,0.507487925584428,0.0,0.0,0.0,0.0,0.24905848425959082
1663843114866592602,0.49469411233440047,0.0,0.0,0.0,0.0,0.27314402793711257
1663843114909736101,0.507487925584428,0.0,0.0,0.0,0.0,0.29181905093345184
1663843114909875013,0.5096202277927661,0.0,0.0,0.0,0.0,0.29391344603584507
1663843114953829549,0.5160171344177797,0.0,0.0,0.0,0.0,0.31293753488258325
1663843114953843461,0.5416047609178349,0.0,0.0,0.0,0.0,0.30839967882739805
1663843114997619805,0.5160171344177797,0.0,0.0,0.0,0.0,0.2846632010002751
1663843114997664628,0.5160171344177797,0.0,0.0,0.0,0.0,0.256388867117967
1663843115041651759,0.49682641454273835,0.0,0.0,0.0,0.0,0.2405063709248186
1663843115041678668,0.49042950791772455,0.0,0.0,0.0,0.0,0.24137903555081577
1663843115085626463,0.49682641454273835,0.0,0.0,0.0,0.0,0.26005405854715513
1663843115085667735,0.49469411233440047,0.0,0.0,0.0,0.0,0.2504547476611863
1663843115130075960,0.4840326012927108,0.0,0.0,0.0,0.0,0.24294983187761068
1663843115130109328,0.49256181012606254,0.0,0.0,0.0,0.0,0.266860842629933
1663843115130123943,0.49682641454273835,0.0,0.0,0.0,0.0,0.2558652683423687
1663843115173635335,0.5010910189594143,0.0,0.0,0.0,0.0,0.24085543677521748
1663843115173666619,0.507487925584428,0.0,0.0,0.0,0.0,0.24172810140121462
1663843115186823524,0.5096202277927661,0.0,0.0,0.0,0.0,0.24766222085799536
1663843115206400171,0.5160171344177797,0.0,0.0,0.0,0.0,0.21676989309769573
1663843115249536495,0.5096202277927661,0.0,0.0,0.0,0.0,0.20612338466053032
1663843115249555008,0.5138848322094418,0.0,0.0,0.0,0.0,0.21397736629450478
1663843115293800263,0.5138848322094418,0.0,0.0,0.0,0.0,0.20559978588493202
1663843115293824187,0.5096202277927661,0.0,0.0,0.0,0.0,0.20367992370773824
1663843115337746378,0.5117525300011039,0.0,0.0,0.0,0.0,0.19931660057775244
1663843115337790025,0.5053556233760901,0.0,0.0,0.0,0.0,0.21676989309769573
1663843115381739465,0.5117525300011039,0.0,0.0,0.0,0.0,0.20490165418413428
1663843115381776837,0.5032233211677521,0.0,0.0,0.0,0.0,0.20123646275494617
1663843115425729379,0.49895871675107634,0.0,0.0,0.0,0.0,0.22375121010567306
1663843115425781566,0.5053556233760901,0.0,0.0,0.0,0.0,0.22375121010567306
1663843115469732746,0.49682641454273835,0.0,0.0,0.0,0.0,0.21415189921970423
1663843115469751806,0.507487925584428,0.0,0.0,0.0,0.0,0.2202605516016844
1663843115469769190,0.507487925584428,0.0,0.0,0.0,0.0,0.22287854547967584
1663843115517557123,0.5032233211677521,0.0,0.0,0.0,0.0,0.22235494670407757
1663843115517594873,0.507487925584428,0.0,0.0,0.0,0.0,0.22270401255447644
1663843115527195340,0.5096202277927661,0.0,0.0,0.0,0.0,0.23666664657043107
1663843115548507873,0.5117525300011039,0.0,0.0,0.0,0.0,0.25446900494077324
1663843115589721856,0.5117525300011039,0.0,0.0,0.0,0.0,0.2389355745980237
1663843115589752781,0.507487925584428,0.0,0.0,0.0,0.0,0.24609142453120048
1663843115633617084,0.5309432498761453,0.0,0.0,0.0,0.0,0.24801128670839426
1663843115633679551,0.5266786454594694,0.0,0.0,0.0,0.0,0.25237460983838006
1663843115677525393,0.5394724587094971,0.0,0.0,0.0,0.0,0.26232298657474773
1663843115677546938,0.5437370631261729,0.0,0.0,0.0,0.0,0.23806290997202653
1663843115726360338,0.5373401565011591,0.0,0.0,0.0,0.0,0.23649211364523165
1663843115726410546,0.5437370631261729,0.0,0.0,0.0,0.0,0.2284635990860577
1663843115769695093,0.5437370631261729,0.0,0.0,0.0,0.0,0.2326523892908441
1663843115769748814,0.5650600852095522,0.0,0.0,0.0,0.0,0.2439970294288073
1663843115769774193,0.5693246896262281,0.0,0.0,0.0,0.0,0.2504547476611863
1663843115813648799,0.5565308763762006,0.0,0.0,0.0,0.0,0.27104963283471933
1663843115813680886,0.507487925584428,0.0,0.0,0.0,0.0,0.2638937829015426
1663843115827887619,0.5096202277927661,0.0,0.0,0.0,0.0,0.27104963283471933
1663843115847410788,0.5096202277927661,0.0,0.0,0.0,0.0,0.29112091923265415
1663843115889560547,0.5181494366261178,0.0,0.0,0.0,0.0,0.2548180707911721
1663843115889583304,0.5245463432511316,0.0,0.0,0.0,0.0,0.24626595745639987
1663843115933695683,0.5245463432511316,0.0,0.0,0.0,0.0,0.2645919146023404
1663843115933761084,0.5181494366261178,0.0,0.0,0.0,0.0,0.2617993877991494
1663843115977633347,0.5245463432511316,0.0,0.0,0.0,0.0,0.25621433419276757
1663843115977674097,0.5373401565011591,0.0,0.0,0.0,0.0,0.24574235868080158
1663843116025969240,0.5416047609178349,0.0,0.0,0.0,0.0,0.25883232807075907
1663843116026061387,0.5373401565011591,0.0,0.0,0.0,0.0,0.25935592684635733
1663843116069663362,0.5266786454594694,0.0,0.0,0.0,0.0,0.2684316389567279
1663843116069710621,0.5394724587094971,0.0,0.0,0.0,0.0,0.2860594644018706
1663843116069747337,0.5416047609178349,0.0,0.0,0.0,0.0,0.2638937829015426
1663843116113608936,0.5480016675428488,0.0,0.0,0.0,0.0,0.262846585350346
1663843116113635784,0.5416047609178349,0.0,0.0,0.0,0.0,0.2644173816771409
1663843116127125735,0.5330755520844833,0.0,0.0,0.0,0.0,0.25830872929516074
1663843116147060597,0.5330755520844833,0.0,0.0,0.0,0.0,0.24277529895241123
1663843116189537394,0.5245463432511316,0.0,0.0,0.0,0.0,0.2405063709248186
1663843116189554971,0.5416047609178349,0.0,0.0,0.0,0.0,0.24993114888558798
1663843116233621163,0.5458693653345108,0.0,0.0,0.0,0.0,0.24818581963359365
1663843116233653365,0.5565308763762006,0.0,0.0,0.0,0.0,0.2801253449450899
1663843116277584090,0.5480016675428488,0.0,0.0,0.0,0.0,0.278554548618295
1663843116277611684,0.5437370631261729,0.0,0.0,0.0,0.0,0.2719222974607165
1663843116321652026,0.5480016675428488,0.0,0.0,0.0,0.0,0.2846632010002751
1663843116321785330,0.5607954807928763,0.0,0.0,0.0,0.0,0.2916445180082525
1663843116365626530,0.5735892940429039,0.0,0.0,0.0,0.0,0.30089476304382234
1663843116365666027,0.5799862006679177,0.0,0.0,0.0,0.0,0.2686061718819273
1663843116409567324,0.5629277830012144,0.0,0.0,0.0,0.0,0.24713862208239704
1663843116409584043,0.5714569918345661,0.0,0.0,0.0,0.0,0.2326523892908441
1663843116409590870,0.5778538984595799,0.0,0.0,0.0,0.0,0.21764255772369293
1663843116453875756,0.5927800139179454,0.0,0.0,0.0,0.0,0.2284635990860577
1663843116453931101,0.5821185028762557,0.0,0.0,0.0,0.0,0.228987197861656
1663843116469714337,0.5842508050845936,0.0,0.0,0.0,0.0,0.23387411976724018
1663843116487389102,0.5842508050845936,0.0,0.0,0.0,0.0,0.244695161129605
1663843116529530207,0.5949123161262834,0.0,0.0,0.0,0.0,0.26371924997634316
1663843116529555075,0.5991769205429591,0.0,0.0,0.0,0.0,0.22811453323565886
1663843116573638990,0.5757215962512419,0.0,0.0,0.0,0.0,0.23335052099164186
1663843116573691891,0.5671923874178901,0.0,0.0,0.0,0.0,0.23422318561763902
1663843116617727035,0.5693246896262281,0.0,0.0,0.0,0.0,0.23125612588924865
1663843116617768714,0.5607954807928763,0.0,0.0,0.0,0.0,0.27872908154349446
1663843116661560942,0.5480016675428488,0.0,0.0,0.0,0.0,0.3110176727053895
1663843116661584906,0.5522662719595246,0.0,0.0,0.0,0.0,0.32236231284335265
1663843116705631985,0.5607954807928763,0.0,0.0,0.0,0.0,0.33807027611130164
1663843116705681142,0.5650600852095522,0.0,0.0,0.0,0.0,0.4185299546282402
1663843116749683421,0.5607954807928763,0.0,0.0,0.0,0.0,0.4557054676957194
1663843116749715780,0.5607954807928763,0.0,0.0,0.0,0.0,0.45553093477052004
1663843116749960767,0.5522662719595246,0.0,0.0,0.0,0.0,0.433365253270192
1663843116793529067,0.5437370631261729,0.0,0.0,0.0,0.0,0.44156830075456543
1663843116793555681,0.5650600852095522,0.0,0.0,0.0,0.0,0.45675266524691605
1663843116806741724,0.5650600852095522,0.0,0.0,0.0,0.0,0.48310713695203045
1663843116827758456,0.5607954807928763,0.0,0.0,0.0,0.0,0.48537606497962305
1663843116869759848,0.5629277830012144,0.0,0.0,0.0,0.0,0.4897393881096088
1663843116869803143,0.5458693653345108,0.0,0.0,0.0,0.0,0.4927064478379993
1663843116913635897,0.5501339697511867,0.0,0.0,0.0,0.0,0.5239478414486977
1663843116913689235,0.5458693653345108,0.0,0.0,0.0,0.0,0.5218534463463045
1663843116961533982,0.5416047609178349,0.0,0.0,0.0,0.0,0.5347688828110625
1663843116961548727,0.5352078542928211,0.0,0.0,0.0,0.0,0.5249950389998943
1663843117009910436,0.5352078542928211,0.0,0.0,0.0,0.0,0.5222025121967034
1663843117009987501,0.5373401565011591,0.0,0.0,0.0,0.0,0.5380850083898517
1663843117010031567,0.5352078542928211,0.0,0.0,0.0,0.0,0.554665636283798
1663843117053686560,0.5309432498761453,0.0,0.0,0.0,0.0,0.546637121724624
1663843117053723467,0.5437370631261729,0.0,0.0,0.0,0.0,0.5420992656694387
1663843117067870669,0.5480016675428488,0.0,0.0,0.0,0.0,0.5450663253978292
1663843117087537376,0.5330755520844833,0.0,0.0,0.0,0.0,0.5513495107050087
1663843117129807673,0.5458693653345108,0.0,0.0,0.0,0.0,0.5229006438975011
1663843117130024401,0.5394724587094971,0.0,0.0,0.0,0.0,0.5005604294719737
1663843117173718271,0.5373401565011591,0.0,0.0,0.0,0.0,0.48659779545601906
1663843117173730313,0.5416047609178349,0.0,0.0,0.0,0.0,0.4647811798060899
1663843117217604558,0.5437370631261729,0.0,0.0,0.0,0.0,0.4405211032033688
1663843117217634719,0.5458693653345108,0.0,0.0,0.0,0.0,0.45029494701453704
1663843117261629896,0.5394724587094971,0.0,0.0,0.0,0.0,0.4253367387110181
1663843117261643921,0.5586631785845384,0.0,0.0,0.0,0.0,0.41957715217943675
1663843117305610644,0.5671923874178901,0.0,0.0,0.0,0.0,0.4131194339470578
1663843117310295675,0.5629277830012144,0.0,0.0,0.0,0.0,0.3892084231947355
1663843117349660907,0.5671923874178901,0.0,0.0,0.0,0.0,0.3700098014227978
1663843117349704066,0.5586631785845384,0.0,0.0,0.0,0.0,0.35046211380046133
1663843117349735608,0.5607954807928763,0.0,0.0,0.0,0.0,0.3675663404700058
1663843117393537276,0.5650600852095522,0.0,0.0,0.0,0.0,0.364424747816416
1663843117393557042,0.5629277830012144,0.0,0.0,0.0,0.0,0.3389429407372988
1663843117407449892,0.5607954807928763,0.0,0.0,0.0,0.0,0.3405137370640937
1663843117427806899,0.5607954807928763,0.0,0.0,0.0,0.0,0.3363249468593073
1663843117470081460,0.5671923874178901,0.0,0.0,0.0,0.0,0.3232349774693498
1663843117470203922,0.5735892940429039,0.0,0.0,0.0,0.0,0.2993239667170275
1663843117513937094,0.5799862006679177,0.0,0.0,0.0,0.0,0.3075270142014009
1663843117513988078,0.5757215962512419,0.0,0.0,0.0,0.0,0.31066860685499065
1663843117561609967,0.5671923874178901,0.0,0.0,0.0,0.0,0.3078760800517997
1663843117561643767,0.5501339697511867,0.0,0.0,0.0,0.0,0.318871654339364
1663843117609708494,0.5650600852095522,0.0,0.0,0.0,0.0,0.32096604944175716
1663843117609742090,0.5671923874178901,0.0,0.0,0.0,0.0,0.3000220984178253
1663843117609758536,0.5501339697511867,0.0,0.0,0.0,0.0,0.27104963283471933
1663843117653751121,0.5373401565011591,0.0,0.0,0.0,0.0,0.2823942729726825
1663843117653798234,0.5373401565011591,0.0,0.0,0.0,0.0,0.2741912254883092
1663843117667946180,0.5330755520844833,0.0,0.0,0.0,0.0,0.2591813939211579
1663843117687084060,0.5373401565011591,0.0,0.0,0.0,0.0,0.2577851305195624
1663843117729821024,0.5458693653345108,0.0,0.0,0.0,0.0,0.24294983187761068
1663843117729876153,0.5352078542928211,0.0,0.0,0.0,0.0,0.2192133540504878
1663843117773706708,0.5330755520844833,0.0,0.0,0.0,0.0,0.21048670779051615
1663843117773728165,0.5394724587094971,0.0,0.0,0.0,0.0,0.22794000031045944
1663843117817590700,0.5501339697511867,0.0,0.0,0.0,0.0,0.19844393595175525
1663843117817627010,0.5416047609178349,0.0,0.0,0.0,0.0,0.19617500792416262
1663843117861618207,0.5501339697511867,0.0,0.0,0.0,0.0,0.20141099568014562
1663843117861677161,0.5394724587094971,0.0,0.0,0.0,0.0,0.2071705822117269
1663843117905826536,0.5458693653345108,0.0,0.0,0.0,0.0,0.20699604928652748
1663843117905937475,0.5522662719595246,0.0,0.0,0.0,0.0,0.21694442602289515
1663843117949715854,0.5309432498761453,0.0,0.0,0.0,0.0,0.21380283336930536
1663843117949752709,0.5352078542928211,0.0,0.0,0.0,0.0,0.2076941809873252
1663843117949780210,0.5330755520844833,0.0,0.0,0.0,0.0,0.18517943363659836
1663843117993589645,0.5394724587094971,0.0,0.0,0.0,0.0,0.14049900478554353
1663843117993643352,0.5288109476678073,0.0,0.0,0.0,0.0,0.11030480872604163
1663843118008816486,0.5096202277927661,0.0,0.0,0.0,0.0,0.13631021458075712
1663843118028145134,0.5181494366261178,0.0,0.0,0.0,0.0,0.15446163880149816
1663843118069657648,0.5138848322094418,0.0,0.0,0.0,0.0,0.13805554383275145
1663843118069698943,0.5202817388344556,0.0,0.0,0.0,0.0,0.09896016858807849
1663843118117523073,0.507487925584428,0.0,0.0,0.0,0.0,0.08360127117052839
1663843118117542721,0.5032233211677521,0.0,0.0,0.0,0.0,0.11588986233242347
1663843118161615792,0.5010910189594143,0.0,0.0,0.0,0.0,0.12252211349000193
1663843118161659012,0.49682641454273835,0.0,0.0,0.0,0.0,0.10978120995044333
1663843118209689519,0.5053556233760901,0.0,0.0,0.0,0.0,0.10454522219446034
1663843118209730898,0.5053556233760901,0.0,0.0,0.0,0.0,0.08779006137531478
1663843118209761651,0.5181494366261178,0.0,0.0,0.0,0.0,0.09546951008408983
1663843118253574095,0.5352078542928211,0.0,0.0,0.0,0.0,0.05550147021341968
1663843118253595574,0.5394724587094971,0.0,0.0,0.0,0.0,0.06265732014659643
1663843118269701048,0.5330755520844833,0.0,0.0,0.0,0.0,0.10559241974565695
1663843118288901046,0.5330755520844833,0.0,0.0,0.0,0.0,0.10890854532444616
1663843118329560295,0.49042950791772455,0.0,0.0,0.0,0.0,0.1324704902263696
1663843118329584988,0.48616490350104874,0.0,0.0,0.0,0.0,0.14189526818713902
1663843118377704385,0.48616490350104874,0.0,0.0,0.0,0.0,0.1467821900927231
1663843118377741068,0.49042950791772455,0.0,0.0,0.0,0.0,0.14835298641951802
1663843118421539302,0.48616490350104874,0.0,0.0,0.0,0.0,0.15376350710070044
1663843118421556099,0.4712387880426832,0.0,0.0,0.0,0.0,0.16650441064025903
1663843118465976928,0.4712387880426832,0.0,0.0,0.0,0.0,0.14556045961632708
1663843118466028806,0.4691064858343453,0.0,0.0,0.0,0.0,0.1335176877775662
1663843118513643356,0.4882972057093866,0.0,0.0,0.0,0.0,0.1408480706359424
1663843118513681745,0.5032233211677521,0.0,0.0,0.0,0.0,0.1387536755335492
1663843118513696039,0.49682641454273835,0.0,0.0,0.0,0.0,0.1335176877775662
1663843118557483513,0.49895871675107634,0.0,0.0,0.0,0.0,0.10559241974565695
1663843118557498232,0.5053556233760901,0.0,0.0,0.0,0.0,0.09930923443847735
1663843118567626071,0.5138848322094418,0.0,0.0,0.0,0.0,0.10716321607245181
1663843118587937987,0.5138848322094418,0.0,0.0,0.0,0.0,0.09983283321407564
1663843118633676835,0.5160171344177797,0.0,0.0,0.0,0.0,0.08587019919812101
1663843118633714661,0.5160171344177797,0.0,0.0,0.0,0.0,0.09040805525330627
1663843118677529625,0.5160171344177797,0.0,0.0,0.0,0.0,0.08726646259971647
1663843118677548185,0.5117525300011039,0.0,0.0,0.0,0.0,0.11065387457644049
1663843118721659877,0.5160171344177797,0.0,0.0,0.0,0.0,0.1202531854624093
1663843118721706368,0.507487925584428,0.0,0.0,0.0,0.0,0.12060225131280816
1663843118765844546,0.5053556233760901,0.0,0.0,0.0,0.0,0.13596114873035825
1663843118765887021,0.42646044166758657,0.0,0.0,0.0,0.0,0.13857914260834978
1663843118809659034,0.3902113041258417,0.0,0.0,0.0,0.0,0.12793263417118436
1663843118809707496,0.4179312328342349,0.0,0.0,0.0,0.0,0.10489428804485919
1663843118809778809,0.445651161542628,0.0,0.0,0.0,0.0,0.10506882097005864
1663843118853563685,0.41579893062589696,0.0,0.0,0.0,0.0,0.08482300164692441
1663843118853584243,0.40940202400088316,0.0,0.0,0.0,0.0,0.06771877497737999
1663843118867817665,0.4072697217925452,0.0,0.0,0.0,0.0,0.10053096491487339
1663843118887958919,0.40513741958420724,0.0,0.0,0.0,0.0,0.07696902001294993
1663843118929529622,0.42006353504257277,0.0,0.0,0.0,0.0,0.06370451769779302
1663843118929547048,0.4307250460842625,0.0,0.0,0.0,0.0,0.09023352232810683
1663843118978038017,0.4307250460842625,0.0,0.0,0.0,0.0,0.11379546723003027
1663843118978104312,0.42646044166758657,0.0,0.0,0.0,0.0,0.10157816246606997
1663843119025726190,0.4179312328342349,0.0,0.0,0.0,0.0,0.07766715171374766
1663843119025765001,0.39447590854251763,0.0,0.0,0.0,0.0,0.09808750396208131
1663843119069636209,0.39874051295919344,0.0,0.0,0.0,0.0,0.10454522219446034
1663843119069670372,0.39874051295919344,0.0,0.0,0.0,0.0,0.0916297857297023
1663843119069683075,0.3902113041258417,0.0,0.0,0.0,0.0,0.0932005820564972
1663843119113892041,0.38807900191750383,0.0,0.0,0.0,0.0,0.12409290981679683
1663843119113955387,0.36249137541744864,0.0,0.0,0.0,0.0,0.13124875974997358
1663843119128614011,0.36675597983412445,0.0,0.0,0.0,0.0,0.12287117934040079
1663843119148989956,0.3646236776257865,0.0,0.0,0.0,0.0,0.12130038301360589
1663843119189627802,0.3646236776257865,0.0,0.0,0.0,0.0,0.12356931104119852
1663843119189683204,0.3646236776257865,0.0,0.0,0.0,0.0,0.12671090369478832
1663843119233646235,0.3646236776257865,0.0,0.0,0.0,0.0,0.11222467090323537
1663843119233667340,0.3560944687924348,0.0,0.0,0.0,0.0,0.10454522219446034
1663843119277612546,0.3539621665840969,0.0,0.0,0.0,0.0,0.11117747335203879
1663843119277639939,0.36675597983412445,0.0,0.0,0.0,0.0,0.12845623294678266
1663843119321722470,0.3752851886674762,0.0,0.0,0.0,0.0,0.12479104151759457
1663843119321750843,0.3752851886674762,0.0,0.0,0.0,0.0,0.11379546723003027
1663843119369572701,0.3646236776257865,0.0,0.0,0.0,0.0,0.11868238913561441
1663843119369597352,0.3560944687924348,0.0,0.0,0.0,0.0,0.13753194505715316
1663843119369610217,0.3518298643757589,0.0,0.0,0.0,0.0,0.12810716709638378
1663843119413702087,0.34756525995908305,0.0,0.0,0.0,0.0,0.11972958668681102
1663843119413778670,0.3539621665840969,0.0,0.0,0.0,0.0,0.1319468914507713
1663843119430587978,0.3539621665840969,0.0,0.0,0.0,0.0,0.13124875974997358
1663843119451102482,0.3369037489173934,0.0,0.0,0.0,0.0,0.11379546723003027
1663843119493616066,0.32197763345902786,0.0,0.0,0.0,0.0,0.14137166941154067
1663843119493670766,0.3347714467090555,0.0,0.0,0.0,0.0,0.136659280431156
1663843119537668775,0.34330065554240724,0.0,0.0,0.0,0.0,0.12426744274199628
1663843119537737556,0.34330065554240724,0.0,0.0,0.0,0.0,0.12897983172238095
1663843119581560901,0.3454329577507451,0.0,0.0,0.0,0.0,0.1473057888683214
1663843119581582002,0.3347714467090555,0.0,0.0,0.0,0.0,0.14870205226991687
1663843119625653508,0.3369037489173934,0.0,0.0,0.0,0.0,0.12217304763960307
1663843119625711746,0.34756525995908305,0.0,0.0,0.0,0.0,0.1233947781159991
1663843119673606244,0.34116835333406925,0.0,0.0,0.0,0.0,0.1322959573011702
1663843119673628962,0.34116835333406925,0.0,0.0,0.0,0.0,0.1174606586592184
1663843119673657264,0.3454329577507451,0.0,0.0,0.0,0.0,0.11606439525762292
1663843119721871644,0.3347714467090555,0.0,0.0,0.0,0.0,0.1282817000215832
1663843119721933984,0.3539621665840969,0.0,0.0,0.0,0.0,0.12095131716320703
1663843119728462078,0.3539621665840969,0.0,0.0,0.0,0.0,0.11798425743481668
1663843119748620017,0.36675597983412445,0.0,0.0,0.0,0.0,0.12322024519079966
1663843119793619838,0.36035907320911065,0.0,0.0,0.0,0.0,0.1350884841043611
1663843119793658681,0.3518298643757589,0.0,0.0,0.0,0.0,0.12880529879718153
1663843119837645192,0.36249137541744864,0.0,0.0,0.0,0.0,0.12618730491919003
1663843119837683613,0.36888828204246243,0.0,0.0,0.0,0.0,0.12566370614359174
1663843119885716475,0.37741749087581417,0.0,0.0,0.0,0.0,0.12950343049797924
1663843119885776664,0.38168209529249003,0.0,0.0,0.0,0.0,0.13212142437597077
1663843119933714084,0.37741749087581417,0.0,0.0,0.0,0.0,0.12566370614359174
1663843119933745896,0.38594669970916584,0.0,0.0,0.0,0.0,0.1340412865531645
1663843119933780415,0.38807900191750383,0.0,0.0,0.0,0.0,0.12845623294678266
1663843119981536366,0.34330065554240724,0.0,0.0,0.0,0.0,0.1233947781159991
1663843119981563312,0.3113161224173382,0.0,0.0,0.0,0.0,0.13683381335635542
1663843119989786323,0.31984533125069,0.0,0.0,0.0,0.0,0.11972958668681102
1663843120009112264,0.3390360511257314,0.0,0.0,0.0,0.0,0.06806784082777885
1663843120050528749,0.3454329577507451,0.0,0.0,0.0,0.0,0.04276056667386108
1663843120050643608,0.3326391445007175,0.0,0.0,0.0,0.0,0.07120943348136864
1663843120093632140,0.33050684229237964,0.0,0.0,0.0,0.0,0.08203047484373349
1663843120093671969,0.32837454008404166,0.0,0.0,0.0,0.0,0.04276056667386108
1663843120137676732,0.3390360511257314,0.0,0.0,0.0,0.0,0.0466002910282486
1663843120137700582,0.3518298643757589,0.0,0.0,0.0,0.0,0.07068583470577033
1663843120181758724,0.34969756216742104,0.0,0.0,0.0,0.0,0.10053096491487339
1663843120181802792,0.3390360511257314,0.0,0.0,0.0,0.0,0.11414453308042916
1663843120225721898,0.3326391445007175,0.0,0.0,0.0,0.0,0.1181587903600161
1663843120225761588,0.3390360511257314,0.0,0.0,0.0,0.0,0.12601277199399058
1663843120269705654,0.3369037489173934,0.0,0.0,0.0,0.0,0.14329153158873445
1663843120269744283,0.33050684229237964,0.0,0.0,0.0,0.0,0.1684242728174528
1663843120269777301,0.32197763345902786,0.0,0.0,0.0,0.0,0.18727382873899157
1663843120313617907,0.32197763345902786,0.0,0.0,0.0,0.0,0.16982053621904827
1663843120313656749,0.317713029042352,0.0,0.0,0.0,0.0,0.1668534764906579
1663843120328202649,0.32410993566736584,0.0,0.0,0.0,0.0,0.17976891295541597
1663843120347940443,0.33050684229237964,0.0,0.0,0.0,0.0,0.18727382873899157
1663843120389841563,0.33050684229237964,0.0,0.0,0.0,0.0,0.20367992370773824
1663843120433753114,0.33050684229237964,0.0,0.0,0.0,0.0,0.199142067652553
1663843120433800026,0.32837454008404166,0.0,0.0,0.0,0.0,0.18448130193580062
