%time,field.linear.x,field.linear.y,field.linear.z,field.angular.x,field.angular.y,field.angular.z
1663843108672912900,0.0017829949501901865,0.0,0.0,0.0,0.0,-0.06225062161684036
1663843108726592317,0.0,0.0,0.0,0.0,0.0,0.040094961786377316
1663843108814234015,0.0,0.0,0.0,0.0,0.0,0.03379029432473806
1663843108903024324,0.0,0.0,0.0,0.0,0.0,0.02629174790611227
1663843109035330683,0.0,0.0,0.0,0.0,0.0,0.03241431084079374
1663843109154162897,0.0,0.0,0.0,0.0,0.0,0.035470514555929165
1663843109286215766,0.0,0.0,0.0,0.0,0.0,0.03685545561091848
1663843109406841381,0.0,0.0,0.0,0.0,0.0,0.039847702869238145
1663843109546495349,0.0,0.0,0.0,0.0,0.0,0.03913951950886279
1663843109670469420,0.0,0.0,0.0,0.0,0.0,0.03867024600192755
1663843109802430034,0.0,0.0,0.0,0.0,0.0,0.04593021827775094
1663843109926619809,0.0,0.0,0.0,0.0,0.0,0.05922080828275361
1663843110150792319,0.01706247590482235,0.0,0.0,0.0,0.0,-0.059817954897880554
1663843110240018085,0.0412478931248188,0.0,0.0,0.0,0.0,-0.05642246454954147
1663843110272155923,0.041105739772319794,0.0,0.0,0.0,0.0,-0.056534163653850555
1663843110466231865,0.07097222656011581,0.0,0.0,0.0,0.0,-0.051870524883270264
1663843110578694534,0.16131000220775601,0.0,0.0,0.0,0.0,-0.03518335893750191
1663843110619945940,0.16081246733665466,0.0,0.0,0.0,0.0,-0.03514844924211502
1663843110752220761,0.23649980127811432,0.0,0.0,0.0,0.0,0.076103076338768
1663843110866343143,0.23897260427474976,0.0,0.0,0.0,0.0,-0.014274446293711662
1663843111000692328,0.2860845923423767,0.0,0.0,0.0,0.0,-0.0011180115398019552
1663843111136496619,0.3310069143772125,0.0,0.0,0.0,0.0,0.012290249578654766
1663843111212137791,0.3866567611694336,0.0,0.0,0.0,0.0,0.029632192105054855
1663843111448566731,0.4953868091106415,0.0,0.0,0.0,0.0,0.06705545634031296
1663843111534813049,0.5433919429779053,0.0,0.0,0.0,0.0,0.08567027747631073
1663843111556106416,0.5422546863555908,0.0,0.0,0.0,0.0,0.08606471866369247
1663843111770024526,0.6315219402313232,0.0,0.0,0.0,0.0,0.1252627670764923
1663843111884563415,0.7128860950469971,0.0,0.0,0.0,0.0,0.2089613378047943
1663843111908482719,0.7123886346817017,0.0,0.0,0.0,0.0,0.20894040167331696
1663843112029223135,0.6974861621856688,0.0,0.0,0.0,0.0,0.16054300963878632
1663843112116070751,0.7186982035636902,0.0,0.0,0.0,0.0,0.17420662939548492
1663843112248401624,0.7331990599632263,0.0,0.0,0.0,0.0,0.1877324879169464
1663843112336285215,0.7432754635810851,0.0,0.0,0.0,0.0,0.2003532201051712
1663843112414985222,0.7472151517868042,0.0,0.0,0.0,0.0,0.21119114756584167
1663843112508406145,0.7484457492828369,0.0,0.0,0.0,0.0,0.22070984542369843
1663843112681469869,0.74476820230484,0.0,0.0,0.0,0.0,0.22758905589580536
1663843112768341350,0.7916179895401,0.0,0.0,0.0,0.0,0.5235987755982984
1663843112856243713,0.785485029220581,0.0,0.0,0.0,0.0,0.5235987755982984
1663843112982458383,0.7223716974258422,0.0,0.0,0.0,0.0,0.24204938113689423
1663843113064277630,0.7738341093063354,0.0,0.0,0.0,0.0,0.5235987755982984
1663843113226913920,0.7058560252189636,0.0,0.0,0.0,0.0,0.2514297366142273
1663843113321537131,0.6744237542152404,0.0,0.0,0.0,0.0,0.2555457353591919
1663843113361885855,0.675134539604187,0.0,0.0,0.0,0.0,0.2554619610309601
1663843113448174948,0.7192614674568176,0.0,0.0,0.0,0.0,0.3105859160423279
1663843113614576092,0.6348477602005005,0.0,0.0,0.0,0.0,0.25355765223503113
1663843113702542919,0.5970087051391602,0.0,0.0,0.0,0.0,0.25345027446746826
1663843113830347148,0.5881548523902893,0.0,0.0,0.0,0.0,0.25604888796806335
1663843113876482204,0.5884391665458679,0.0,0.0,0.0,0.0,0.2555287778377533
1663843114011585269,0.5669413805007935,0.0,0.0,0.0,0.0,0.2634649872779846
1663843114113084018,0.5551303029060364,0.0,0.0,0.0,0.0,0.2662222683429718
1663843114130371136,0.5559832453727722,0.0,0.0,0.0,0.0,0.2653251886367798
1663843114220452480,0.5471147894859314,0.0,0.0,0.0,0.0,0.26715248823165894
1663843114307455806,0.541479766368866,0.0,0.0,0.0,0.0,0.27196642756462097
1663843114516092473,0.5410177707672119,0.0,0.0,0.0,0.0,0.2835182249546051
1663843114679951952,0.543064296245575,0.0,0.0,0.0,0.0,0.2898574471473694
1663843114690772708,0.5457363724708557,0.0,0.0,0.0,0.0,0.2966111898422241
1663843114794638541,0.6260331869125366,0.0,0.0,0.0,0.0,0.3546786606311798
1663843114813545697,0.6260331869125366,0.0,0.0,0.0,0.0,0.35560715198516846
1663843114944840304,0.5509020090103149,0.0,0.0,0.0,0.0,0.30890417098999023
1663843115032964203,0.5556209683418274,0.0,0.0,0.0,0.0,0.3139149844646454
1663843115153680714,0.5592671036720276,0.0,0.0,0.0,0.0,0.31607088446617126
1663843115243255789,0.5620580911636353,0.0,0.0,0.0,0.0,0.3180478811264038
1663843115337811517,0.5670825839042664,0.0,0.0,0.0,0.0,0.3202713131904602
1663843115411949536,0.5734608769416808,0.0,0.0,0.0,0.0,0.3247296214103699
1663843115544899025,0.6532676815986633,0.0,0.0,0.0,0.0,0.37772729992866516
1663843115712741216,0.57878577709198,0.0,0.0,0.0,0.0,0.3293316960334778
1663843115846535598,0.5849151611328124,0.0,0.0,0.0,0.0,0.3301953673362732
1663843115991245325,0.5909615159034729,0.0,0.0,0.0,0.0,0.3286884129047394
1663843116010021539,0.5898953676223754,0.0,0.0,0.0,0.0,0.32844406366348267
1663843116142784795,0.5983169674873352,0.0,0.0,0.0,0.0,0.32392242550849915
1663843116230099978,0.6783441305160522,0.0,0.0,0.0,0.0,0.3728213906288147
1663843116279482446,0.6775623559951782,0.0,0.0,0.0,0.0,0.37325772643089294
1663843116483349643,0.6152611374855042,0.0,0.0,0.0,0.0,0.6981317007977313
1663843116679740183,0.6160505414009094,0.0,0.0,0.0,0.0,0.6981317007977313
1663843116695735055,0.6163304448127747,0.0,0.0,0.0,0.0,0.8726646259971643
1663843116818628654,0.6114161014556884,0.0,0.0,0.0,0.0,0.8726646259971643
1663843116837332019,0.6114161014556884,0.0,0.0,0.0,0.0,0.8726646259971643
1663843116994435073,0.6104952096939087,0.0,0.0,0.0,0.0,0.6981317007977313
1663843117132238976,0.6778932213783264,0.0,0.0,0.0,0.0,0.5235987755982984
1663843117251669373,0.6110207438468933,0.0,0.0,0.0,0.0,0.5235987755982984
1663843117479561025,0.6023675799369811,0.0,0.0,0.0,0.0,0.3490658503988654
1663843117547771689,0.5949386954307556,0.0,0.0,0.0,0.0,0.3490658503988654
1663843117551156773,0.5957205295562744,0.0,0.0,0.0,0.0,0.3490658503988654
1663843117730828835,0.5878850817680359,0.0,0.0,0.0,0.0,0.3490658503988654
1663843117851740945,0.565281093120575,0.0,0.0,0.0,0.0,0.18957991898059845
1663843117991988322,0.5526730418205261,0.0,0.0,0.0,0.0,0.17692798376083374
1663843118115528706,0.6051072478294371,0.0,0.0,0.0,0.0,0.23588545620441437
1663843118247071536,0.5303836464881897,0.0,0.0,0.0,0.0,0.17453292519943245
1663843118348856078,0.511287271976471,0.0,0.0,0.0,0.0,0.17453292519943245
1663843118454809860,0.5554057359695435,0.0,0.0,0.0,0.0,0.22410760819911957
1663843118693700412,0.4422494173049927,0.0,0.0,0.0,0.0,0.15227460861206055
1663843118782640468,0.4277980923652649,0.0,0.0,0.0,0.0,0.15688973665237427
1663843118798911543,0.4310675859451294,0.0,0.0,0.0,0.0,0.1565825641155243
1663843118939376057,0.4112595021724701,0.0,0.0,0.0,0.0,0.17453292519943245
1663843119011134152,0.3956963121891022,0.0,0.0,0.0,0.0,0.17453292519943245
1663843119101400748,0.37814682722091675,0.0,0.0,0.0,0.0,0.17453292519943245
1663843119269335700,0.36016967892646784,0.0,0.0,0.0,0.0,0.1755361557006836
1663843119377618224,0.3390938341617584,0.0,0.0,0.0,0.0,0.1890886127948761
1663843119413655100,0.34001782536506653,0.0,0.0,0.0,0.0,0.1892073154449463
1663843119571524805,0.3378064334392547,0.0,0.0,0.0,0.0,0.2000093162059784
1663843119616326554,0.4310630261898041,0.0,0.0,0.0,0.0,0.26726311445236206
1663843119709021857,0.432590514421463,0.0,0.0,0.0,0.0,0.277195543050766
1663843119869733132,0.33651527762413025,0.0,0.0,0.0,0.0,0.23578208684921265
1663843119977239170,0.3351157307624817,0.0,0.0,0.0,0.0,0.26734650135040283
1663843120011989888,0.3373190760612488,0.0,0.0,0.0,0.0,0.2670602798461914
1663843120178960006,0.33601391315460205,0.0,0.0,0.0,0.0,0.2817273736000061
1663843120346365363,0.33414360880851746,0.0,0.0,0.0,0.0,0.3147982656955719
1663843120354341794,0.33810898661613464,0.0,0.0,0.0,0.0,0.3362710177898407
1663843120521796975,0.4405747652053833,0.0,0.0,0.0,0.0,0.39482414722442627
1663843120568791842,0.34226262569427485,0.0,0.0,0.0,0.0,0.373758465051651
1663843120626462023,0.3477024435997009,0.0,0.0,0.0,0.0,0.3920329213142395
1663843120731282965,0.35106906294822693,0.0,0.0,0.0,0.0,0.40947917103767395
1663843120936413134,0.4527605473995209,0.0,0.0,0.0,0.0,0.45665815472602844
1663843121067555503,0.36967596411705017,0.0,0.0,0.0,0.0,0.45623862743377686
1663843121222511651,0.39857092499732966,0.0,0.0,0.0,0.0,0.4986310303211212
1663843121232359626,0.3964386284351349,0.0,0.0,0.0,0.0,0.49882301688194275
1663843121423969511,0.4100368618965149,0.0,0.0,0.0,0.0,0.5187690258026123
1663843121451606080,0.4276379644870758,0.0,0.0,0.0,0.0,0.5415045619010925
1663843121616748479,0.44493010640144337,0.0,0.0,0.0,0.0,0.5618047714233398
1663843121659261279,0.46084320545196533,0.0,0.0,0.0,0.0,0.5785697102546692
1663843121818435019,0.56456458568573,0.0,0.0,0.0,0.0,0.622441828250885
1663843121839782406,0.5822269320487975,0.0,0.0,0.0,0.0,0.6408007144927979
1663843121944107577,0.5224310755729675,0.0,0.0,0.0,0.0,0.628382682800293
1663843121959556388,0.5212227702140808,0.0,0.0,0.0,0.0,0.6269550323486328
1663843122092566200,0.6279367208480835,0.0,0.0,0.0,0.0,0.6715430617332458
1663843122186782831,0.6552468538284302,0.0,0.0,0.0,0.0,0.689069390296936
1663843122391300254,0.6277744770050049,0.0,0.0,0.0,0.0,0.6828826665878296
1663843122462452513,0.6524730920791626,0.0,0.0,0.0,0.0,0.6875917911529541
1663843122600296104,0.6713485717773438,0.0,0.0,0.0,0.0,0.7009774446487427
1663843122804349604,0.6910215616226195,0.0,0.0,0.0,0.0,0.7086772918701172
1663843122938833188,0.7380395531654358,0.0,0.0,0.0,0.0,0.7136816382408142
1663843123131627299,0.7600675821304321,0.0,0.0,0.0,0.0,0.7094147801399231
1663843123146985914,0.7777352929115295,0.0,0.0,0.0,0.0,0.6975840330123901
1663843123263457069,0.7910127639770508,0.0,0.0,0.0,0.0,0.678604006767273
1663843123272891825,0.7910127639770508,0.0,0.0,0.0,0.0,0.6785551905632019
1663843123412956856,0.7979525327682494,0.0,0.0,0.0,0.0,0.6552830934524536
1663843123544276616,0.7959712147712708,0.0,0.0,0.0,0.0,0.6265766620635986
1663843123715984485,0.7836309075355529,0.0,0.0,0.0,0.0,0.6000531911849976
1663843123834970673,0.7593498229980469,0.0,0.0,0.0,0.0,0.6981317007977313
1663843123972944145,0.7292557954788208,0.0,0.0,0.0,0.0,0.6981317007977313
1663843124067635680,0.6907795667648314,0.0,0.0,0.0,0.0,0.8726646259971643
1663843124180901868,0.6520408987998961,0.0,0.0,0.0,0.0,0.8726646259971643
1663843124316645443,0.6062455773353577,0.0,0.0,0.0,0.0,0.8726646259971643
1663843124434368014,0.5600911378860474,0.0,0.0,0.0,0.0,1.0471975511965972
1663843124566988711,0.5140975713729858,0.0,0.0,0.0,0.0,0.40050214529037476
1663843124698720217,0.47221362590789795,0.0,0.0,0.0,0.0,0.37136828899383545
1663843124826679550,0.5235779881477356,0.0,0.0,0.0,0.0,0.3806009292602539
1663843124959506524,0.39344069361686707,0.0,0.0,0.0,0.0,0.29019224643707275
1663843125084101943,0.44445580244064326,0.0,0.0,0.0,0.0,0.29216721653938293
1663843125216566253,0.30899474024772644,0.0,0.0,0.0,0.0,0.20570769906044006
1663843125339729510,0.2642687261104583,0.0,0.0,0.0,0.0,0.16715064644813538
1663843125423891470,0.22123174369335175,0.0,0.0,0.0,0.0,0.13282552361488342
1663843125559791843,0.18062926828861237,0.0,0.0,0.0,0.0,0.10521995276212692
1663843125684707854,0.14433455467224118,0.0,0.0,0.0,0.0,0.08017311245203018
1663843125821703591,0.10925626754760742,0.0,0.0,0.0,0.0,0.058486659079790115
1663843125895811043,0.0787428244948387,0.0,0.0,0.0,0.0,0.040088411420583725
1663843126032499932,0.05234234780073166,0.0,0.0,0.0,0.0,0.023823387920856476
1663843126198512899,0.001859040348790586,0.0,0.0,0.0,0.0,-0.0038194668013602495
1663843126292455723,0.0,0.0,0.0,0.0,0.0,0.9195566399398964
1663843126332600504,0.0,0.0,0.0,0.0,0.0,0.9045738911398663
1663843126421338569,0.0,0.0,0.0,0.0,0.0,0.9259973077396048
1663843126539016102,0.0,0.0,0.0,0.0,0.0,0.9561455251448056
1663843126626975216,0.0,0.0,0.0,0.0,0.0,0.9503801356684354
1663843126720104835,0.08645265549421309,0.0,0.0,0.0,0.0,0.06760314106941223
1663843126838664974,0.0,0.0,0.0,0.0,0.0,0.9418844580021389
1663843126936368564,0.07440734654664992,0.0,0.0,0.0,0.0,0.06454240530729294
1663843126993197890,0.0,0.0,0.0,0.0,0.0,0.8317578135822884
1663843127143051300,0.0,0.0,0.0,0.0,0.0,0.8179979506460024
1663843127230399652,0.0,0.0,0.0,0.0,0.0,0.7330783744512264
1663843127318333997,0.0,0.0,0.0,0.0,0.0,0.6586200759559504
1663843127394052443,0.0,0.0,0.0,0.0,0.0,0.6030347060828845
1663843127531066422,0.0,0.0,0.0,0.0,0.0,0.5570568774332287
1663843127619116350,0.0,0.0,0.0,0.0,0.0,0.4742511149727584
1663843127741316051,0.03716776892542839,0.0,0.0,0.0,0.0,0.06892085820436478
1663843127830731363,0.0,0.0,0.0,0.0,0.0,0.2995837176024214
1663843127918762414,0.03245069459080696,0.0,0.0,0.0,0.0,0.0677589625120163
1663843128047643969,0.04191498085856438,0.0,0.0,0.0,0.0,0.06632797420024872
1663843128177780137,0.03974129632115364,0.0,0.0,0.0,0.0,-0.05541029945015907
1663843128223141398,0.05522626638412475,0.0,0.0,0.0,0.0,-0.05657808110117912
1663843128342004715,0.07417174428701401,0.0,0.0,0.0,0.0,-0.05769534781575203
1663843128473133849,0.09246476739645003,0.0,0.0,0.0,0.0,-0.060361094772815704
1663843128559752864,0.10577109456062316,0.0,0.0,0.0,0.0,-0.06209450215101242
1663843128636114831,0.11698140949010849,0.0,0.0,0.0,0.0,-0.0634772926568985
1663843128771168205,0.09131035208702087,0.0,0.0,0.0,0.0,0.04571940377354622
1663843128900838036,0.13429619371891022,0.0,0.0,0.0,0.0,-0.0668422132730484
1663843128980548665,0.09918180853128433,0.0,0.0,0.0,0.0,0.04092646390199661
1663843129068909431,0.09817172586917876,0.0,0.0,0.0,0.0,0.039315033704042435
1663843129205284938,0.14203760027885437,0.0,0.0,0.0,0.0,-0.06995142251253128
1663843129276979916,0.1409369856119156,0.0,0.0,0.0,0.0,-0.07017455250024796
1663843129364105869,0.14361926913261414,0.0,0.0,0.0,0.0,-0.07269851118326187
1663843129501004822,0.1369791030883789,0.0,0.0,0.0,0.0,-0.07311005890369415
1663843129554077691,0.13155223429203033,0.0,0.0,0.0,0.0,-0.07294568419456482
1663843129664970851,0.1251518577337265,0.0,0.0,0.0,0.0,-0.07236538082361221
1663843129857014346,0.10782115906476974,0.0,0.0,0.0,0.0,-0.07059359550476074
1663843130021679366,0.10534156858921051,0.0,0.0,0.0,0.0,-0.0701565369963646
1663843130057931587,0.10136915743350983,0.0,0.0,0.0,0.0,-0.06837606430053711
1663843130123467173,0.09528970718383789,0.0,0.0,0.0,0.0,-0.06710204482078552
1663843130343161164,0.08766673505306243,0.0,0.0,0.0,0.0,-0.0651111751794815
1663843130390755744,0.0,0.0,0.0,0.0,0.0,-0.5682753068734558
1663843130539229690,0.0669880360364914,0.0,0.0,0.0,0.0,-0.059517260640859604
1663843130605031630,0.07011541724205017,0.0,0.0,0.0,0.0,-0.06043879687786102
1663843130655514843,0.0,0.0,0.0,0.0,0.0,-0.6107486132906808
1663843130766804575,0.0,0.0,0.0,0.0,0.0,-0.6409416229117869
1663843130902451408,0.0,0.0,0.0,0.0,0.0,-0.6636067685606288
1663843131023427998,0.0,0.0,0.0,0.0,0.0,-0.6305369770614182
1663843131275293869,0.0,0.0,0.0,0.0,0.0,-0.6616152643079167
1663843131475926631,0.0,0.0,0.0,0.0,0.0,-0.6507560358706247
1663843131502421960,0.0,0.0,0.0,0.0,0.0,-0.6174238295822594
1663843131572172777,0.0,0.0,0.0,0.0,0.0,-0.6084547189116171
1663843131573843407,0.0,0.0,0.0,0.0,0.0,-0.600974912185636
1663843131758331556,0.0,0.0,0.0,0.0,0.0,-0.6020983437570541
1663843131918369399,0.0,0.0,0.0,0.0,0.0,-0.5457647319561223
1663843132029209156,0.0,0.0,0.0,0.0,0.0,-0.5046008468786601
1663843132058633642,0.0,0.0,0.0,0.0,0.0,-0.4976532757057372
1663843132182619969,0.0,0.0,0.0,0.0,0.0,-0.46955786863569815
1663843132327377599,0.0,0.0,0.0,0.0,0.0,-0.4291951096128772
1663843132446799522,0.0,0.0,0.0,0.0,0.0,-0.38378124324968627
1663843132542800199,0.0,0.0,0.0,0.0,0.0,-0.3409777579513961
1663843132594664821,0.0,0.0,0.0,0.0,0.0,-0.2983120909285331
1663843132757660573,0.0,0.0,0.0,0.0,0.0,-0.27041943481782227
1663843132852828773,0.0,0.0,0.0,0.0,0.0,-0.23411056453276455
1663843132970145613,0.0,0.0,0.0,0.0,0.0,-0.2018481229608677
1663843133107463882,0.0,0.0,0.0,0.0,0.0,-0.16980681076586207
1663843133136389896,0.0,0.0,0.0,0.0,0.0,-0.14488497882952522
1663843133279890661,0.0,0.0,0.0,0.0,0.0,-0.13122989369518587
1663843133355212112,0.0,0.0,0.0,0.0,0.0,-0.11365825778439369
1663843133491164296,0.0,0.0,0.0,0.0,0.0,-0.10290129661306036
1663843133578655912,0.0,0.0,0.0,0.0,0.0,-0.09062818921244808
1663843133702975711,0.0,0.0,0.0,0.0,0.0,-0.07619230999983688
1663843133855186089,0.0,0.0,0.0,0.0,0.0,-0.043510606247578076
1663843133961327384,0.0,0.0,0.0,0.0,0.0,-0.01983189074990917
1663843134012786486,0.0,0.0,0.0,0.0,0.0,-0.01944099986316192
1663843134098093081,0.0,0.0,0.0,0.0,0.0,-0.003810554792584394
1663843134315241220,0.0,0.0,0.0,0.0,0.0,0.06622725845752246
1663843134354663338,0.0,0.0,0.0,0.0,0.0,0.11716813237934791
1663843134441767032,0.0,0.0,0.0,0.0,0.0,0.18178078512142268
1663843134482540862,0.0,0.0,0.0,0.0,0.0,0.1793236155514203
1663843134615429217,0.0,0.0,0.0,0.0,0.0,0.25162219599425834
1663843134707010031,0.0,0.0,0.0,0.0,0.0,0.327974065336736
1663843134826341212,0.0,0.0,0.0,0.0,0.0,0.40255654952108905
1663843134920200825,0.0,0.0,0.0,0.0,0.0,0.47743905126289743
1663843135038053104,0.0,0.0,0.0,0.0,0.0,0.622371032997113
1663843135119798842,0.0,0.0,0.0,0.0,0.0,0.6861005164733923
1663843135174786534,0.0,0.0,0.0,0.0,0.0,0.6799413162985032
1663843135263107602,0.0,0.0,0.0,0.0,0.0,0.7722010288156651
1663843135343258125,0.0,0.0,0.0,0.0,0.0,0.8474439639610654
1663843135522408184,0.0,0.0,0.0,0.0,0.0,0.9714617713926608
1663843135614767083,0.0,0.0,0.0,0.0,0.0,1.1021846409057565
1663843135654981261,0.0,0.0,0.0,0.0,0.0,1.08138752705837
1663843135775408727,0.0,0.0,0.0,0.0,0.0,1.2135278565121528
1663843135872356515,0.0,0.0,0.0,0.0,0.0,1.3135772763951497
1663843135964769879,0.0,0.0,0.0,0.0,0.0,1.4103017230356483
1663843136129535420,0.0,0.0,0.0,0.0,0.0,1.5707963267948966
1663843136204175309,0.0,0.0,0.0,0.0,0.0,1.5707963267948966
1663843136305798965,0.0,0.0,0.0,0.0,0.0,1.5707963267948966
1663843136339171883,0.0,0.0,0.0,0.0,0.0,1.5707963267948966
1663843136431941860,0.0,0.0,0.0,0.0,0.0,1.5707963267948966
1663843136518778714,0.0,0.0,0.0,0.0,0.0,1.5707963267948966
1663843136639160255,0.0,0.0,0.0,0.0,0.0,1.5707963267948966
1663843136779279111,0.0,0.0,0.0,0.0,0.0,1.5707963267948966
1663843136856380919,0.0,0.0,0.0,0.0,0.0,1.5707963267948966
1663843136987026409,0.0,0.0,0.0,0.0,0.0,1.5707963267948966
1663843137162463735,0.0,0.0,0.0,0.0,0.0,1.5707963267948966
1663843137310098161,0.0,0.0,0.0,0.0,0.0,1.5707963267948966
1663843137330932743,0.0,0.0,0.0,0.0,0.0,1.4936884954901695
1663843137497412533,0.0,0.0,0.0,0.0,0.0,1.5707963267948966
1663843137539967915,0.0,0.0,0.0,0.0,0.0,1.5180587708680922
1663843137626556459,0.0,0.0,0.0,0.0,0.0,1.5594868698282378
1663843137671058503,0.0,0.0,0.0,0.0,0.0,1.5371034196636482
1663843137759780749,0.0,0.0,0.0,0.0,0.0,1.5707963267948966
1663843137966579066,0.0,0.0,0.0,0.0,0.0,1.5707963267948966
1663843138144010751,0.0,0.0,0.0,0.0,0.0,1.5707963267948966
1663843138156289381,0.0,0.0,0.0,0.0,0.0,1.550065697074291
1663843139342130223,0.0,0.0,0.0,0.0,0.0,-1.2407287534724085
1663843139460180807,0.5585571527481079,0.0,0.0,0.0,0.0,-0.34956198930740356
1663843139592169766,0.5529459118843079,0.0,0.0,0.0,0.0,-0.3599097430706024
1663843139732681678,0.5506842732429504,0.0,0.0,0.0,0.0,-0.36514219641685486
1663843139886893924,0.5500200986862183,0.0,0.0,0.0,0.0,-0.36905908584594727
1663843140023443190,0.5572780966758727,0.0,0.0,0.0,0.0,-0.37275612354278564
1663843140144044510,0.5624066591262817,0.0,0.0,0.0,0.0,-0.3722289204597473
1663843140279172148,0.5669217705726624,0.0,0.0,0.0,0.0,-0.3664446473121643
1663843140359243111,0.5748008489608765,0.0,0.0,0.0,0.0,-0.36265647411346436
1663843140493608306,0.4965306520462036,0.0,0.0,0.0,0.0,-0.30803340673446655
1663843140580264506,0.5842828154563904,0.0,0.0,0.0,0.0,-0.35198941826820374
1663843140707858138,0.5867491960525513,0.0,0.0,0.0,0.0,-0.3438076078891754
1663843140897810553,0.5826152563095093,0.0,0.0,0.0,0.0,-0.33249983191490173
1663843141003701835,0.5769603252410889,0.0,0.0,0.0,0.0,-0.3070761561393738
1663843141101872452,0.4953905045986175,0.0,0.0,0.0,0.0,-0.23747791349887848
1663843141122708550,0.4945375621318817,0.0,0.0,0.0,0.0,-0.2375442236661911
1663843141208690600,0.5629957318305969,0.0,0.0,0.0,0.0,-0.2828865349292755
1663843141429652698,0.4640346467494964,0.0,0.0,0.0,0.0,-0.19672323763370514
1663843141492542849,0.45059111714363087,0.0,0.0,0.0,0.0,-0.18583084642887115
1663843141500095452,0.45329201221466064,0.0,0.0,0.0,0.0,-0.18612755835056305
1663843141632225936,0.4380156695842743,0.0,0.0,0.0,0.0,-0.17713181674480438
1663843141729882624,0.5003725886344909,0.0,0.0,0.0,0.0,-0.23696915805339813
1663843141799399682,0.48597577214241017,0.0,0.0,0.0,0.0,-0.5235987755982994
1663843141998796638,0.4667072892189026,0.0,0.0,0.0,0.0,-0.23512591421604156
1663843142098171352,0.46473535895347595,0.0,0.0,0.0,0.0,-0.23997624218463898
1663843142132928623,0.465588241815567,0.0,0.0,0.0,0.0,-0.24014030396938324
1663843142220283169,0.46279144287109375,0.0,0.0,0.0,0.0,-0.23972909152507782
1663843142299691062,0.3838697671890259,0.0,0.0,0.0,0.0,-0.18046292662620544
1663843142544194207,0.4763113260269165,0.0,0.0,0.0,0.0,-0.2508586645126343
1663843142603568671,0.4787154197692871,0.0,0.0,0.0,0.0,-0.25778821110725403
1663843142617819750,0.4784311056137085,0.0,0.0,0.0,0.0,-0.2572995126247406
1663843142755112865,0.48003169894218445,0.0,0.0,0.0,0.0,-0.26513293385505676
1663843142889482602,0.4042001962661743,0.0,0.0,0.0,0.0,-0.22094371914863586
1663843142920667310,0.4150092303752899,0.0,0.0,0.0,0.0,-0.23423033952713013
1663843143056784617,0.511522650718689,0.0,0.0,0.0,0.0,-0.30288952589035034
1663843143149006848,0.5189899206161498,0.0,0.0,0.0,0.0,-0.3151584565639496
1663843143219873054,0.5269185304641724,0.0,0.0,0.0,0.0,-0.32871025800704956
1663843143351108718,0.5345746874809265,0.0,0.0,0.0,0.0,-0.3440071940422058
1663843143443002501,0.4559476673603058,0.0,0.0,0.0,0.0,-0.3117704689502716
1663843143559626398,0.5505399107933044,0.0,0.0,0.0,0.0,-0.37659528851509094
1663843143650445511,0.5537594556808472,0.0,0.0,0.0,0.0,-0.3914191424846649
1663843143739556722,0.5544726848602295,0.0,0.0,0.0,0.0,-0.4069233238697052
1663843143952124316,0.557671844959259,0.0,0.0,0.0,0.0,-0.43177399039268494
1663843144039584409,0.5616936087608337,0.0,0.0,0.0,0.0,-0.6981317007977323
1663843144081246913,0.5614092946052551,0.0,0.0,0.0,0.0,-0.4449251890182495
1663843144122682073,0.4806135296821594,0.0,0.0,0.0,0.0,-0.4175766408443451
1663843144243510330,0.4899872839450836,0.0,0.0,0.0,0.0,-0.4330638349056244
1663843144376007357,0.5843037366867065,0.0,0.0,0.0,0.0,-0.8726646259971653
1663843144467236074,0.588621199131012,0.0,0.0,0.0,0.0,-0.8726646259971653
1663843144587914817,0.5919032692909241,0.0,0.0,0.0,0.0,-0.8726646259971653
1663843144681260436,0.512801468372345,0.0,0.0,0.0,0.0,-0.8726646259971653
1663843144740086980,0.604743242263794,0.0,0.0,0.0,0.0,-0.8726646259971653
1663843144904803965,0.6140089035034179,0.0,0.0,0.0,0.0,-0.8726646259971653
1663843145029490357,0.6204317808151244,0.0,0.0,0.0,0.0,-0.8726646259971653
1663843145116566284,0.5441803336143493,0.0,0.0,0.0,0.0,-0.8726646259971653
1663843145248220681,0.6501874327659606,0.0,0.0,0.0,0.0,-0.8726646259971653
1663843145320630175,0.6629063487052916,0.0,0.0,0.0,0.0,-0.8726646259971653
1663843145323893241,0.6623376607894896,0.0,0.0,0.0,0.0,-0.8726646259971653
1663843145506445205,0.673662006855011,0.0,0.0,0.0,0.0,-0.8726646259971653
1663843145623968139,0.6937652826309203,0.0,0.0,0.0,0.0,-0.8726646259971653
1663843145708633611,0.6253680586814879,0.0,0.0,0.0,0.0,-0.8726646259971653
1663843145757193576,0.6248705387115479,0.0,0.0,0.0,0.0,-0.8726646259971653
1663843145842944601,0.7133244872093201,0.0,0.0,0.0,0.0,-0.8726646259971653
1663843145965657880,0.7299673557281494,0.0,0.0,0.0,0.0,-0.8726646259971653
1663843146051824382,0.7417789697647095,0.0,0.0,0.0,0.0,-0.8726646259971653
1663843146182385227,0.751363217830658,0.0,0.0,0.0,0.0,-0.8726646259971653
1663843146350604376,0.761017382144928,0.0,0.0,0.0,0.0,-0.8726646259971653
1663843146501454302,0.7652813196182251,0.0,0.0,0.0,0.0,-0.8726646259971653
1663843146564592074,0.7690381407737732,0.0,0.0,0.0,0.0,-0.8726646259971653
1663843146695856940,0.7631195187568665,0.0,0.0,0.0,0.0,-0.8726646259971653
1663843146906901449,0.7522557377815247,0.0,0.0,0.0,0.0,-0.8726646259971653
1663843147013475845,0.7119525671005248,0.0,0.0,0.0,0.0,-1.0471975511965983
1663843147049495301,0.7118815183639525,0.0,0.0,0.0,0.0,-1.0471975511965983
1663843147212301314,0.6893531680107116,0.0,0.0,0.0,0.0,-1.3962634015954642
1663843147347074806,0.663098156452179,0.0,0.0,0.0,0.0,-1.2217304763960313
1663843147527697298,0.6541454792022705,0.0,0.0,0.0,0.0,-1.0471975511965983
1663843147564159130,0.6448236703872681,0.0,0.0,0.0,0.0,-1.0471975511965983
1663843147642874908,0.6366093158721924,0.0,0.0,0.0,0.0,-1.2217304763960313
1663843147688508943,0.6367514133453368,0.0,0.0,0.0,0.0,-1.2217304763960313
1663843147781157804,0.6287351250648497,0.0,0.0,0.0,0.0,-0.8726646259971653
1663843147901621215,0.6242215633392334,0.0,0.0,0.0,0.0,-0.8726646259971653
1663843148081340857,0.6165383458137512,0.0,0.0,0.0,0.0,-0.6981317007977323
1663843148143106299,0.6152496337890624,0.0,0.0,0.0,0.0,-0.6981317007977323
1663843148170019433,0.6148231625556946,0.0,0.0,0.0,0.0,-0.6981317007977323
1663843148335924331,0.5315269827842712,0.0,0.0,0.0,0.0,-0.6981317007977323
1663843148454811356,0.5375340580940247,0.0,0.0,0.0,0.0,-0.36776599287986755
1663843148459468786,0.5384580492973328,0.0,0.0,0.0,0.0,-0.36790913343429565
1663843148597683531,0.5445453524589539,0.0,0.0,0.0,0.0,-0.3642304837703705
1663843148762250640,0.5677331089973449,0.0,0.0,0.0,0.0,-0.3459223508834839
1663843148963429598,0.583275556564331,0.0,0.0,0.0,0.0,-0.3379010558128357
1663843148982875882,0.6732860803604126,0.0,0.0,0.0,0.0,-0.38229474425315857
1663843149060969997,0.6077520251274109,0.0,0.0,0.0,0.0,-0.3254915773868561
1663843149203696825,0.6177422404289246,0.0,0.0,0.0,0.0,-0.3209710121154785
1663843149310654267,0.6960386633872986,0.0,0.0,0.0,0.0,-0.3673926889896393
1663843149445610395,0.699548602104187,0.0,0.0,0.0,0.0,-0.36288681626319885
1663843149488011649,0.703630805015564,0.0,0.0,0.0,0.0,-0.3603115975856781
1663843149612340303,0.7080327272415161,0.0,0.0,0.0,0.0,-0.36091211438179016
1663843149746152320,0.6435909867286681,0.0,0.0,0.0,0.0,-0.3087060749530792
1663843149787134154,0.7168428301811217,0.0,0.0,0.0,0.0,-0.3613673448562622
1663843149915218601,0.7223163843154907,0.0,0.0,0.0,0.0,-0.36888644099235535
1663843150009204997,0.7245247960090637,0.0,0.0,0.0,0.0,-0.3745902478694916
1663843150128811107,0.7293534874916077,0.0,0.0,0.0,0.0,-0.38278108835220337
1663843150262407001,0.7381895184516907,0.0,0.0,0.0,0.0,-0.39609917998313904
1663843150304345051,0.7448123693466187,0.0,0.0,0.0,0.0,-0.41108056902885437
1663843150426951413,0.7501131296157837,0.0,0.0,0.0,0.0,-0.42582857608795166
1663843150568883699,0.6844885945320129,0.0,0.0,0.0,0.0,-0.3967105448246002
1663843150688196111,0.7603132724761963,0.0,0.0,0.0,0.0,-0.4593760669231415
1663843150775470669,0.6933838725090027,0.0,0.0,0.0,0.0,-1.7453292519943302
1663843150914069968,0.7691015005111694,0.0,0.0,0.0,0.0,-1.7453292519943302
1663843151081402033,0.699432909488678,0.0,0.0,0.0,0.0,-1.9198621771937632
1663843151124080234,0.7725857496261597,0.0,0.0,0.0,0.0,-1.9198621771937632
1663843151289416751,0.7733436226844786,0.0,0.0,0.0,0.0,-1.9198621771937632
1663843151336226619,0.7744097113609314,0.0,0.0,0.0,0.0,-1.9198621771937632
1663843151432939441,0.7771063446998595,0.0,0.0,0.0,0.0,-1.9198621771937632
1663843151552188723,0.7811747193336487,0.0,0.0,0.0,0.0,-1.9198621771937632
1663843151711029091,0.782227635383606,0.0,0.0,0.0,0.0,-1.7453292519943302
1663843151751836212,0.7073058485984801,0.0,0.0,0.0,0.0,-1.9198621771937632
1663843151844590911,0.7793501615524292,0.0,0.0,0.0,0.0,-1.7453292519943302
1663843151932257653,0.7687178850173949,0.0,0.0,0.0,0.0,-1.7453292519943302
1663843152004591485,0.7550210356712341,0.0,0.0,0.0,0.0,-1.9198621771937632
1663843152203057430,0.6667425632476807,0.0,0.0,0.0,0.0,-1.9198621771937632
1663843152314739053,0.7120841145515442,0.0,0.0,0.0,0.0,-1.9198621771937632
1663843152364345599,0.7132924199104309,0.0,0.0,0.0,0.0,-1.9198621771937632
1663843152568160028,0.6851071119308472,0.0,0.0,0.0,0.0,-1.7453292519943302
1663843152646291348,0.6717715859413147,0.0,0.0,0.0,0.0,-1.7453292519943302
1663843152663990430,0.6717715859413147,0.0,0.0,0.0,0.0,-1.7453292519943302
1663843152788975922,0.653497576713562,0.0,0.0,0.0,0.0,-1.5707963267948972
1663843152968017143,0.6327208876609802,0.0,0.0,0.0,0.0,-1.3962634015954642
1663843153091073165,0.6101371049880981,0.0,0.0,0.0,0.0,-1.3962634015954642
1663843153276853836,0.5510461330413818,0.0,0.0,0.0,0.0,-0.5235987755982994
1663843153354650224,0.5112993121147156,0.0,0.0,0.0,0.0,-0.5235987755982994
1663843153399184632,0.5115125179290771,0.0,0.0,0.0,0.0,-0.5235987755982994
1663843153618308146,0.4674625098705292,0.0,0.0,0.0,0.0,-0.5235987755982994
1663843153704397189,0.4182127714157104,0.0,0.0,0.0,0.0,-0.17090900242328644
1663843153795768660,0.3726368844509125,0.0,0.0,0.0,0.0,-0.1449042111635208
1663843153911554089,0.31691989302635193,0.0,0.0,0.0,0.0,-0.1191311776638031
1663843154007104464,0.2545171678066253,0.0,0.0,0.0,0.0,-0.09460894018411636
1663843154127743881,0.14468951523303983,0.0,0.0,0.0,0.0,0.02815130352973938
1663843154352055223,0.07732082903385161,0.0,0.0,0.0,0.0,-0.06249459460377693
1663843154458150035,0.026338787749409672,0.0,0.0,0.0,0.0,-0.06157957762479782
1663843154471883018,0.0276181697845459,0.0,0.0,0.0,0.0,-0.061617977917194366
1663843154601919531,0.0,0.0,0.0,0.0,0.0,0.023771839217467526
1663843154771172131,0.0,0.0,0.0,0.0,0.0,0.08404265498421297
1663843154909942914,0.0,0.0,0.0,0.0,0.0,0.10132367782508583
1663843154983843316,0.0,0.0,0.0,0.0,0.0,0.11201785033293186
1663843155118786148,0.0,0.0,0.0,0.0,0.0,0.12054062091661699
1663843155251837362,0.0,0.0,0.0,0.0,0.0,0.11416401882255683
1663843155458615188,0.0,0.0,0.0,0.0,0.0,0.09342167891146934
1663843155542589138,0.0,0.0,0.0,0.0,0.0,0.06953768711652197
1663843155670762096,0.0,0.0,0.0,0.0,0.0,0.05693642576713026
1663843155715216181,0.0,0.0,0.0,0.0,0.0,0.052730348974880194
1663843155806192249,0.0,0.0,0.0,0.0,0.0,0.04160069058289845
1663843155927084756,0.0,0.0,0.0,0.0,0.0,0.03281404037199896
1663843156018730062,0.0,0.0,0.0,0.0,0.0,0.022061944804070678
1663843156151794251,0.021548919379711148,0.0,0.0,0.0,0.0,-0.06001782789826393
1663843156275135036,0.06972317397594452,0.0,0.0,0.0,0.0,-0.05733584612607956
1663843156414182481,0.13369788229465485,0.0,0.0,0.0,0.0,-0.054644763469696045
1663843156485977333,0.1977075636386871,0.0,0.0,0.0,0.0,-0.0516342855989933
1663843156619967247,0.25840044021606445,0.0,0.0,0.0,0.0,-0.05180279165506363
1663843156763440172,0.3186694383621215,0.0,0.0,0.0,0.0,-0.05254494026303291
1663843156875271749,0.37409791350364685,0.0,0.0,0.0,0.0,-0.0540279783308506
1663843156963136364,0.43682849407196045,0.0,0.0,0.0,0.0,-0.05805932357907295
1663843157085389538,0.48924580216407776,0.0,0.0,0.0,0.0,-0.06336596608161926
1663843157172079866,0.5381181240081787,0.0,0.0,0.0,0.0,-0.06876017153263092
1663843157353732899,0.5765095949172973,0.0,0.0,0.0,0.0,-0.07553686946630478
1663843157385667968,0.5935391783714294,0.0,0.0,0.0,0.0,-0.005068083293735981
1663843157567088106,0.6286962032318114,0.0,0.0,0.0,0.0,-0.021275943145155907
1663843157705565819,0.6544152498245238,0.0,0.0,0.0,0.0,-0.102085642516613
1663843157736896239,0.6537044644355774,0.0,0.0,0.0,0.0,-0.10218688100576401
1663843157828054058,0.6530779600143433,0.0,0.0,0.0,0.0,-0.10772847384214401
1663843157950039975,0.6372850537300109,0.0,0.0,0.0,0.0,-0.11835519969463348
1663843157991828047,0.6371428966522217,0.0,0.0,0.0,0.0,-0.11809340119361877
1663843158087163795,0.6159484982490538,0.0,0.0,0.0,0.0,-0.1237206682562828
1663843158204979833,0.5895867943763733,0.0,0.0,0.0,0.0,-0.1287011057138443
1663843158339300936,0.5597637295722961,0.0,0.0,0.0,0.0,-0.6981317007977323
1663843158436217666,0.5241581201553345,0.0,0.0,0.0,0.0,-0.6981317007977323
1663843158508709835,0.48687374591827387,0.0,0.0,0.0,0.0,-0.8726646259971653
1663843158634198804,0.4055255949497223,0.0,0.0,0.0,0.0,-1.2217304763960313
1663843158648611394,0.4064495861530304,0.0,0.0,0.0,0.0,-1.2217304763960313
1663843158724998907,0.3671567738056183,0.0,0.0,0.0,0.0,-1.3962634015954642
1663843158816080158,0.3256864845752716,0.0,0.0,0.0,0.0,-1.0471975511965983
1663843158911345172,0.21772319078445435,0.0,0.0,0.0,0.0,-1.2217304763960313
1663843158987489770,0.2430619448423385,0.0,0.0,0.0,0.0,-0.3490658503988664
1663843159160129064,0.2023050785064697,0.0,0.0,0.0,0.0,-0.10560605674982071
1663843159248442237,0.1593404859304428,0.0,0.0,0.0,0.0,-0.0865449607372284
1663843159306590081,0.11800088733434677,0.0,0.0,0.0,0.0,-0.07453922927379608
1663843159419017829,0.0011301855556666849,0.0,0.0,0.0,0.0,0.046762604266405106
1663843159509126925,0.0,0.0,0.0,0.0,0.0,-0.4347560709881666
1663843159666247928,0.0,0.0,0.0,0.0,0.0,-0.4133795267478126
1663843159802499243,0.0,0.0,0.0,0.0,0.0,-0.37380082684404997
1663843159843345548,0.0,0.0,0.0,0.0,0.0,-0.33644052353196224
1663843159931300132,0.0,0.0,0.0,0.0,0.0,-0.31544363628948124
1663843160010484322,0.0,0.0,0.0,0.0,0.0,-0.2901993618926685
1663843160105870556,0.0,0.0,0.0,0.0,0.0,-0.26458386653035526
1663843160274498880,0.0,0.0,0.0,0.0,0.0,-0.2453617788223432
1663843160362818608,0.0,0.0,0.0,0.0,0.0,-0.22078974297555728
1663843160498320269,0.0,0.0,0.0,0.0,0.0,-0.2061512890943882
1663843160506728506,0.0,0.0,0.0,0.0,0.0,-0.1852959442083947
1663843160622285019,0.0,0.0,0.0,0.0,0.0,-0.18096393893007073
1663843160711210643,0.0,0.0,0.0,0.0,0.0,-0.1683309589706248
1663843160838277334,0.0,0.0,0.0,0.0,0.0,-0.16551294380098533
1663843160926365494,0.0,0.0,0.0,0.0,0.0,-0.15873470382304997
1663843161134780424,0.0,0.0,0.0,0.0,0.0,-0.16231985451673106
1663843161228317317,0.0,0.0,0.0,0.0,0.0,-0.1583025008779118
1663843161327028647,0.0,0.0,0.0,0.0,0.0,-0.15877975836127797
1663843161522183729,0.0,0.0,0.0,0.0,0.0,-0.18947336794366687
1663843161656349986,0.0,0.0,0.0,0.0,0.0,-0.22381247108986427
1663843161730516420,0.0,0.0,0.0,0.0,0.0,-0.2696247570816623
1663843161910954738,0.0,0.0,0.0,0.0,0.0,-0.33794595484563594
1663843161955531339,0.0,0.0,0.0,0.0,0.0,-0.3881692291019287
1663843162078991691,0.0,0.0,0.0,0.0,0.0,-0.45418923549868623
1663843162215951701,0.0,0.0,0.0,0.0,0.0,-0.5506203414977062
1663843162294663059,0.0,0.0,0.0,0.0,0.0,-0.7345740296362188
1663843162507448535,0.0,0.0,0.0,0.0,0.0,-1.2011464683269464
1663843162628143354,0.0,0.0,0.0,0.0,0.0,-1.3552875431583156
1663843162682518730,0.0,0.0,0.0,0.0,0.0,-1.3330311474363656
1663843162787684233,0.0,0.0,0.0,0.0,0.0,-1.539870465443436
1663843162942855144,0.0,0.0,0.0,0.0,0.0,-1.5707963267948966
1663843163034382415,0.0,0.0,0.0,0.0,0.0,-1.5707963267948966
1663843163153105515,0.0,0.0,0.0,0.0,0.0,-1.5707963267948966
1663843163291073645,0.0,0.0,0.0,0.0,0.0,-1.5707963267948966
1663843163387475265,0.0,0.0,0.0,0.0,0.0,-1.5707963267948966
1663843163494837618,0.0,0.0,0.0,0.0,0.0,-1.5707963267948966
1663843163627498975,0.0,0.0,0.0,0.0,0.0,-1.5707963267948966
1663843163720978294,0.0,0.0,0.0,0.0,0.0,-1.5707963267948966
1663843163882503238,0.0,0.0,0.0,0.0,0.0,-1.5707963267948966
1663843163927204130,0.0,0.0,0.0,0.0,0.0,-1.5707963267948966
1663843164134614523,0.0,0.0,0.0,0.0,0.0,-1.5222257660195242
1663843164239462659,0.0,0.0,0.0,0.0,0.0,-1.3958986677445286
1663843164267047976,0.0,0.0,0.0,0.0,0.0,-1.3876690471374233
1663843164391442258,0.0,0.0,0.0,0.0,0.0,-1.4038485012276423
1663843164478662931,0.0,0.0,0.0,0.0,0.0,-1.4018723433433007
1663843164575141129,0.0,0.0,0.0,0.0,0.0,-1.4036478249494573
1663843164696581804,0.0,0.0,0.0,0.0,0.0,-1.4068228512178158
1663843164784525205,0.0,0.0,0.0,0.0,0.0,-1.4048335228920261
1663843164874683081,0.0,0.0,0.0,0.0,0.0,-1.4061176963877267
1663843164996747760,0.0,0.0,0.0,0.0,0.0,-1.410831358430683
1663843165085039184,0.0,0.0,0.0,0.0,0.0,-1.406216943504919
1663843165170856189,0.0,0.0,0.0,0.0,0.0,-1.4063994121876955
1663843165386489450,0.0,0.0,0.0,0.0,0.0,-1.4243947403810984
1663843166579006332,0.0,0.0,0.0,0.0,0.0,1.5707963267948966
1663843166710416941,0.0,0.0,0.0,0.0,0.0,1.5707963267948966
1663843166879377228,0.0,0.0,0.0,0.0,0.0,1.5707963267948966
1663843166922354598,0.0,0.0,0.0,0.0,0.0,1.5707963267948966
1663843167015476870,0.0,0.0,0.0,0.0,0.0,1.5707963267948966
1663843167091542729,0.0,0.0,0.0,0.0,0.0,1.5707963267948966
1663843167178847145,0.0,0.0,0.0,0.0,0.0,1.5707963267948966
1663843167249133323,0.0,0.0,0.0,0.0,0.0,1.5707963267948966
1663843167387923738,0.0,0.0,0.0,0.0,0.0,1.5707963267948966
1663843167559866001,0.0,0.0,0.0,0.0,0.0,1.5707963267948966
1663843167654769589,0.0,0.0,0.0,0.0,0.0,1.5707963267948966
1663843167780734294,0.0,0.0,0.0,0.0,0.0,1.5707963267948966
1663843167822986487,0.0,0.0,0.0,0.0,0.0,1.5707963267948966
1663843167911415116,0.0,0.0,0.0,0.0,0.0,1.5707963267948966
1663843167971235810,0.0,0.0,0.0,0.0,0.0,1.5707963267948966
1663843168130091952,0.0,0.0,0.0,0.0,0.0,1.5707963267948966
1663843168283022281,0.0,0.0,0.0,0.0,0.0,1.5707963267948966
1663843168419774522,0.0,0.0,0.0,0.0,0.0,1.5707963267948966
1663843168430080053,0.0,0.0,0.0,0.0,0.0,1.5707963267948966
1663843168675633675,0.0,0.0,0.0,0.0,0.0,1.5707963267948966
1663843168712947138,0.0,0.0,0.0,0.0,0.0,1.5707963267948966
1663843168844739725,0.0,0.0,0.0,0.0,0.0,1.5707963267948966
1663843168930498924,0.0,0.0,0.0,0.0,0.0,1.5707963267948966
1663843169050333086,0.0,0.0,0.0,0.0,0.0,1.5707963267948966
1663843169184116911,0.0,0.0,0.0,0.0,0.0,1.5707963267948966
1663843169350967171,0.0,0.0,0.0,0.0,0.0,1.5707963267948966
1663843169468668931,0.0,0.0,0.0,0.0,0.0,1.5707963267948966
1663843169486924854,0.0,0.0,0.0,0.0,0.0,1.5707963267948966
1663843169694835315,0.0,0.0,0.0,0.0,0.0,1.5707963267948966
1663843169808261945,0.0,0.0,0.0,0.0,0.0,1.5707963267948966
1663843169834639111,0.0,0.0,0.0,0.0,0.0,1.5707963267948966
1663843169954515492,0.0,0.0,0.0,0.0,0.0,1.5707963267948966
1663843170130450233,0.0,0.0,0.0,0.0,0.0,1.5707963267948966
1663843170217872817,0.0,0.0,0.0,0.0,0.0,1.5707963267948966
1663843170383140337,0.0,0.0,0.0,0.0,0.0,1.5707963267948966
