%time,field.linear.x,field.linear.y,field.linear.z,field.angular.x,field.angular.y,field.angular.z
1663843108705308051,0.0017829949501901865,0.0,0.0,0.0,0.0,-0.06225062161684036
1663843108754846556,0.0,0.0,0.0,0.0,0.0,0.040094961786377316
1663843108804760345,0.0,0.0,0.0,0.0,0.0,0.040094961786377316
1663843108855618172,0.0,0.0,0.0,0.0,0.0,0.03379029432473806
1663843108905124652,0.0,0.0,0.0,0.0,0.0,0.02629174790611227
1663843108955760610,0.0,0.0,0.0,0.0,0.0,0.02629174790611227
1663843109005177791,0.0,0.0,0.0,0.0,0.0,0.02629174790611227
1663843109055067545,0.0,0.0,0.0,0.0,0.0,0.03241431084079374
1663843109104999834,0.0,0.0,0.0,0.0,0.0,0.03241431084079374
1663843109154728628,0.0,0.0,0.0,0.0,0.0,0.035470514555929165
1663843109204974848,0.0,0.0,0.0,0.0,0.0,0.035470514555929165
1663843109254925898,0.0,0.0,0.0,0.0,0.0,0.035470514555929165
1663843109306036743,0.0,0.0,0.0,0.0,0.0,0.03685545561091848
1663843109354777962,0.0,0.0,0.0,0.0,0.0,0.03685545561091848
1663843109405832179,0.0,0.0,0.0,0.0,0.0,0.03685545561091848
1663843109454757238,0.0,0.0,0.0,0.0,0.0,0.039847702869238145
1663843109504833485,0.0,0.0,0.0,0.0,0.0,0.039847702869238145
1663843109554774344,0.0,0.0,0.0,0.0,0.0,0.03913951950886279
1663843109605164228,0.0,0.0,0.0,0.0,0.0,0.03913951950886279
1663843109654714414,0.0,0.0,0.0,0.0,0.0,0.03913951950886279
1663843109705320823,0.0,0.0,0.0,0.0,0.0,0.03867024600192755
1663843109755030669,0.0,0.0,0.0,0.0,0.0,0.03867024600192755
1663843109804950251,0.0,0.0,0.0,0.0,0.0,0.04593021827775094
1663843109855157956,0.0,0.0,0.0,0.0,0.0,0.04593021827775094
1663843109905205673,0.0,0.0,0.0,0.0,0.0,0.04593021827775094
1663843109954938910,0.0,0.0,0.0,0.0,0.0,0.05922080828275361
1663843110005229712,0.0,0.0,0.0,0.0,0.0,0.05922080828275361
1663843110054770644,0.0,0.0,0.0,0.0,0.0,0.05922080828275361
1663843110104999905,0.0,0.0,0.0,0.0,0.0,0.05922080828275361
1663843110155033328,0.015,0.0,0.0,0.0,0.0,-0.04542880163727302
1663843110204963890,0.01706247590482235,0.0,0.0,0.0,0.0,-0.059817954897880554
1663843110255003436,0.03206247590482235,0.0,0.0,0.0,0.0,-0.05771204310972354
1663843110306875495,0.041105739772319794,0.0,0.0,0.0,0.0,-0.056534163653850555
1663843110354739687,0.041105739772319794,0.0,0.0,0.0,0.0,-0.056534163653850555
1663843110405942043,0.041105739772319794,0.0,0.0,0.0,0.0,-0.056534163653850555
1663843110454932720,0.041105739772319794,0.0,0.0,0.0,0.0,-0.056534163653850555
1663843110505956101,0.05610573977231979,0.0,0.0,0.0,0.0,-0.05419192025389067
1663843110555044680,0.07097222656011581,0.0,0.0,0.0,0.0,-0.051870524883270264
1663843110605111895,0.08597222656011581,0.0,0.0,0.0,0.0,-0.04909972952781628
1663843110655383929,0.10097222656011581,0.0,0.0,0.0,0.0,-0.04630351719452938
1663843110704951530,0.11597222656011581,0.0,0.0,0.0,0.0,-0.043507304861242484
1663843110754868045,0.1309722265601158,0.0,0.0,0.0,0.0,-0.028621452207208832
1663843110805312589,0.14597222656011583,0.0,0.0,0.0,0.0,-0.013735599553175182
1663843110854969174,0.16097222656011584,0.0,0.0,0.0,0.0,0.001150253100858473
1663843110905659812,0.17597222656011585,0.0,0.0,0.0,0.0,-0.0018160208800833372
1663843110955062285,0.19097222656011587,0.0,0.0,0.0,0.0,-0.004782294861025148
1663843111004947833,0.20597222656011588,0.0,0.0,0.0,0.0,-0.004204407334347737
1663843111055057196,0.2209722265601159,0.0,0.0,0.0,0.0,-0.003626519807670327
1663843111105134351,0.2359722265601159,0.0,0.0,0.0,0.0,-0.0030486322809929163
1663843111155030275,0.2509722265601159,0.0,0.0,0.0,0.0,-0.0006275875742692782
1663843111204979823,0.26597222656011593,0.0,0.0,0.0,0.0,0.0017934571324543609
1663843111254962057,0.28097222656011595,0.0,0.0,0.0,0.0,0.005253560996970298
1663843111304935589,0.29597222656011596,0.0,0.0,0.0,0.0,0.008713664861486236
1663843111354975303,0.31097222656011597,0.0,0.0,0.0,0.0,0.012173768726002173
1663843111405934513,0.325972226560116,0.0,0.0,0.0,0.0,0.015633872590518114
1663843111454985111,0.340972226560116,0.0,0.0,0.0,0.0,0.020186749589857212
1663843111505035437,0.355972226560116,0.0,0.0,0.0,0.0,0.02473962658919631
1663843111555013581,0.370972226560116,0.0,0.0,0.0,0.0,0.029616166692743102
1663843111604907261,0.38597222656011604,0.0,0.0,0.0,0.0,0.0345596283908954
1663843111654891927,0.40097222656011605,0.0,0.0,0.0,0.0,0.0395030900890477
1663843111705256933,0.41597222656011607,0.0,0.0,0.0,0.0,0.0444465517872
1663843111755247195,0.4309722265601161,0.0,0.0,0.0,0.0,0.049390013485352297
1663843111805282376,0.4459722265601161,0.0,0.0,0.0,0.0,0.05506487226741445
1663843111855200202,0.4609722265601161,0.0,0.0,0.0,0.0,0.06073973104947661
1663843111905036194,0.4759722265601161,0.0,0.0,0.0,0.0,0.06956546229914598
1663843111954972550,0.49097222656011613,0.0,0.0,0.0,0.0,0.07840843604713299
1663843112004946404,0.5059722265601161,0.0,0.0,0.0,0.0,0.08725140979512
1663843112055404216,0.5209722265601161,0.0,0.0,0.0,0.0,0.09299184844290846
1663843112104749650,0.5359722265601161,0.0,0.0,0.0,0.0,0.09873228709069692
1663843112155096533,0.5509722265601161,0.0,0.0,0.0,0.0,0.10492798598987246
1663843112204962374,0.5659722265601161,0.0,0.0,0.0,0.0,0.11112368488904802
1663843112254828904,0.5809722265601162,0.0,0.0,0.0,0.0,0.11799538138675317
1663843112304994662,0.5959722265601162,0.0,0.0,0.0,0.0,0.12486707788445832
1663843112355033997,0.6109722265601162,0.0,0.0,0.0,0.0,0.13255388882093155
1663843112404998586,0.6259722265601162,0.0,0.0,0.0,0.0,0.1402406997574048
1663843112456010594,0.6409722265601162,0.0,0.0,0.0,0.0,0.14901858692184522
1663843112505042826,0.6559722265601162,0.0,0.0,0.0,0.0,0.15779647408628564
1663843112554792718,0.6709722265601162,0.0,0.0,0.0,0.0,0.1680015635245982
1663843112604959444,0.6859722265601162,0.0,0.0,0.0,0.0,0.17820665296291074
1663843112655013293,0.7009722265601163,0.0,0.0,0.0,0.0,0.1884117424012233
1663843112705217227,0.7159722265601163,0.0,0.0,0.0,0.0,0.20182986341407752
1663843112755066481,0.7309722265601163,0.0,0.0,0.0,0.0,0.21524798442693174
1663843112806467863,0.7459722265601163,0.0,0.0,0.0,0.0,0.2915148436483596
1663843112855059826,0.7609722265601163,0.0,0.0,0.0,0.0,0.3677817028697875
1663843112905212927,0.7759722265601163,0.0,0.0,0.0,0.0,0.4631300856435487
1663843112954750475,0.785485029220581,0.0,0.0,0.0,0.0,0.5235987755982984
1663843113007070522,0.7223716974258422,0.0,0.0,0.0,0.0,0.24204938113689423
1663843113055013526,0.7223716974258422,0.0,0.0,0.0,0.0,0.24204938113689423
1663843113105674067,0.7373716974258422,0.0,0.0,0.0,0.0,0.32411395531053244
1663843113155473836,0.7523716974258422,0.0,0.0,0.0,0.0,0.4061785294841707
1663843113209850240,0.7673716974258422,0.0,0.0,0.0,0.0,0.48824310365780904
1663843113255101056,0.7058560252189636,0.0,0.0,0.0,0.0,0.2514297366142273
1663843113304917475,0.7058560252189636,0.0,0.0,0.0,0.0,0.2514297366142273
1663843113355252337,0.6744237542152404,0.0,0.0,0.0,0.0,0.2555457353591919
1663843113408075785,0.675134539604187,0.0,0.0,0.0,0.0,0.2554619610309601
1663843113455570805,0.690134539604187,0.0,0.0,0.0,0.0,0.27420016387916096
1663843113505136615,0.705134539604187,0.0,0.0,0.0,0.0,0.29293836672736184
1663843113554931746,0.7192614674568176,0.0,0.0,0.0,0.0,0.3105859160423279
1663843113604858289,0.7192614674568176,0.0,0.0,0.0,0.0,0.3105859160423279
1663843113654837892,0.6348477602005005,0.0,0.0,0.0,0.0,0.25355765223503113
1663843113704836346,0.5970087051391602,0.0,0.0,0.0,0.0,0.25345027446746826
1663843113755921750,0.5970087051391602,0.0,0.0,0.0,0.0,0.25345027446746826
1663843113805075655,0.5970087051391602,0.0,0.0,0.0,0.0,0.25345027446746826
1663843113855163859,0.5881548523902893,0.0,0.0,0.0,0.0,0.25604888796806335
1663843113905033608,0.5884391665458679,0.0,0.0,0.0,0.0,0.2555287778377533
1663843113954983124,0.5884391665458679,0.0,0.0,0.0,0.0,0.2555287778377533
1663843114005528996,0.5884391665458679,0.0,0.0,0.0,0.0,0.2555287778377533
1663843114055225342,0.5669413805007935,0.0,0.0,0.0,0.0,0.2634649872779846
1663843114104963058,0.5669413805007935,0.0,0.0,0.0,0.0,0.2634649872779846
1663843114155135081,0.5559832453727722,0.0,0.0,0.0,0.0,0.2653251886367798
1663843114205173234,0.5559832453727722,0.0,0.0,0.0,0.0,0.2653251886367798
1663843114255375141,0.5471147894859314,0.0,0.0,0.0,0.0,0.26715248823165894
1663843114305156126,0.5471147894859314,0.0,0.0,0.0,0.0,0.26715248823165894
1663843114355266908,0.541479766368866,0.0,0.0,0.0,0.0,0.27196642756462097
1663843114404987283,0.541479766368866,0.0,0.0,0.0,0.0,0.27196642756462097
1663843114455006181,0.541479766368866,0.0,0.0,0.0,0.0,0.27196642756462097
1663843114505174082,0.541479766368866,0.0,0.0,0.0,0.0,0.27196642756462097
1663843114555294713,0.5410177707672119,0.0,0.0,0.0,0.0,0.2835182249546051
1663843114604930164,0.5410177707672119,0.0,0.0,0.0,0.0,0.2835182249546051
1663843114654908059,0.5410177707672119,0.0,0.0,0.0,0.0,0.2835182249546051
1663843114705136452,0.5457363724708557,0.0,0.0,0.0,0.0,0.2966111898422241
1663843114754873270,0.5457363724708557,0.0,0.0,0.0,0.0,0.2966111898422241
1663843114805012143,0.5607363724708557,0.0,0.0,0.0,0.0,0.30745859478463244
1663843114854957173,0.5757363724708557,0.0,0.0,0.0,0.0,0.3185192929853554
1663843114905416805,0.5907363724708558,0.0,0.0,0.0,0.0,0.3295799911860784
1663843114955046405,0.5509020090103149,0.0,0.0,0.0,0.0,0.30890417098999023
1663843115005088627,0.5509020090103149,0.0,0.0,0.0,0.0,0.30890417098999023
1663843115055292317,0.5556209683418274,0.0,0.0,0.0,0.0,0.3139149844646454
1663843115105021817,0.5556209683418274,0.0,0.0,0.0,0.0,0.3139149844646454
1663843115154924814,0.5592671036720276,0.0,0.0,0.0,0.0,0.31607088446617126
1663843115205168674,0.5592671036720276,0.0,0.0,0.0,0.0,0.31607088446617126
1663843115254924434,0.5620580911636353,0.0,0.0,0.0,0.0,0.3180478811264038
1663843115305091039,0.5620580911636353,0.0,0.0,0.0,0.0,0.3180478811264038
1663843115355109934,0.5670825839042664,0.0,0.0,0.0,0.0,0.3202713131904602
1663843115404985386,0.5670825839042664,0.0,0.0,0.0,0.0,0.3202713131904602
1663843115455222685,0.5734608769416808,0.0,0.0,0.0,0.0,0.3247296214103699
1663843115505197050,0.5734608769416808,0.0,0.0,0.0,0.0,0.3247296214103699
1663843115555130580,0.5884608769416808,0.0,0.0,0.0,0.0,0.33469074165808893
1663843115605533748,0.6034608769416808,0.0,0.0,0.0,0.0,0.344651861905808
1663843115654850359,0.6184608769416808,0.0,0.0,0.0,0.0,0.35461298215352705
1663843115705330897,0.6334608769416809,0.0,0.0,0.0,0.0,0.36457410240124616
1663843115755054919,0.57878577709198,0.0,0.0,0.0,0.0,0.3293316960334778
1663843115804939315,0.57878577709198,0.0,0.0,0.0,0.0,0.3293316960334778
1663843115855011758,0.5849151611328124,0.0,0.0,0.0,0.0,0.3301953673362732
1663843115905093693,0.5849151611328124,0.0,0.0,0.0,0.0,0.3301953673362732
1663843115954818654,0.5849151611328124,0.0,0.0,0.0,0.0,0.3301953673362732
1663843116005825807,0.5909615159034729,0.0,0.0,0.0,0.0,0.3286884129047394
1663843116055256866,0.5898953676223754,0.0,0.0,0.0,0.0,0.32844406366348267
1663843116104799861,0.5898953676223754,0.0,0.0,0.0,0.0,0.32844406366348267
1663843116155336970,0.5983169674873352,0.0,0.0,0.0,0.0,0.32392242550849915
1663843116205092510,0.5983169674873352,0.0,0.0,0.0,0.0,0.32392242550849915
1663843116255247753,0.6133169674873352,0.0,0.0,0.0,0.0,0.33308786945334484
1663843116305129551,0.6283169674873352,0.0,0.0,0.0,0.0,0.34246671933903994
1663843116354970319,0.6433169674873352,0.0,0.0,0.0,0.0,0.35184556922473503
1663843116409312475,0.6583169674873353,0.0,0.0,0.0,0.0,0.3612244191104302
1663843116454965974,0.6733169674873353,0.0,0.0,0.0,0.0,0.37060326899612533
1663843116505129543,0.6422974611976506,0.0,0.0,0.0,0.0,0.5456032689961253
1663843116554753064,0.6152611374855042,0.0,0.0,0.0,0.0,0.6981317007977313
1663843116608844542,0.6152611374855042,0.0,0.0,0.0,0.0,0.6981317007977313
1663843116657514421,0.6152611374855042,0.0,0.0,0.0,0.0,0.6981317007977313
1663843116705136742,0.6163304448127747,0.0,0.0,0.0,0.0,0.8726646259971643
1663843116754983629,0.6163304448127747,0.0,0.0,0.0,0.0,0.8726646259971643
1663843116805237139,0.6163304448127747,0.0,0.0,0.0,0.0,0.8726646259971643
1663843116855560233,0.6114161014556884,0.0,0.0,0.0,0.0,0.8726646259971643
1663843116905155728,0.6114161014556884,0.0,0.0,0.0,0.0,0.8726646259971643
1663843116954724723,0.6114161014556884,0.0,0.0,0.0,0.0,0.8726646259971643
1663843117005983024,0.6104952096939087,0.0,0.0,0.0,0.0,0.6981317007977313
1663843117054933815,0.6104952096939087,0.0,0.0,0.0,0.0,0.6981317007977313
1663843117105122725,0.6104952096939087,0.0,0.0,0.0,0.0,0.6981317007977313
1663843117155551960,0.6254952096939087,0.0,0.0,0.0,0.0,0.6592879157577527
1663843117205236877,0.6404952096939087,0.0,0.0,0.0,0.0,0.6204441307177739
1663843117254906413,0.6110207438468933,0.0,0.0,0.0,0.0,0.5235987755982984
1663843117305608920,0.6110207438468933,0.0,0.0,0.0,0.0,0.5235987755982984
1663843117354952410,0.6110207438468933,0.0,0.0,0.0,0.0,0.5235987755982984
1663843117405303135,0.6110207438468933,0.0,0.0,0.0,0.0,0.5235987755982984
1663843117455342112,0.6110207438468933,0.0,0.0,0.0,0.0,0.5235987755982984
1663843117506103583,0.6023675799369811,0.0,0.0,0.0,0.0,0.3490658503988654
1663843117554895454,0.5957205295562744,0.0,0.0,0.0,0.0,0.3490658503988654
1663843117605074731,0.5957205295562744,0.0,0.0,0.0,0.0,0.3490658503988654
1663843117654951159,0.5957205295562744,0.0,0.0,0.0,0.0,0.3490658503988654
1663843117705082178,0.5957205295562744,0.0,0.0,0.0,0.0,0.3490658503988654
1663843117755599378,0.5878850817680359,0.0,0.0,0.0,0.0,0.3490658503988654
1663843117805005402,0.5878850817680359,0.0,0.0,0.0,0.0,0.3490658503988654
1663843117854913075,0.565281093120575,0.0,0.0,0.0,0.0,0.18957991898059845
1663843117906307086,0.565281093120575,0.0,0.0,0.0,0.0,0.18957991898059845
1663843117954875396,0.565281093120575,0.0,0.0,0.0,0.0,0.18957991898059845
1663843118004979365,0.5526730418205261,0.0,0.0,0.0,0.0,0.17692798376083374
1663843118054961203,0.5526730418205261,0.0,0.0,0.0,0.0,0.17692798376083374
1663843118105094814,0.5526730418205261,0.0,0.0,0.0,0.0,0.17692798376083374
1663843118154986198,0.5676730418205261,0.0,0.0,0.0,0.0,0.19379411283892858
1663843118205016865,0.5826730418205261,0.0,0.0,0.0,0.0,0.21066024191702343
1663843118254803604,0.5303836464881897,0.0,0.0,0.0,0.0,0.17453292519943245
1663843118305021947,0.5303836464881897,0.0,0.0,0.0,0.0,0.17453292519943245
1663843118355317287,0.511287271976471,0.0,0.0,0.0,0.0,0.17453292519943245
1663843118405464388,0.511287271976471,0.0,0.0,0.0,0.0,0.17453292519943245
1663843118454789311,0.511287271976471,0.0,0.0,0.0,0.0,0.17453292519943245
1663843118505170713,0.526287271976471,0.0,0.0,0.0,0.0,0.1913880053108359
1663843118554736304,0.541287271976471,0.0,0.0,0.0,0.0,0.2082430854222394
1663843118604996277,0.5554057359695435,0.0,0.0,0.0,0.0,0.22410760819911957
1663843118655329823,0.5554057359695435,0.0,0.0,0.0,0.0,0.22410760819911957
1663843118705828251,0.4422494173049927,0.0,0.0,0.0,0.0,0.15227460861206055
1663843118754824953,0.4422494173049927,0.0,0.0,0.0,0.0,0.15227460861206055
1663843118805219061,0.4310675859451294,0.0,0.0,0.0,0.0,0.1565825641155243
1663843118854857227,0.4310675859451294,0.0,0.0,0.0,0.0,0.1565825641155243
1663843118905251855,0.4310675859451294,0.0,0.0,0.0,0.0,0.1565825641155243
1663843118955012555,0.4112595021724701,0.0,0.0,0.0,0.0,0.17453292519943245
1663843119005181716,0.4112595021724701,0.0,0.0,0.0,0.0,0.17453292519943245
1663843119055360685,0.3956963121891022,0.0,0.0,0.0,0.0,0.17453292519943245
1663843119105064916,0.37814682722091675,0.0,0.0,0.0,0.0,0.17453292519943245
1663843119154769536,0.37814682722091675,0.0,0.0,0.0,0.0,0.17453292519943245
1663843119206174203,0.37814682722091675,0.0,0.0,0.0,0.0,0.17453292519943245
1663843119255085175,0.37814682722091675,0.0,0.0,0.0,0.0,0.17453292519943245
1663843119308396827,0.36016967892646784,0.0,0.0,0.0,0.0,0.1755361557006836
1663843119355300950,0.36016967892646784,0.0,0.0,0.0,0.0,0.1755361557006836
1663843119405049089,0.3390938341617584,0.0,0.0,0.0,0.0,0.1890886127948761
1663843119455021458,0.34001782536506653,0.0,0.0,0.0,0.0,0.1892073154449463
1663843119505231908,0.34001782536506653,0.0,0.0,0.0,0.0,0.1892073154449463
1663843119554967378,0.34001782536506653,0.0,0.0,0.0,0.0,0.1892073154449463
1663843119605114817,0.3378064334392547,0.0,0.0,0.0,0.0,0.2000093162059784
1663843119655335695,0.3528064334392547,0.0,0.0,0.0,0.0,0.21082685675664162
1663843119705164145,0.36780643343925473,0.0,0.0,0.0,0.0,0.22164439730730487
1663843119755278495,0.38280643343925475,0.0,0.0,0.0,0.0,0.23450661860486033
1663843119804919229,0.39780643343925476,0.0,0.0,0.0,0.0,0.2473688399024158
1663843119854998865,0.41280643343925477,0.0,0.0,0.0,0.0,0.26023106119997125
1663843119906346692,0.33651527762413025,0.0,0.0,0.0,0.0,0.23578208684921265
1663843119955091024,0.33651527762413025,0.0,0.0,0.0,0.0,0.23578208684921265
1663843120005230188,0.3351157307624817,0.0,0.0,0.0,0.0,0.26734650135040283
1663843120055047937,0.3373190760612488,0.0,0.0,0.0,0.0,0.2670602798461914
1663843120105651319,0.3373190760612488,0.0,0.0,0.0,0.0,0.2670602798461914
1663843120154960121,0.3373190760612488,0.0,0.0,0.0,0.0,0.2670602798461914
1663843120205137741,0.33601391315460205,0.0,0.0,0.0,0.0,0.2817273736000061
1663843120255027801,0.33601391315460205,0.0,0.0,0.0,0.0,0.2817273736000061
1663843120305248283,0.33601391315460205,0.0,0.0,0.0,0.0,0.2817273736000061
1663843120354673745,0.33810898661613464,0.0,0.0,0.0,0.0,0.3362710177898407
1663843120405682293,0.33810898661613464,0.0,0.0,0.0,0.0,0.3362710177898407
1663843120454965688,0.33810898661613464,0.0,0.0,0.0,0.0,0.3362710177898407
1663843120504987015,0.33810898661613464,0.0,0.0,0.0,0.0,0.3362710177898407
1663843120555504462,0.35310898661613466,0.0,0.0,0.0,0.0,0.3448426302209489
1663843120605338793,0.34226262569427485,0.0,0.0,0.0,0.0,0.373758465051651
1663843120657408954,0.3477024435997009,0.0,0.0,0.0,0.0,0.3920329213142395
1663843120704987490,0.3477024435997009,0.0,0.0,0.0,0.0,0.3920329213142395
1663843120758052158,0.35106906294822693,0.0,0.0,0.0,0.0,0.40947917103767395
1663843120805018777,0.35106906294822693,0.0,0.0,0.0,0.0,0.40947917103767395
1663843120854827566,0.35106906294822693,0.0,0.0,0.0,0.0,0.40947917103767395
1663843120905308576,0.2010690629482269,0.0,0.0,0.0,0.0,0.23452249687265603
1663843120955789230,0.21606906294822692,0.0,0.0,0.0,0.0,0.2477610650151765
1663843121005149233,0.23106906294822693,0.0,0.0,0.0,0.0,0.260999633157697
1663843121055203546,0.24606906294822695,0.0,0.0,0.0,0.0,0.2742382013002174
1663843121105375589,0.26106906294822696,0.0,0.0,0.0,0.0,0.29632439848005554
1663843121155182456,0.276069062948227,0.0,0.0,0.0,0.0,0.31841059565989366
1663843121205027684,0.291069062948227,0.0,0.0,0.0,0.0,0.3404967928397318
1663843121254842649,0.306069062948227,0.0,0.0,0.0,0.0,0.36303549601895524
1663843121307233655,0.321069062948227,0.0,0.0,0.0,0.0,0.3855741991981787
1663843121354777834,0.336069062948227,0.0,0.0,0.0,0.0,0.40811290237740216
1663843121405002061,0.35106906294822704,0.0,0.0,0.0,0.0,0.4306516055566256
1663843121455075708,0.36606906294822705,0.0,0.0,0.0,0.0,0.452367920036119
1663843121505041976,0.38106906294822707,0.0,0.0,0.0,0.0,0.4740842345156123
1663843121554930858,0.3960690629482271,0.0,0.0,0.0,0.0,0.4958005489951057
1663843121605049816,0.4110690629482271,0.0,0.0,0.0,0.0,0.5175168634745991
1663843121654879205,0.4260690629482271,0.0,0.0,0.0,0.0,0.5371358282637073
1663843121705047157,0.4410690629482271,0.0,0.0,0.0,0.0,0.5550085401443128
1663843121755490206,0.45606906294822713,0.0,0.0,0.0,0.0,0.5728812520249181
1663843121806061742,0.3060690629482271,0.0,0.0,0.0,0.0,0.3844620085703523
1663843121855003652,0.3210690629482271,0.0,0.0,0.0,0.0,0.3983854958907023
1663843121905050833,0.33606906294822714,0.0,0.0,0.0,0.0,0.41230898321105236
1663843121954931240,0.35106906294822715,0.0,0.0,0.0,0.0,0.42970043251013734
1663843122005465722,0.36606906294822716,0.0,0.0,0.0,0.0,0.4470895276119824
1663843122054792909,0.3810690629482272,0.0,0.0,0.0,0.0,0.46447862271382745
1663843122105760982,0.3960690629482272,0.0,0.0,0.0,0.0,0.47706012736176007
1663843122155047798,0.4110690629482272,0.0,0.0,0.0,0.0,0.4896416320096927
1663843122206965069,0.4260690629482272,0.0,0.0,0.0,0.0,0.5018926084950041
1663843122254921818,0.44106906294822723,0.0,0.0,0.0,0.0,0.5141435849803154
1663843122305083359,0.45606906294822724,0.0,0.0,0.0,0.0,0.5263945614656268
1663843122354985611,0.47106906294822726,0.0,0.0,0.0,0.0,0.5386455379509382
1663843122405690985,0.48606906294822727,0.0,0.0,0.0,0.0,0.552452061117837
1663843122454835593,0.5010690629482273,0.0,0.0,0.0,0.0,0.5662585842847357
1663843122505405553,0.5160690629482273,0.0,0.0,0.0,0.0,0.5782793879150627
1663843122555208697,0.5310690629482273,0.0,0.0,0.0,0.0,0.5903001915453897
1663843122606312977,0.5460690629482273,0.0,0.0,0.0,0.0,0.6021348408851778
1663843122654855702,0.5610690629482273,0.0,0.0,0.0,0.0,0.6139694902249658
1663843122705323889,0.5760690629482274,0.0,0.0,0.0,0.0,0.6258041395647539
1663843122755049884,0.5910690629482274,0.0,0.0,0.0,0.0,0.637638788904542
1663843122804914678,0.6060690629482274,0.0,0.0,0.0,0.0,0.6482996283894545
1663843122855344460,0.6210690629482274,0.0,0.0,0.0,0.0,0.6589604678743671
1663843122904948893,0.6360690629482274,0.0,0.0,0.0,0.0,0.6696213073592796
1663843122955665687,0.6510690629482274,0.0,0.0,0.0,0.0,0.6761026429085667
1663843123005085867,0.6660690629482274,0.0,0.0,0.0,0.0,0.6825839784578537
1663843123055029951,0.6810690629482274,0.0,0.0,0.0,0.0,0.6890653140071408
1663843123105062623,0.6960690629482275,0.0,0.0,0.0,0.0,0.6955466495564278
1663843123154968781,0.7110690629482275,0.0,0.0,0.0,0.0,0.695920864845332
1663843123204973596,0.7260690629482275,0.0,0.0,0.0,0.0,0.6962950801342362
1663843123255101409,0.7410690629482275,0.0,0.0,0.0,0.0,0.6966692954231405
1663843123305881582,0.7560690629482275,0.0,0.0,0.0,0.0,0.6912289382349083
1663843123354825607,0.7710690629482275,0.0,0.0,0.0,0.0,0.6857885810466761
1663843123405014388,0.7860690629482275,0.0,0.0,0.0,0.0,0.6803482238584438
1663843123455219929,0.7979525327682494,0.0,0.0,0.0,0.0,0.6552830934524536
1663843123505098725,0.7979525327682494,0.0,0.0,0.0,0.0,0.6552830934524536
1663843123555213896,0.7959712147712708,0.0,0.0,0.0,0.0,0.6265766620635986
1663843123605124646,0.7959712147712708,0.0,0.0,0.0,0.0,0.6265766620635986
1663843123654941239,0.7959712147712708,0.0,0.0,0.0,0.0,0.6265766620635986
1663843123705396749,0.7959712147712708,0.0,0.0,0.0,0.0,0.6265766620635986
1663843123755033095,0.7836309075355529,0.0,0.0,0.0,0.0,0.6000531911849976
1663843123804983197,0.7836309075355529,0.0,0.0,0.0,0.0,0.6000531911849976
1663843123854794967,0.7593498229980469,0.0,0.0,0.0,0.0,0.6981317007977313
1663843123905127035,0.7593498229980469,0.0,0.0,0.0,0.0,0.6981317007977313
1663843123954949882,0.7593498229980469,0.0,0.0,0.0,0.0,0.6981317007977313
1663843124005231618,0.7292557954788208,0.0,0.0,0.0,0.0,0.6981317007977313
1663843124054809039,0.7292557954788208,0.0,0.0,0.0,0.0,0.6981317007977313
1663843124105656225,0.6907795667648314,0.0,0.0,0.0,0.0,0.8726646259971643
1663843124154863848,0.6907795667648314,0.0,0.0,0.0,0.0,0.8726646259971643
1663843124205437871,0.6520408987998961,0.0,0.0,0.0,0.0,0.8726646259971643
1663843124255063049,0.6520408987998961,0.0,0.0,0.0,0.0,0.8726646259971643
1663843124305360605,0.6520408987998961,0.0,0.0,0.0,0.0,0.8726646259971643
1663843124354935348,0.6062455773353577,0.0,0.0,0.0,0.0,0.8726646259971643
1663843124405054238,0.6062455773353577,0.0,0.0,0.0,0.0,0.8726646259971643
1663843124455217201,0.5600911378860474,0.0,0.0,0.0,0.0,1.0471975511965972
1663843124505107604,0.5600911378860474,0.0,0.0,0.0,0.0,1.0471975511965972
1663843124555043088,0.5600911378860474,0.0,0.0,0.0,0.0,1.0471975511965972
1663843124605555894,0.5140975713729858,0.0,0.0,0.0,0.0,0.40050214529037476
1663843124654732486,0.5140975713729858,0.0,0.0,0.0,0.0,0.40050214529037476
1663843124704847021,0.47221362590789795,0.0,0.0,0.0,0.0,0.37136828899383545
1663843124755108855,0.47221362590789795,0.0,0.0,0.0,0.0,0.37136828899383545
1663843124804908351,0.47221362590789795,0.0,0.0,0.0,0.0,0.37136828899383545
1663843124855355204,0.48721362590789796,0.0,0.0,0.0,0.0,0.3740645086674999
1663843124904896416,0.502213625907898,0.0,0.0,0.0,0.0,0.3767607283411643
1663843124954951043,0.517213625907898,0.0,0.0,0.0,0.0,0.37945694801482877
1663843125004801910,0.39344069361686707,0.0,0.0,0.0,0.0,0.29019224643707275
1663843125054804062,0.39344069361686707,0.0,0.0,0.0,0.0,0.29019224643707275
1663843125105824536,0.4084406936168671,0.0,0.0,0.0,0.0,0.2907729479629087
1663843125155030394,0.4234406936168671,0.0,0.0,0.0,0.0,0.2913536494887446
1663843125204914815,0.4384406936168671,0.0,0.0,0.0,0.0,0.29193435101458054
1663843125254753872,0.30899474024772644,0.0,0.0,0.0,0.0,0.20570769906044006
1663843125304950456,0.30899474024772644,0.0,0.0,0.0,0.0,0.20570769906044006
1663843125359629279,0.2642687261104583,0.0,0.0,0.0,0.0,0.16715064644813538
1663843125404768510,0.2642687261104583,0.0,0.0,0.0,0.0,0.16715064644813538
1663843125455402433,0.22123174369335175,0.0,0.0,0.0,0.0,0.13282552361488342
1663843125505059938,0.22123174369335175,0.0,0.0,0.0,0.0,0.13282552361488342
1663843125554923445,0.22123174369335175,0.0,0.0,0.0,0.0,0.13282552361488342
1663843125604916461,0.18062926828861237,0.0,0.0,0.0,0.0,0.10521995276212692
1663843125654812805,0.18062926828861237,0.0,0.0,0.0,0.0,0.10521995276212692
1663843125705997969,0.14433455467224118,0.0,0.0,0.0,0.0,0.08017311245203018
1663843125755034400,0.14433455467224118,0.0,0.0,0.0,0.0,0.08017311245203018
1663843125805166575,0.14433455467224118,0.0,0.0,0.0,0.0,0.08017311245203018
1663843125854813919,0.10925626754760742,0.0,0.0,0.0,0.0,0.058486659079790115
1663843125905065069,0.0787428244948387,0.0,0.0,0.0,0.0,0.040088411420583725
1663843125955445492,0.0787428244948387,0.0,0.0,0.0,0.0,0.040088411420583725
1663843126004991331,0.0787428244948387,0.0,0.0,0.0,0.0,0.040088411420583725
1663843126055231244,0.05234234780073166,0.0,0.0,0.0,0.0,0.023823387920856476
1663843126105079586,0.05234234780073166,0.0,0.0,0.0,0.0,0.023823387920856476
1663843126154788617,0.05234234780073166,0.0,0.0,0.0,0.0,0.023823387920856476
1663843126204999047,0.001859040348790586,0.0,0.0,0.0,0.0,-0.0038194668013602495
1663843126255042640,0.001859040348790586,0.0,0.0,0.0,0.0,-0.0038194668013602495
1663843126305079739,0.0015067114779618812,0.0,0.0,0.0,0.0,0.17118053319863977
1663843126355040231,0.0011471847576988107,0.0,0.0,0.0,0.0,0.3461805331986398
1663843126404985482,0.0007876580374357404,0.0,0.0,0.0,0.0,0.5211805331986398
1663843126455551029,0.0004471579267188462,0.0,0.0,0.0,0.0,0.6961805331986398
1663843126505091037,0.0001066578160019519,0.0,0.0,0.0,0.0,0.8711805331986399
1663843126555142668,0.0,0.0,0.0,0.0,0.0,0.9561455251448056
1663843126605035489,0.0,0.0,0.0,0.0,0.0,0.9561455251448056
1663843126655425942,0.0,0.0,0.0,0.0,0.0,0.9503801356684354
1663843126704951073,0.0,0.0,0.0,0.0,0.0,0.9503801356684354
1663843126754930868,0.015,0.0,0.0,0.0,0.0,0.7972135863786717
1663843126804736755,0.03,0.0,0.0,0.0,0.0,0.644047037088908
1663843126855115264,0.012372933582682735,0.0,0.0,0.0,0.0,0.819047037088908
1663843126905255808,0.0,0.0,0.0,0.0,0.0,0.9418844580021389
1663843126954920823,0.015,0.0,0.0,0.0,0.0,0.7650184440773996
1663843127004892045,0.0,0.0,0.0,0.0,0.0,0.8317578135822884
1663843127054787724,0.0,0.0,0.0,0.0,0.0,0.8317578135822884
1663843127104702626,0.0,0.0,0.0,0.0,0.0,0.8317578135822884
1663843127155096956,0.0,0.0,0.0,0.0,0.0,0.8179979506460024
1663843127205014577,0.0,0.0,0.0,0.0,0.0,0.8179979506460024
1663843127255328064,0.0,0.0,0.0,0.0,0.0,0.7330783744512264
1663843127305277385,0.0,0.0,0.0,0.0,0.0,0.7330783744512264
1663843127355180340,0.0,0.0,0.0,0.0,0.0,0.6586200759559504
1663843127404998533,0.0,0.0,0.0,0.0,0.0,0.6030347060828845
1663843127454813840,0.0,0.0,0.0,0.0,0.0,0.6030347060828845
1663843127504954320,0.0,0.0,0.0,0.0,0.0,0.6030347060828845
1663843127555070872,0.0,0.0,0.0,0.0,0.0,0.5570568774332287
1663843127604965998,0.0,0.0,0.0,0.0,0.0,0.5570568774332287
1663843127654991290,0.0,0.0,0.0,0.0,0.0,0.4742511149727584
1663843127704898388,0.0,0.0,0.0,0.0,0.0,0.4742511149727584
1663843127755202893,0.015,0.0,0.0,0.0,0.0,0.31066976405216834
1663843127804998419,0.03,0.0,0.0,0.0,0.0,0.14708841313157828
1663843127855423246,0.0,0.0,0.0,0.0,0.0,0.2995837176024214
1663843127904916329,0.0,0.0,0.0,0.0,0.0,0.2995837176024214
1663843127959744298,0.015,0.0,0.0,0.0,0.0,0.1924251075879168
1663843128004715134,0.03,0.0,0.0,0.0,0.0,0.08526649757341223
1663843128054972783,0.04191498085856438,0.0,0.0,0.0,0.0,0.06632797420024872
1663843128105004389,0.04191498085856438,0.0,0.0,0.0,0.0,0.06632797420024872
1663843128155082664,0.04191498085856438,0.0,0.0,0.0,0.0,0.06632797420024872
1663843128205111980,0.03974129632115364,0.0,0.0,0.0,0.0,-0.05541029945015907
1663843128255459986,0.05474129632115364,0.0,0.0,0.0,0.0,-0.05654150762777048
1663843128304974834,0.05522626638412475,0.0,0.0,0.0,0.0,-0.05657808110117912
1663843128355641784,0.07022626638412474,0.0,0.0,0.0,0.0,-0.05746267217903406
1663843128404816637,0.07417174428701401,0.0,0.0,0.0,0.0,-0.05769534781575203
1663843128455352385,0.07417174428701401,0.0,0.0,0.0,0.0,-0.05769534781575203
1663843128505042799,0.08917174428701401,0.0,0.0,0.0,0.0,-0.05988121967065223
1663843128555133554,0.09246476739645003,0.0,0.0,0.0,0.0,-0.060361094772815704
1663843128604974275,0.10577109456062316,0.0,0.0,0.0,0.0,-0.06209450215101242
1663843128655106841,0.11698140949010849,0.0,0.0,0.0,0.0,-0.0634772926568985
1663843128705014910,0.11698140949010849,0.0,0.0,0.0,0.0,-0.0634772926568985
1663843128755238388,0.11698140949010849,0.0,0.0,0.0,0.0,-0.0634772926568985
1663843128805289284,0.09131035208702087,0.0,0.0,0.0,0.0,0.04571940377354622
1663843128855060603,0.09131035208702087,0.0,0.0,0.0,0.0,0.04571940377354622
1663843128905187740,0.10631035208702087,0.0,0.0,0.0,0.0,0.0064407903603718175
1663843128954873500,0.12131035208702087,0.0,0.0,0.0,0.0,-0.03283782305280258
1663843129004886921,0.09918180853128433,0.0,0.0,0.0,0.0,0.04092646390199661
1663843129055039602,0.09918180853128433,0.0,0.0,0.0,0.0,0.04092646390199661
1663843129105943508,0.09817172586917876,0.0,0.0,0.0,0.0,0.039315033704042435
1663843129154861454,0.09817172586917876,0.0,0.0,0.0,0.0,0.039315033704042435
1663843129205251625,0.09817172586917876,0.0,0.0,0.0,0.0,0.039315033704042435
1663843129254900497,0.11317172586917876,0.0,0.0,0.0,0.0,0.0019512089700007076
1663843129306158948,0.12817172586917874,0.0,0.0,0.0,0.0,-0.03701426198464227
1663843129355080032,0.1409369856119156,0.0,0.0,0.0,0.0,-0.07017455250024796
1663843129406121064,0.14361926913261414,0.0,0.0,0.0,0.0,-0.07269851118326187
1663843129454769862,0.14361926913261414,0.0,0.0,0.0,0.0,-0.07269851118326187
1663843129504952516,0.1369791030883789,0.0,0.0,0.0,0.0,-0.07311005890369415
1663843129554711760,0.13155223429203033,0.0,0.0,0.0,0.0,-0.07294568419456482
1663843129605791576,0.13155223429203033,0.0,0.0,0.0,0.0,-0.07294568419456482
1663843129655060956,0.13155223429203033,0.0,0.0,0.0,0.0,-0.07294568419456482
1663843129705714491,0.1251518577337265,0.0,0.0,0.0,0.0,-0.07236538082361221
1663843129754922756,0.1251518577337265,0.0,0.0,0.0,0.0,-0.07236538082361221
1663843129805034177,0.1251518577337265,0.0,0.0,0.0,0.0,-0.07236538082361221
1663843129855332176,0.1251518577337265,0.0,0.0,0.0,0.0,-0.07236538082361221
1663843129904866641,0.10782115906476974,0.0,0.0,0.0,0.0,-0.07059359550476074
1663843129954959401,0.10782115906476974,0.0,0.0,0.0,0.0,-0.07059359550476074
1663843130004791342,0.10782115906476974,0.0,0.0,0.0,0.0,-0.07059359550476074
1663843130058046294,0.10136915743350983,0.0,0.0,0.0,0.0,-0.06837606430053711
1663843130104925840,0.10136915743350983,0.0,0.0,0.0,0.0,-0.06837606430053711
1663843130155174998,0.09528970718383789,0.0,0.0,0.0,0.0,-0.06710204482078552
1663843130205036331,0.09528970718383789,0.0,0.0,0.0,0.0,-0.06710204482078552
1663843130255035635,0.09528970718383789,0.0,0.0,0.0,0.0,-0.06710204482078552
1663843130304836463,0.09528970718383789,0.0,0.0,0.0,0.0,-0.06710204482078552
1663843130354824397,0.08766673505306243,0.0,0.0,0.0,0.0,-0.0651111751794815
1663843130405025363,0.05717632910414083,0.0,0.0,0.0,0.0,-0.24011117517948152
1663843130454717792,0.02668592315521923,0.0,0.0,0.0,0.0,-0.41511117517948154
1663843130504812653,0.0,0.0,0.0,0.0,0.0,-0.5682753068734558
1663843130555525421,0.015,0.0,0.0,0.0,0.0,-0.4543539091878782
1663843130605067228,0.03,0.0,0.0,0.0,0.0,-0.3404325115023005
1663843130655514850,0.045,0.0,0.0,0.0,0.0,-0.23573696031246705
1663843130705087212,0.024000652546502337,0.0,0.0,0.0,0.0,-0.4107369603124671
1663843130755037096,0.003001305093004676,0.0,0.0,0.0,0.0,-0.5857369603124671
1663843130805790662,0.0,0.0,0.0,0.0,0.0,-0.6409416229117869
1663843130855535437,0.0,0.0,0.0,0.0,0.0,-0.6409416229117869
1663843130904914710,0.0,0.0,0.0,0.0,0.0,-0.6636067685606288
1663843130955023545,0.0,0.0,0.0,0.0,0.0,-0.6636067685606288
1663843131004818957,0.0,0.0,0.0,0.0,0.0,-0.6636067685606288
1663843131055092711,0.0,0.0,0.0,0.0,0.0,-0.6305369770614182
1663843131105119673,0.0,0.0,0.0,0.0,0.0,-0.6305369770614182
1663843131154933369,0.0,0.0,0.0,0.0,0.0,-0.6305369770614182
1663843131204807744,0.0,0.0,0.0,0.0,0.0,-0.6305369770614182
1663843131254959540,0.0,0.0,0.0,0.0,0.0,-0.6305369770614182
1663843131305733825,0.0,0.0,0.0,0.0,0.0,-0.6616152643079167
1663843131355120333,0.0,0.0,0.0,0.0,0.0,-0.6616152643079167
1663843131404843709,0.0,0.0,0.0,0.0,0.0,-0.6616152643079167
1663843131455287091,0.0,0.0,0.0,0.0,0.0,-0.6616152643079167
1663843131505030169,0.0,0.0,0.0,0.0,0.0,-0.6174238295822594
1663843131557487442,0.0,0.0,0.0,0.0,0.0,-0.6174238295822594
1663843131605823359,0.0,0.0,0.0,0.0,0.0,-0.600974912185636
1663843131655093377,0.0,0.0,0.0,0.0,0.0,-0.600974912185636
1663843131704861399,0.0,0.0,0.0,0.0,0.0,-0.600974912185636
1663843131758278955,0.0,0.0,0.0,0.0,0.0,-0.600974912185636
1663843131804985195,0.0,0.0,0.0,0.0,0.0,-0.6020983437570541
1663843131855100499,0.0,0.0,0.0,0.0,0.0,-0.6020983437570541
1663843131904722464,0.0,0.0,0.0,0.0,0.0,-0.6020983437570541
1663843131955991225,0.0,0.0,0.0,0.0,0.0,-0.5457647319561223
1663843132005106102,0.0,0.0,0.0,0.0,0.0,-0.5457647319561223
1663843132055034995,0.0,0.0,0.0,0.0,0.0,-0.5046008468786601
1663843132106060696,0.0,0.0,0.0,0.0,0.0,-0.4976532757057372
1663843132155025138,0.0,0.0,0.0,0.0,0.0,-0.4976532757057372
1663843132204891905,0.0,0.0,0.0,0.0,0.0,-0.46955786863569815
1663843132255067596,0.0,0.0,0.0,0.0,0.0,-0.46955786863569815
1663843132305238645,0.0,0.0,0.0,0.0,0.0,-0.46955786863569815
1663843132361943900,0.0,0.0,0.0,0.0,0.0,-0.4291951096128772
1663843132404932383,0.0,0.0,0.0,0.0,0.0,-0.4291951096128772
1663843132455943491,0.0,0.0,0.0,0.0,0.0,-0.38378124324968627
1663843132504958566,0.0,0.0,0.0,0.0,0.0,-0.38378124324968627
1663843132558115442,0.0,0.0,0.0,0.0,0.0,-0.3409777579513961
1663843132604972131,0.0,0.0,0.0,0.0,0.0,-0.2983120909285331
1663843132655252928,0.0,0.0,0.0,0.0,0.0,-0.2983120909285331
1663843132704700608,0.0,0.0,0.0,0.0,0.0,-0.2983120909285331
1663843132757613875,0.0,0.0,0.0,0.0,0.0,-0.2983120909285331
1663843132805066282,0.0,0.0,0.0,0.0,0.0,-0.27041943481782227
1663843132855118058,0.0,0.0,0.0,0.0,0.0,-0.23411056453276455
1663843132905169691,0.0,0.0,0.0,0.0,0.0,-0.23411056453276455
1663843132955716098,0.0,0.0,0.0,0.0,0.0,-0.23411056453276455
1663843133004963106,0.0,0.0,0.0,0.0,0.0,-0.2018481229608677
1663843133055266958,0.0,0.0,0.0,0.0,0.0,-0.2018481229608677
1663843133105293912,0.0,0.0,0.0,0.0,0.0,-0.2018481229608677
1663843133155433914,0.0,0.0,0.0,0.0,0.0,-0.14488497882952522
1663843133204805231,0.0,0.0,0.0,0.0,0.0,-0.14488497882952522
1663843133255455806,0.0,0.0,0.0,0.0,0.0,-0.14488497882952522
1663843133304995369,0.0,0.0,0.0,0.0,0.0,-0.13122989369518587
1663843133355095239,0.0,0.0,0.0,0.0,0.0,-0.13122989369518587
1663843133405651220,0.0,0.0,0.0,0.0,0.0,-0.11365825778439369
1663843133455040382,0.0,0.0,0.0,0.0,0.0,-0.11365825778439369
1663843133504824379,0.0,0.0,0.0,0.0,0.0,-0.10290129661306036
1663843133555010114,0.0,0.0,0.0,0.0,0.0,-0.10290129661306036
1663843133605692635,0.0,0.0,0.0,0.0,0.0,-0.09062818921244808
1663843133655011839,0.0,0.0,0.0,0.0,0.0,-0.09062818921244808
1663843133705084673,0.0,0.0,0.0,0.0,0.0,-0.07619230999983688
1663843133754776518,0.0,0.0,0.0,0.0,0.0,-0.07619230999983688
1663843133805012040,0.0,0.0,0.0,0.0,0.0,-0.07619230999983688
1663843133855149360,0.0,0.0,0.0,0.0,0.0,-0.07619230999983688
1663843133904935576,0.0,0.0,0.0,0.0,0.0,-0.043510606247578076
1663843133954912357,0.0,0.0,0.0,0.0,0.0,-0.043510606247578076
1663843134004987607,0.0,0.0,0.0,0.0,0.0,-0.01983189074990917
1663843134054886637,0.0,0.0,0.0,0.0,0.0,-0.01944099986316192
1663843134104953731,0.0,0.0,0.0,0.0,0.0,-0.003810554792584394
1663843134155042219,0.0,0.0,0.0,0.0,0.0,-0.003810554792584394
1663843134204885229,0.0,0.0,0.0,0.0,0.0,-0.003810554792584394
1663843134254839099,0.0,0.0,0.0,0.0,0.0,-0.003810554792584394
1663843134305060136,0.0,0.0,0.0,0.0,0.0,-0.003810554792584394
1663843134354842195,0.0,0.0,0.0,0.0,0.0,0.06622725845752246
1663843134405164833,0.0,0.0,0.0,0.0,0.0,0.11716813237934791
1663843134455051207,0.0,0.0,0.0,0.0,0.0,0.18178078512142268
1663843134504863739,0.0,0.0,0.0,0.0,0.0,0.1793236155514203
1663843134555086919,0.0,0.0,0.0,0.0,0.0,0.1793236155514203
1663843134605664593,0.0,0.0,0.0,0.0,0.0,0.1793236155514203
1663843134656128370,0.0,0.0,0.0,0.0,0.0,0.25162219599425834
1663843134704952831,0.0,0.0,0.0,0.0,0.0,0.25162219599425834
1663843134755195876,0.0,0.0,0.0,0.0,0.0,0.327974065336736
1663843134805107023,0.0,0.0,0.0,0.0,0.0,0.327974065336736
1663843134855116662,0.0,0.0,0.0,0.0,0.0,0.40255654952108905
1663843134905136363,0.0,0.0,0.0,0.0,0.0,0.40255654952108905
1663843134955639962,0.0,0.0,0.0,0.0,0.0,0.47743905126289743
1663843135004987933,0.0,0.0,0.0,0.0,0.0,0.47743905126289743
1663843135055253734,0.0,0.0,0.0,0.0,0.0,0.622371032997113
1663843135104762344,0.0,0.0,0.0,0.0,0.0,0.622371032997113
1663843135154993221,0.0,0.0,0.0,0.0,0.0,0.6861005164733923
1663843135205121418,0.0,0.0,0.0,0.0,0.0,0.6799413162985032
1663843135258473068,0.0,0.0,0.0,0.0,0.0,0.6799413162985032
1663843135305403837,0.0,0.0,0.0,0.0,0.0,0.7722010288156651
1663843135355339616,0.0,0.0,0.0,0.0,0.0,0.8474439639610654
1663843135405120213,0.0,0.0,0.0,0.0,0.0,0.8474439639610654
1663843135455347562,0.0,0.0,0.0,0.0,0.0,0.8474439639610654
1663843135505033933,0.0,0.0,0.0,0.0,0.0,0.8474439639610654
1663843135556282140,0.0,0.0,0.0,0.0,0.0,0.9714617713926608
1663843135604862869,0.0,0.0,0.0,0.0,0.0,0.9714617713926608
1663843135657919681,0.0,0.0,0.0,0.0,0.0,1.08138752705837
1663843135704830796,0.0,0.0,0.0,0.0,0.0,1.08138752705837
1663843135755025221,0.0,0.0,0.0,0.0,0.0,1.08138752705837
1663843135805194091,0.0,0.0,0.0,0.0,0.0,1.2135278565121528
1663843135855158319,0.0,0.0,0.0,0.0,0.0,1.2135278565121528
1663843135905145474,0.0,0.0,0.0,0.0,0.0,1.3135772763951497
1663843135956752394,0.0,0.0,0.0,0.0,0.0,1.3135772763951497
1663843136005073779,0.0,0.0,0.0,0.0,0.0,1.4103017230356483
1663843136055435465,0.0,0.0,0.0,0.0,0.0,1.4103017230356483
1663843136104850257,0.0,0.0,0.0,0.0,0.0,1.4103017230356483
1663843136155010497,0.0,0.0,0.0,0.0,0.0,1.5707963267948966
1663843136204674307,0.0,0.0,0.0,0.0,0.0,1.5707963267948966
1663843136255482168,0.0,0.0,0.0,0.0,0.0,1.5707963267948966
1663843136304953225,0.0,0.0,0.0,0.0,0.0,1.5707963267948966
1663843136354968028,0.0,0.0,0.0,0.0,0.0,1.5707963267948966
1663843136404919397,0.0,0.0,0.0,0.0,0.0,1.5707963267948966
1663843136457845387,0.0,0.0,0.0,0.0,0.0,1.5707963267948966
1663843136504934810,0.0,0.0,0.0,0.0,0.0,1.5707963267948966
1663843136556167340,0.0,0.0,0.0,0.0,0.0,1.5707963267948966
1663843136604804843,0.0,0.0,0.0,0.0,0.0,1.5707963267948966
1663843136655268364,0.0,0.0,0.0,0.0,0.0,1.5707963267948966
1663843136705198731,0.0,0.0,0.0,0.0,0.0,1.5707963267948966
1663843136755649111,0.0,0.0,0.0,0.0,0.0,1.5707963267948966
1663843136805178292,0.0,0.0,0.0,0.0,0.0,1.5707963267948966
1663843136855134909,0.0,0.0,0.0,0.0,0.0,1.5707963267948966
1663843136904947327,0.0,0.0,0.0,0.0,0.0,1.5707963267948966
1663843136955105060,0.0,0.0,0.0,0.0,0.0,1.5707963267948966
1663843137004999372,0.0,0.0,0.0,0.0,0.0,1.5707963267948966
1663843137055167971,0.0,0.0,0.0,0.0,0.0,1.5707963267948966
1663843137104976586,0.0,0.0,0.0,0.0,0.0,1.5707963267948966
1663843137157296527,0.0,0.0,0.0,0.0,0.0,1.5707963267948966
1663843137205112271,0.0,0.0,0.0,0.0,0.0,1.5707963267948966
1663843137255268944,0.0,0.0,0.0,0.0,0.0,1.5707963267948966
1663843137304908298,0.0,0.0,0.0,0.0,0.0,1.5707963267948966
1663843137355060583,0.0,0.0,0.0,0.0,0.0,1.4936884954901695
1663843137404938391,0.0,0.0,0.0,0.0,0.0,1.4936884954901695
1663843137455026107,0.0,0.0,0.0,0.0,0.0,1.4936884954901695
1663843137504920577,0.0,0.0,0.0,0.0,0.0,1.5707963267948966
1663843137555449890,0.0,0.0,0.0,0.0,0.0,1.5180587708680922
1663843137604901172,0.0,0.0,0.0,0.0,0.0,1.5180587708680922
1663843137655066344,0.0,0.0,0.0,0.0,0.0,1.5594868698282378
1663843137704797548,0.0,0.0,0.0,0.0,0.0,1.5371034196636482
1663843137755251362,0.0,0.0,0.0,0.0,0.0,1.5371034196636482
1663843137805057431,0.0,0.0,0.0,0.0,0.0,1.5707963267948966
1663843137855146351,0.0,0.0,0.0,0.0,0.0,1.5707963267948966
1663843137904972265,0.0,0.0,0.0,0.0,0.0,1.5707963267948966
1663843137955267415,0.0,0.0,0.0,0.0,0.0,1.5707963267948966
1663843138004782406,0.0,0.0,0.0,0.0,0.0,1.5707963267948966
1663843138054804553,0.0,0.0,0.0,0.0,0.0,1.5707963267948966
1663843138104777986,0.0,0.0,0.0,0.0,0.0,1.5707963267948966
1663843138155040157,0.0,0.0,0.0,0.0,0.0,1.5707963267948966
1663843138205066877,0.0,0.0,0.0,0.0,0.0,1.550065697074291
1663843138255005148,0.0,0.0,0.0,0.0,0.0,1.550065697074291
1663843138304989400,0.0,0.0,0.0,0.0,0.0,1.550065697074291
1663843138354913954,0.0,0.0,0.0,0.0,0.0,1.550065697074291
1663843138404783251,0.0,0.0,0.0,0.0,0.0,1.550065697074291
1663843138455694159,0.0,0.0,0.0,0.0,0.0,0.0
1663843139355074518,0.0,0.0,0.0,0.0,0.0,-0.17500000000000002
1663843139405150361,0.0,0.0,0.0,0.0,0.0,-0.35000000000000003
1663843139455057834,0.0,0.0,0.0,0.0,0.0,-0.525
1663843139504893420,0.015,0.0,0.0,0.0,0.0,-0.520288628661469
1663843139554916179,0.03,0.0,0.0,0.0,0.0,-0.5155772573229379
1663843139604904790,0.045,0.0,0.0,0.0,0.0,-0.5111121440851819
1663843139655185114,0.06,0.0,0.0,0.0,0.0,-0.5066470308474259
1663843139704664428,0.075,0.0,0.0,0.0,0.0,-0.5021819176096699
1663843139755145986,0.09,0.0,0.0,0.0,0.0,-0.49786057268927064
1663843139805050051,0.105,0.0,0.0,0.0,0.0,-0.4935392277688714
1663843139854950969,0.12,0.0,0.0,0.0,0.0,-0.4892178828484722
1663843139906516436,0.135,0.0,0.0,0.0,0.0,-0.4850264928168331
1663843139956037333,0.15000000000000002,0.0,0.0,0.0,0.0,-0.480835102785194
1663843140004937860,0.16500000000000004,0.0,0.0,0.0,0.0,-0.4766437127535549
1663843140055655398,0.18000000000000005,0.0,0.0,0.0,0.0,-0.4726712405422167
1663843140104885146,0.19500000000000006,0.0,0.0,0.0,0.0,-0.46869876833087853
1663843140155093000,0.21000000000000008,0.0,0.0,0.0,0.0,-0.4647602231735639
1663843140204899203,0.2250000000000001,0.0,0.0,0.0,0.0,-0.4608216780162493
1663843140255894086,0.2400000000000001,0.0,0.0,0.0,0.0,-0.45688313285893467
1663843140311007981,0.2550000000000001,0.0,0.0,0.0,0.0,-0.45273358576445616
1663843140355051057,0.27000000000000013,0.0,0.0,0.0,0.0,-0.44858403866997765
1663843140405236977,0.28500000000000014,0.0,0.0,0.0,0.0,-0.44435533172004016
1663843140454936522,0.30000000000000016,0.0,0.0,0.0,0.0,-0.44012662477010267
1663843140505105653,0.31500000000000017,0.0,0.0,0.0,0.0,-0.43004474568455053
1663843140555258671,0.3300000000000002,0.0,0.0,0.0,0.0,-0.4199628665989984
1663843140605109915,0.3450000000000002,0.0,0.0,0.0,0.0,-0.4159531511837749
1663843140655005598,0.3600000000000002,0.0,0.0,0.0,0.0,-0.4119434357685514
1663843140704934310,0.3750000000000002,0.0,0.0,0.0,0.0,-0.4079337203533279
1663843140754803794,0.39000000000000024,0.0,0.0,0.0,0.0,-0.40339112134991273
1663843140804815834,0.40500000000000025,0.0,0.0,0.0,0.0,-0.39884852234649754
1663843140855019233,0.42000000000000026,0.0,0.0,0.0,0.0,-0.39430592334308234
1663843140905047044,0.4350000000000003,0.0,0.0,0.0,0.0,-0.38860478931382403
1663843140954895522,0.4500000000000003,0.0,0.0,0.0,0.0,-0.38290365528456566
1663843141005438126,0.4650000000000003,0.0,0.0,0.0,0.0,-0.37394485272149713
1663843141055240711,0.4800000000000003,0.0,0.0,0.0,0.0,-0.3649860501584286
1663843141104705990,0.49500000000000033,0.0,0.0,0.0,0.0,-0.24071318843139344
1663843141155448249,0.4945375621318817,0.0,0.0,0.0,0.0,-0.2375442236661911
1663843141205015532,0.4945375621318817,0.0,0.0,0.0,0.0,-0.2375442236661911
1663843141254805759,0.5095375621318817,0.0,0.0,0.0,0.0,-0.24747926388037653
1663843141304871057,0.5245375621318817,0.0,0.0,0.0,0.0,-0.25741430409456195
1663843141355043924,0.5395375621318818,0.0,0.0,0.0,0.0,-0.2673493443087474
1663843141404965689,0.5545375621318818,0.0,0.0,0.0,0.0,-0.27728438452293286
1663843141455631355,0.4640346467494964,0.0,0.0,0.0,0.0,-0.19672323763370514
1663843141504997188,0.45329201221466064,0.0,0.0,0.0,0.0,-0.18612755835056305
1663843141554910680,0.45329201221466064,0.0,0.0,0.0,0.0,-0.18612755835056305
1663843141604947906,0.45329201221466064,0.0,0.0,0.0,0.0,-0.18612755835056305
1663843141655215852,0.4380156695842743,0.0,0.0,0.0,0.0,-0.17713181674480438
1663843141704898632,0.4380156695842743,0.0,0.0,0.0,0.0,-0.17713181674480438
1663843141754812026,0.4530156695842743,0.0,0.0,0.0,0.0,-0.1915257305766615
1663843141805001566,0.4680156695842743,0.0,0.0,0.0,0.0,-0.3426507359233162
1663843141854919466,0.48301566958427433,0.0,0.0,0.0,0.0,-0.4937757412699709
1663843141904822853,0.48597577214241017,0.0,0.0,0.0,0.0,-0.5235987755982994
1663843141954990402,0.48597577214241017,0.0,0.0,0.0,0.0,-0.5235987755982994
1663843142004914701,0.4667072892189026,0.0,0.0,0.0,0.0,-0.23512591421604156
1663843142055020710,0.4667072892189026,0.0,0.0,0.0,0.0,-0.23512591421604156
1663843142104966193,0.46473535895347595,0.0,0.0,0.0,0.0,-0.23997624218463898
1663843142155015088,0.465588241815567,0.0,0.0,0.0,0.0,-0.24014030396938324
1663843142204678078,0.465588241815567,0.0,0.0,0.0,0.0,-0.24014030396938324
1663843142255364931,0.46279144287109375,0.0,0.0,0.0,0.0,-0.23972909152507782
1663843142305019048,0.3838697671890259,0.0,0.0,0.0,0.0,-0.18046292662620544
1663843142354789820,0.3838697671890259,0.0,0.0,0.0,0.0,-0.18046292662620544
1663843142404761731,0.3838697671890259,0.0,0.0,0.0,0.0,-0.18046292662620544
1663843142455704537,0.3838697671890259,0.0,0.0,0.0,0.0,-0.18046292662620544
1663843142505164160,0.3838697671890259,0.0,0.0,0.0,0.0,-0.18046292662620544
1663843142554905925,0.3988697671890259,0.0,0.0,0.0,0.0,-0.19188566853548206
1663843142604708702,0.4138697671890259,0.0,0.0,0.0,0.0,-0.20426628171392525
1663843142655039535,0.4288697671890259,0.0,0.0,0.0,0.0,-0.21658787359960557
1663843142704792020,0.44386976718902593,0.0,0.0,0.0,0.0,-0.2289094654852859
1663843142754880031,0.45886976718902595,0.0,0.0,0.0,0.0,-0.24123105737096623
1663843142804963522,0.47386976718902596,0.0,0.0,0.0,0.0,-0.25817318493490404
1663843142854926419,0.48003169894218445,0.0,0.0,0.0,0.0,-0.26513293385505676
1663843142905364787,0.4042001962661743,0.0,0.0,0.0,0.0,-0.22094371914863586
1663843142955491755,0.4150092303752899,0.0,0.0,0.0,0.0,-0.23423033952713013
1663843143004928006,0.4150092303752899,0.0,0.0,0.0,0.0,-0.23423033952713013
1663843143055212921,0.4150092303752899,0.0,0.0,0.0,0.0,-0.23423033952713013
1663843143104991682,0.43000923037528993,0.0,0.0,0.0,0.0,-0.24490126789941158
1663843143155052201,0.44500923037528994,0.0,0.0,0.0,0.0,-0.25674493675740095
1663843143204874491,0.46000923037528996,0.0,0.0,0.0,0.0,-0.26858860561539033
1663843143254981751,0.47500923037528997,0.0,0.0,0.0,0.0,-0.28206692304924336
1663843143305056368,0.49000923037529,0.0,0.0,0.0,0.0,-0.2955452404830964
1663843143354874507,0.50500923037529,0.0,0.0,0.0,0.0,-0.3118567371129537
1663843143405138075,0.52000923037529,0.0,0.0,0.0,0.0,-0.328168233742811
1663843143455697635,0.4559476673603058,0.0,0.0,0.0,0.0,-0.3117704689502716
1663843143505059105,0.4559476673603058,0.0,0.0,0.0,0.0,-0.3117704689502716
1663843143554884131,0.4559476673603058,0.0,0.0,0.0,0.0,-0.3117704689502716
1663843143604986322,0.4709476673603058,0.0,0.0,0.0,0.0,-0.3220500886969059
1663843143657868357,0.4859476673603058,0.0,0.0,0.0,0.0,-0.3346151573654964
1663843143704927961,0.5009476673603058,0.0,0.0,0.0,0.0,-0.34718022603408694
1663843143755235662,0.5159476673603058,0.0,0.0,0.0,0.0,-0.36392279818804374
1663843143805080394,0.5309476673603059,0.0,0.0,0.0,0.0,-0.3806653703420006
1663843143855008593,0.5459476673603059,0.0,0.0,0.0,0.0,-0.39740794249595746
1663843143904707216,0.5544726848602295,0.0,0.0,0.0,0.0,-0.4069233238697052
1663843143958228884,0.557671844959259,0.0,0.0,0.0,0.0,-0.43177399039268494
1663843144005006532,0.557671844959259,0.0,0.0,0.0,0.0,-0.43177399039268494
1663843144055805817,0.5603141888366159,0.0,0.0,0.0,0.0,-0.606773990392685
1663843144105145065,0.5614092946052551,0.0,0.0,0.0,0.0,-0.4449251890182495
1663843144155573479,0.4806135296821594,0.0,0.0,0.0,0.0,-0.4175766408443451
1663843144205106811,0.4806135296821594,0.0,0.0,0.0,0.0,-0.4175766408443451
1663843144256077740,0.4899872839450836,0.0,0.0,0.0,0.0,-0.4330638349056244
1663843144304986549,0.4899872839450836,0.0,0.0,0.0,0.0,-0.4330638349056244
1663843144356474671,0.4899872839450836,0.0,0.0,0.0,0.0,-0.4330638349056244
1663843144405767806,0.5049872839450836,0.0,0.0,0.0,0.0,-0.5029775315587122
1663843144456050751,0.5199872839450836,0.0,0.0,0.0,0.0,-0.5728912282117999
1663843144505157630,0.5349872839450837,0.0,0.0,0.0,0.0,-0.6384069569094745
1663843144554888409,0.5499872839450837,0.0,0.0,0.0,0.0,-0.703922685607149
1663843144605905120,0.5649872839450837,0.0,0.0,0.0,0.0,-0.7643084569296267
1663843144655094727,0.5799872839450837,0.0,0.0,0.0,0.0,-0.8246942282521044
1663843144705488699,0.512801468372345,0.0,0.0,0.0,0.0,-0.8726646259971653
1663843144755071608,0.527801468372345,0.0,0.0,0.0,0.0,-0.8726646259971653
1663843144804985917,0.542801468372345,0.0,0.0,0.0,0.0,-0.8726646259971653
1663843144854756549,0.557801468372345,0.0,0.0,0.0,0.0,-0.8726646259971653
1663843144905047284,0.572801468372345,0.0,0.0,0.0,0.0,-0.8726646259971653
1663843144954811434,0.587801468372345,0.0,0.0,0.0,0.0,-0.8726646259971653
1663843145004832949,0.602801468372345,0.0,0.0,0.0,0.0,-0.8726646259971653
1663843145055538833,0.6178014683723451,0.0,0.0,0.0,0.0,-0.8726646259971653
1663843145104894486,0.6204317808151244,0.0,0.0,0.0,0.0,-0.8726646259971653
1663843145155575862,0.5441803336143493,0.0,0.0,0.0,0.0,-0.8726646259971653
1663843145205016721,0.5441803336143493,0.0,0.0,0.0,0.0,-0.8726646259971653
1663843145255042980,0.5591803336143493,0.0,0.0,0.0,0.0,-0.8726646259971653
1663843145304822201,0.5741803336143493,0.0,0.0,0.0,0.0,-0.8726646259971653
1663843145355728807,0.5891803336143493,0.0,0.0,0.0,0.0,-0.8726646259971653
1663843145404949729,0.6041803336143493,0.0,0.0,0.0,0.0,-0.8726646259971653
1663843145454849864,0.6191803336143493,0.0,0.0,0.0,0.0,-0.8726646259971653
1663843145504856000,0.6341803336143493,0.0,0.0,0.0,0.0,-0.8726646259971653
1663843145555003223,0.6491803336143493,0.0,0.0,0.0,0.0,-0.8726646259971653
1663843145605484967,0.6641803336143494,0.0,0.0,0.0,0.0,-0.8726646259971653
1663843145655000139,0.6791803336143494,0.0,0.0,0.0,0.0,-0.8726646259971653
1663843145704882066,0.6937652826309203,0.0,0.0,0.0,0.0,-0.8726646259971653
1663843145757169002,0.6253680586814879,0.0,0.0,0.0,0.0,-0.8726646259971653
1663843145804965035,0.6248705387115479,0.0,0.0,0.0,0.0,-0.8726646259971653
1663843145856166582,0.6398705387115479,0.0,0.0,0.0,0.0,-0.8726646259971653
1663843145905038088,0.6548705387115479,0.0,0.0,0.0,0.0,-0.8726646259971653
1663843145955181136,0.6698705387115479,0.0,0.0,0.0,0.0,-0.8726646259971653
1663843146005416284,0.6848705387115479,0.0,0.0,0.0,0.0,-0.8726646259971653
1663843146055000055,0.6998705387115479,0.0,0.0,0.0,0.0,-0.8726646259971653
1663843146104906986,0.7148705387115479,0.0,0.0,0.0,0.0,-0.8726646259971653
1663843146154800727,0.729870538711548,0.0,0.0,0.0,0.0,-0.8726646259971653
1663843146204982308,0.744870538711548,0.0,0.0,0.0,0.0,-0.8726646259971653
1663843146254742318,0.751363217830658,0.0,0.0,0.0,0.0,-0.8726646259971653
1663843146304982831,0.751363217830658,0.0,0.0,0.0,0.0,-0.8726646259971653
1663843146354810178,0.761017382144928,0.0,0.0,0.0,0.0,-0.8726646259971653
1663843146405157694,0.761017382144928,0.0,0.0,0.0,0.0,-0.8726646259971653
1663843146455581223,0.761017382144928,0.0,0.0,0.0,0.0,-0.8726646259971653
1663843146504975152,0.7652813196182251,0.0,0.0,0.0,0.0,-0.8726646259971653
1663843146554788011,0.7652813196182251,0.0,0.0,0.0,0.0,-0.8726646259971653
1663843146605013300,0.7690381407737732,0.0,0.0,0.0,0.0,-0.8726646259971653
1663843146655100739,0.7690381407737732,0.0,0.0,0.0,0.0,-0.8726646259971653
1663843146705054846,0.7631195187568665,0.0,0.0,0.0,0.0,-0.8726646259971653
1663843146755030961,0.7631195187568665,0.0,0.0,0.0,0.0,-0.8726646259971653
1663843146804990169,0.7631195187568665,0.0,0.0,0.0,0.0,-0.8726646259971653
1663843146854998330,0.7631195187568665,0.0,0.0,0.0,0.0,-0.8726646259971653
1663843146904989032,0.7631195187568665,0.0,0.0,0.0,0.0,-0.8726646259971653
1663843146954802832,0.7522557377815247,0.0,0.0,0.0,0.0,-0.8726646259971653
1663843147004793412,0.7522557377815247,0.0,0.0,0.0,0.0,-0.8726646259971653
1663843147054968514,0.7118815183639525,0.0,0.0,0.0,0.0,-1.0471975511965983
1663843147104914842,0.7118815183639525,0.0,0.0,0.0,0.0,-1.0471975511965983
1663843147154902234,0.7118815183639525,0.0,0.0,0.0,0.0,-1.0471975511965983
1663843147205036394,0.7118815183639525,0.0,0.0,0.0,0.0,-1.0471975511965983
1663843147255205357,0.7005871986609158,0.0,0.0,0.0,0.0,-1.2221975511965983
1663843147305068794,0.6893531680107116,0.0,0.0,0.0,0.0,-1.3962634015954642
1663843147354916233,0.663098156452179,0.0,0.0,0.0,0.0,-1.2217304763960313
1663843147405171229,0.663098156452179,0.0,0.0,0.0,0.0,-1.2217304763960313
1663843147454925893,0.663098156452179,0.0,0.0,0.0,0.0,-1.2217304763960313
1663843147505028109,0.663098156452179,0.0,0.0,0.0,0.0,-1.2217304763960313
1663843147554875998,0.6541454792022705,0.0,0.0,0.0,0.0,-1.0471975511965983
1663843147605244700,0.6448236703872681,0.0,0.0,0.0,0.0,-1.0471975511965983
1663843147655179516,0.6366093158721924,0.0,0.0,0.0,0.0,-1.2217304763960313
1663843147705220353,0.6367514133453368,0.0,0.0,0.0,0.0,-1.2217304763960313
1663843147755247359,0.6367514133453368,0.0,0.0,0.0,0.0,-1.2217304763960313
1663843147804960820,0.6287351250648497,0.0,0.0,0.0,0.0,-0.8726646259971653
1663843147854968103,0.6287351250648497,0.0,0.0,0.0,0.0,-0.8726646259971653
1663843147905176008,0.6287351250648497,0.0,0.0,0.0,0.0,-0.8726646259971653
1663843147954918573,0.6242215633392334,0.0,0.0,0.0,0.0,-0.8726646259971653
1663843148007396094,0.6242215633392334,0.0,0.0,0.0,0.0,-0.8726646259971653
1663843148055241762,0.6242215633392334,0.0,0.0,0.0,0.0,-0.8726646259971653
1663843148105259199,0.6165383458137512,0.0,0.0,0.0,0.0,-0.6981317007977323
1663843148154969422,0.6152496337890624,0.0,0.0,0.0,0.0,-0.6981317007977323
1663843148209128782,0.6148231625556946,0.0,0.0,0.0,0.0,-0.6981317007977323
1663843148254946203,0.6148231625556946,0.0,0.0,0.0,0.0,-0.6981317007977323
1663843148304833484,0.6148231625556946,0.0,0.0,0.0,0.0,-0.6981317007977323
1663843148356120037,0.5315269827842712,0.0,0.0,0.0,0.0,-0.6981317007977323
1663843148405157018,0.5315269827842712,0.0,0.0,0.0,0.0,-0.6981317007977323
1663843148454789415,0.5315269827842712,0.0,0.0,0.0,0.0,-0.6981317007977323
1663843148505218818,0.5384580492973328,0.0,0.0,0.0,0.0,-0.36790913343429565
1663843148555096184,0.5384580492973328,0.0,0.0,0.0,0.0,-0.36790913343429565
1663843148605078892,0.5445453524589539,0.0,0.0,0.0,0.0,-0.3642304837703705
1663843148655391691,0.5445453524589539,0.0,0.0,0.0,0.0,-0.3642304837703705
1663843148705069138,0.5445453524589539,0.0,0.0,0.0,0.0,-0.3642304837703705
1663843148754805999,0.5445453524589539,0.0,0.0,0.0,0.0,-0.3642304837703705
1663843148805113008,0.5595453524589539,0.0,0.0,0.0,0.0,-0.3523870787023287
1663843148854897666,0.5677331089973449,0.0,0.0,0.0,0.0,-0.3459223508834839
1663843148905050884,0.5677331089973449,0.0,0.0,0.0,0.0,-0.3459223508834839
1663843148955031775,0.5677331089973449,0.0,0.0,0.0,0.0,-0.3459223508834839
1663843149008778718,0.5827331089973449,0.0,0.0,0.0,0.0,-0.3510911859574723
1663843149054833325,0.5977331089973449,0.0,0.0,0.0,0.0,-0.3562600210314607
1663843149105332729,0.6077520251274109,0.0,0.0,0.0,0.0,-0.3254915773868561
1663843149155043634,0.6077520251274109,0.0,0.0,0.0,0.0,-0.3254915773868561
1663843149205143756,0.6177422404289246,0.0,0.0,0.0,0.0,-0.3209710121154785
1663843149254851566,0.6177422404289246,0.0,0.0,0.0,0.0,-0.3209710121154785
1663843149305534335,0.6177422404289246,0.0,0.0,0.0,0.0,-0.3209710121154785
1663843149354813471,0.6327422404289246,0.0,0.0,0.0,0.0,-0.3298644599487545
1663843149405195673,0.6477422404289246,0.0,0.0,0.0,0.0,-0.3387579077820305
1663843149455021700,0.6627422404289246,0.0,0.0,0.0,0.0,-0.34574418544202584
1663843149507219962,0.6777422404289246,0.0,0.0,0.0,0.0,-0.3510882513040538
1663843149554781358,0.6927422404289246,0.0,0.0,0.0,0.0,-0.3564323171660817
1663843149605190311,0.703630805015564,0.0,0.0,0.0,0.0,-0.3603115975856781
1663843149655095823,0.7080327272415161,0.0,0.0,0.0,0.0,-0.36091211438179016
1663843149707018982,0.7080327272415161,0.0,0.0,0.0,0.0,-0.36091211438179016
1663843149754908077,0.6435909867286681,0.0,0.0,0.0,0.0,-0.3087060749530792
1663843149805052145,0.6585909867286681,0.0,0.0,0.0,0.0,-0.3194896813623905
1663843149855063187,0.6735909867286681,0.0,0.0,0.0,0.0,-0.33027328777170173
1663843149905368579,0.6885909867286681,0.0,0.0,0.0,0.0,-0.34105689418101304
1663843149955168123,0.7035909867286682,0.0,0.0,0.0,0.0,-0.3534346045132773
1663843150005152448,0.7185909867286682,0.0,0.0,0.0,0.0,-0.3658123148455416
1663843150055086668,0.7245247960090637,0.0,0.0,0.0,0.0,-0.3745902478694916
1663843150105081450,0.7245247960090637,0.0,0.0,0.0,0.0,-0.3745902478694916
1663843150155224068,0.7293534874916077,0.0,0.0,0.0,0.0,-0.38278108835220337
1663843150204971750,0.7293534874916077,0.0,0.0,0.0,0.0,-0.38278108835220337
1663843150254946238,0.7293534874916077,0.0,0.0,0.0,0.0,-0.38278108835220337
1663843150304925544,0.7443534874916077,0.0,0.0,0.0,0.0,-0.41024052650116405
1663843150355151150,0.7448123693466187,0.0,0.0,0.0,0.0,-0.41108056902885437
1663843150404974548,0.7448123693466187,0.0,0.0,0.0,0.0,-0.41108056902885437
1663843150455072559,0.7501131296157837,0.0,0.0,0.0,0.0,-0.42582857608795166
1663843150505097505,0.7501131296157837,0.0,0.0,0.0,0.0,-0.42582857608795166
1663843150554987224,0.7501131296157837,0.0,0.0,0.0,0.0,-0.42582857608795166
1663843150605205671,0.6844885945320129,0.0,0.0,0.0,0.0,-0.3967105448246002
1663843150663543379,0.6844885945320129,0.0,0.0,0.0,0.0,-0.3967105448246002
1663843150705539048,0.699488594532013,0.0,0.0,0.0,0.0,-0.40910733775486585
1663843150754965063,0.714488594532013,0.0,0.0,0.0,0.0,-0.4215041306851315
1663843150805662033,0.7116987046178721,0.0,0.0,0.0,0.0,-0.5965041306851315
1663843150855094723,0.7089088147037312,0.0,0.0,0.0,0.0,-0.7715041306851316
1663843150905018907,0.7061189247895904,0.0,0.0,0.0,0.0,-0.9465041306851316
1663843150955421070,0.7199166265108538,0.0,0.0,0.0,0.0,-1.1215041306851317
1663843151005312058,0.7337143282321171,0.0,0.0,0.0,0.0,-1.2965041306851317
1663843151055012467,0.7475120299533805,0.0,0.0,0.0,0.0,-1.4715041306851318
1663843151104913403,0.7287461214415524,0.0,0.0,0.0,0.0,-1.6465041306851318
1663843151159931811,0.7437461214415524,0.0,0.0,0.0,0.0,-1.7400352774449295
1663843151204970184,0.7587461214415524,0.0,0.0,0.0,0.0,-1.8335664242047274
1663843151254697774,0.7725857496261597,0.0,0.0,0.0,0.0,-1.9198621771937632
1663843151305165603,0.7733436226844786,0.0,0.0,0.0,0.0,-1.9198621771937632
1663843151354966622,0.7744097113609314,0.0,0.0,0.0,0.0,-1.9198621771937632
1663843151405667902,0.7744097113609314,0.0,0.0,0.0,0.0,-1.9198621771937632
1663843151455261426,0.7771063446998595,0.0,0.0,0.0,0.0,-1.9198621771937632
1663843151505301618,0.7771063446998595,0.0,0.0,0.0,0.0,-1.9198621771937632
1663843151554811325,0.7811747193336487,0.0,0.0,0.0,0.0,-1.9198621771937632
1663843151604878007,0.7811747193336487,0.0,0.0,0.0,0.0,-1.9198621771937632
1663843151654896205,0.7811747193336487,0.0,0.0,0.0,0.0,-1.9198621771937632
