%time,field.linear.x,field.linear.y,field.linear.z,field.angular.x,field.angular.y,field.angular.z
1666089457795312754,0.015,0.0,0.0,0.0,0.0,-0.03841084361826301
1666089457844992473,0.03,0.0,0.0,0.0,0.0,-0.07682168723652602
1666089457895344334,0.045,0.0,0.0,0.0,0.0,-0.11493254302967161
1666089457944929383,0.06,0.0,0.0,0.0,0.0,-0.1530433988228172
1666089457994814871,0.075,0.0,0.0,0.0,0.0,-0.1974353523082722
1666089458044737652,0.09,0.0,0.0,0.0,0.0,-0.2418273057937272
1666089458095552473,0.105,0.0,0.0,0.0,0.0,-0.27967679847049687
1666089458144746125,0.12,0.0,0.0,0.0,0.0,-0.31767917396987155
1666089458194884851,0.135,0.0,0.0,0.0,0.0,-0.35577761996827123
1666089458244787303,0.15000000000000002,0.0,0.0,0.0,0.0,-0.3938760659666709
1666089458295174633,0.16500000000000004,0.0,0.0,0.0,0.0,-0.4319745119650706
1666089458344851288,0.18000000000000005,0.0,0.0,0.0,0.0,-0.46151127485411436
1666089458395566596,0.19500000000000006,0.0,0.0,0.0,0.0,-0.49130234993243077
1666089458444794159,0.21000000000000008,0.0,0.0,0.0,0.0,-0.5210934250107472
1666089458494798244,0.2250000000000001,0.0,0.0,0.0,0.0,-0.5507437617334083
1666089458544873254,0.2400000000000001,0.0,0.0,0.0,0.0,-0.5805052750022849
1666089458596220076,0.2550000000000001,0.0,0.0,0.0,0.0,-0.6102667882711614
1666089458644701614,0.27000000000000013,0.0,0.0,0.0,0.0,-0.6403939508447659
1666089458695319452,0.28500000000000014,0.0,0.0,0.0,0.0,-0.6705211134183704
1666089458744791047,0.30000000000000016,0.0,0.0,0.0,0.0,-0.7014928678716039
1666089458795502033,0.31500000000000017,0.0,0.0,0.0,0.0,-0.7338126207023872
1666089458844781305,0.3300000000000002,0.0,0.0,0.0,0.0,-0.7675892594766863
1666089458897426273,0.3450000000000002,0.0,0.0,0.0,0.0,-0.8013658982509855
1666089458944977822,0.3600000000000002,0.0,0.0,0.0,0.0,-0.8381709314208357
1666089458995110682,0.3750000000000002,0.0,0.0,0.0,0.0,-0.8774176513906228
1666089459044717751,0.39000000000000024,0.0,0.0,0.0,0.0,-0.9166643713604099
1666089459094997972,0.40500000000000025,0.0,0.0,0.0,0.0,-0.9710192248111302
1666089459144754358,0.41883373260498047,0.0,0.0,0.0,0.0,-1.0471975511965983
1666089459195265897,0.28911668062210083,0.0,0.0,0.0,0.0,-0.8726646259971653
1666089459244704789,0.28911668062210083,0.0,0.0,0.0,0.0,-0.8726646259971653
1666089459294692816,0.28911668062210083,0.0,0.0,0.0,0.0,-0.8726646259971653
1666089459344760757,0.1391166806221008,0.0,0.0,0.0,0.0,-0.8275116215988746
1666089459395051113,0.0,0.0,0.0,0.0,0.0,-0.7856347143188391
1666089459444797544,0.0,0.0,0.0,0.0,0.0,-0.7546222631313431
1666089459494793253,0.0,0.0,0.0,0.0,0.0,-0.7546222631313431
1666089459544820398,0.0,0.0,0.0,0.0,0.0,-0.7320094955595418
1666089459595342876,0.0,0.0,0.0,0.0,0.0,-0.7055245398336873
1666089459644790333,0.0,0.0,0.0,0.0,0.0,-0.7055245398336873
1666089459694979434,0.0,0.0,0.0,0.0,0.0,-0.6981317007977323
1666089459745112730,0.0,0.0,0.0,0.0,0.0,-0.6361275031217395
1666089459794823775,0.0,0.0,0.0,0.0,0.0,-0.6361275031217395
1666089459844841127,0.0,0.0,0.0,0.0,0.0,-0.5988314813309267
1666089459895163535,0.0,0.0,0.0,0.0,0.0,-0.5549993337805674
1666089459944738235,0.0,0.0,0.0,0.0,0.0,-0.5549993337805674
1666089459994680757,0.0,0.0,0.0,0.0,0.0,-0.5549993337805674
1666089460044880367,0.0,0.0,0.0,0.0,0.0,-0.5244073246604718
1666089460096393345,0.0,0.0,0.0,0.0,0.0,-0.5244073246604718
1666089460144945520,0.0,0.0,0.0,0.0,0.0,-0.4754056345336529
1666089460196208490,0.0,0.0,0.0,0.0,0.0,-0.4754056345336529
1666089460245140812,0.0,0.0,0.0,0.0,0.0,-0.4481705777472789
1666089460296386543,0.0,0.0,0.0,0.0,0.0,-0.4242927239809319
1666089460344807981,0.0,0.0,0.0,0.0,0.0,-0.4242927239809319
1666089460395334716,0.0,0.0,0.0,0.0,0.0,-0.4242927239809319
1666089460445147944,0.0,0.0,0.0,0.0,0.0,-0.3908351942209196
1666089460495190291,0.0,0.0,0.0,0.0,0.0,-0.3908351942209196
1666089460545236320,0.0,0.0,0.0,0.0,0.0,-0.3712645831612666
1666089460595199587,0.0,0.0,0.0,0.0,0.0,-0.3582207041777944
1666089460644873376,0.0,0.0,0.0,0.0,0.0,-0.3490658503988664
1666089460694766667,0.0,0.0,0.0,0.0,0.0,-0.3490658503988664
1666089460745378226,0.0,0.0,0.0,0.0,0.0,-0.3509215040458393
1666089460796099548,0.0,0.0,0.0,0.0,0.0,-0.3490658503988664
1666089460844873431,0.0,0.0,0.0,0.0,0.0,-0.3490658503988664
1666089460895910511,0.0,0.0,0.0,0.0,0.0,-0.3490658503988664
1666089460944945209,0.0,0.0,0.0,0.0,0.0,-0.3490658503988664
1666089460994720456,0.0,0.0,0.0,0.0,0.0,-0.3490658503988664
1666089461044813995,0.0,0.0,0.0,0.0,0.0,-0.3379330774230671
1666089461096049083,0.0,0.0,0.0,0.0,0.0,-0.3379330774230671
1666089461144852252,0.0,0.0,0.0,0.0,0.0,-0.33828328202777913
1666089461194794437,0.0,0.0,0.0,0.0,0.0,-0.33828328202777913
1666089461245065237,0.0,0.0,0.0,0.0,0.0,-0.3337905186983721
1666089461294881696,0.0,0.0,0.0,0.0,0.0,-0.3305812227676979
1666089461344727420,0.0,0.0,0.0,0.0,0.0,-0.3305812227676979
1666089461395296904,0.0,0.0,0.0,0.0,0.0,-0.32520101895603426
1666089461444998090,0.0,0.0,0.0,0.0,0.0,-0.32520101895603426
1666089461494787324,0.0,0.0,0.0,0.0,0.0,-0.3346251503135821
1666089461544756656,0.0,0.0,0.0,0.0,0.0,-0.3346251503135821
1666089461594869648,0.0,0.0,0.0,0.0,0.0,-0.33697991061297605
1666089461645486991,0.0,0.0,0.0,0.0,0.0,-0.3490658503988664
1666089461695525839,0.0,0.0,0.0,0.0,0.0,-0.3490658503988664
1666089461744857238,0.0,0.0,0.0,0.0,0.0,-0.3490658503988664
1666089461795416337,0.0,0.0,0.0,0.0,0.0,-0.3490658503988664
1666089461844819343,0.0,0.0,0.0,0.0,0.0,-0.3490658503988664
1666089461894933261,0.0,0.0,0.0,0.0,0.0,-0.35457789444969606
1666089461944893100,0.0,0.0,0.0,0.0,0.0,-0.35457789444969606
1666089461995046087,0.0,0.0,0.0,0.0,0.0,-0.36269622098052334
1666089462045131921,0.0,0.0,0.0,0.0,0.0,-0.3684643611552375
1666089462095134561,0.0,0.0,0.0,0.0,0.0,-0.3684643611552375
1666089462145274807,0.0,0.0,0.0,0.0,0.0,-0.3734260339836449
1666089462195481945,0.0,0.0,0.0,0.0,0.0,-0.3734260339836449
1666089462244711596,0.0,0.0,0.0,0.0,0.0,-0.3844792728993898
1666089462295473491,0.0,0.0,0.0,0.0,0.0,-0.3849751714707308
1666089462344971379,0.0,0.0,0.0,0.0,0.0,-0.39899333824723626
1666089462394823401,0.0,0.0,0.0,0.0,0.0,-0.39899333824723626
1666089462445871213,0.0,0.0,0.0,0.0,0.0,-0.39899333824723626
1666089462494832635,0.0,0.0,0.0,0.0,0.0,-0.4138468166716977
1666089462544819751,0.0,0.0,0.0,0.0,0.0,-0.4122768713527829
1666089462595420973,0.0,0.0,0.0,0.0,0.0,-0.42311206714639893
1666089462644875936,0.0,0.0,0.0,0.0,0.0,-0.42017081556048874
1666089462695006840,0.0,0.0,0.0,0.0,0.0,-0.42017081556048874
1666089462745056407,0.0,0.0,0.0,0.0,0.0,-0.4032730794051606
1666089462794842125,0.0,0.0,0.0,0.0,0.0,-0.4032730794051606
1666089462845385622,0.0,0.0,0.0,0.0,0.0,-0.39682825998899873
1666089462895176199,0.0,0.0,0.0,0.0,0.0,-0.39305318390613125
1666089462944896492,0.0,0.0,0.0,0.0,0.0,-0.3847561146408996
1666089462995280137,0.0,0.0,0.0,0.0,0.0,-0.3847561146408996
1666089463044785667,0.0,0.0,0.0,0.0,0.0,-0.3633291024553182
1666089463094961530,0.0,0.0,0.0,0.0,0.0,-0.3490658503988664
1666089463144917287,0.0,0.0,0.0,0.0,0.0,-0.3490658503988664
1666089463195171311,0.0,0.0,0.0,0.0,0.0,-0.32726122505607486
1666089463244882445,0.0,0.0,0.0,0.0,0.0,-0.32726122505607486
1666089463296042097,0.0,0.0,0.0,0.0,0.0,-0.31502767058280484
1666089463344971135,0.0,0.0,0.0,0.0,0.0,-0.31502767058280484
1666089463395035286,0.0,0.0,0.0,0.0,0.0,-0.2993868792555913
1666089463444824090,0.0,0.0,0.0,0.0,0.0,-0.28245356493302326
1666089463494921668,0.015,0.0,0.0,0.0,0.0,-0.27684102953427087
1666089463544855842,0.03,0.0,0.0,0.0,0.0,-0.27122849413551847
1666089463594840323,0.045,0.0,0.0,0.0,0.0,-0.2656159587367661
1666089463645445557,0.06,0.0,0.0,0.0,0.0,-0.2570247689271903
1666089463695566929,0.075,0.0,0.0,0.0,0.0,-0.24843357911761452
1666089463744865144,0.09,0.0,0.0,0.0,0.0,-0.23984238930803875
1666089463794864071,0.105,0.0,0.0,0.0,0.0,-0.23178539079229768
1666089463844879683,0.12,0.0,0.0,0.0,0.0,-0.22804718709158017
1666089463894809909,0.135,0.0,0.0,0.0,0.0,-0.22430898339086267
1666089463944778034,0.15000000000000002,0.0,0.0,0.0,0.0,-0.22075174677435258
1666089463995224556,0.16500000000000004,0.0,0.0,0.0,0.0,-0.2173042744945419
1666089464045282779,0.18000000000000005,0.0,0.0,0.0,0.0,-0.21385680221473122
1666089464094909939,0.19500000000000006,0.0,0.0,0.0,0.0,-0.21040932993492054
1666089464144967517,0.21000000000000008,0.0,0.0,0.0,0.0,-0.20706458940908168
1666089464194874569,0.2250000000000001,0.0,0.0,0.0,0.0,-0.20380172547673595
1666089464245143453,0.2400000000000001,0.0,0.0,0.0,0.0,-0.20063511737506223
1666089464294718802,0.2550000000000001,0.0,0.0,0.0,0.0,-0.19746850927338852
1666089464344795820,0.27000000000000013,0.0,0.0,0.0,0.0,-0.19443440815081436
1666089464394769951,0.28500000000000014,0.0,0.0,0.0,0.0,-0.19360903120720194
1666089464448341691,0.30000000000000016,0.0,0.0,0.0,0.0,-0.1927836542635895
1666089464494738848,0.31500000000000017,0.0,0.0,0.0,0.0,-0.19196806367676864
1666089464545549775,0.3300000000000002,0.0,0.0,0.0,0.0,-0.19115904774356038
1666089464595270181,0.3450000000000002,0.0,0.0,0.0,0.0,-0.19025889437491403
1666089464644783112,0.3600000000000002,0.0,0.0,0.0,0.0,-0.18935874100626768
1666089464694829280,0.3750000000000002,0.0,0.0,0.0,0.0,-0.19781025368804803
1666089464745393977,0.39000000000000024,0.0,0.0,0.0,0.0,-0.19630511474772483
1666089464794825850,0.40500000000000025,0.0,0.0,0.0,0.0,-0.19479997580740163
1666089464844681283,0.42000000000000026,0.0,0.0,0.0,0.0,-0.19329483686707843
1666089464895249084,0.4350000000000003,0.0,0.0,0.0,0.0,-0.20636324060096523
1666089464944955747,0.4500000000000003,0.0,0.0,0.0,0.0,-0.2195057833140504
1666089464994795046,0.4650000000000003,0.0,0.0,0.0,0.0,-0.2326483260271356
1666089465045435954,0.4800000000000003,0.0,0.0,0.0,0.0,-0.24321808367680736
1666089465095094223,0.49500000000000033,0.0,0.0,0.0,0.0,-0.25378784132647914
1666089465145330471,0.5100000000000003,0.0,0.0,0.0,0.0,-0.26443420964856035
1666089465194716731,0.5250000000000004,0.0,0.0,0.0,0.0,-0.27508057797064156
1666089465244668506,0.5400000000000004,0.0,0.0,0.0,0.0,-0.259165751078551
1666089465294960814,0.5550000000000004,0.0,0.0,0.0,0.0,-0.24310783743373085
1666089465344763469,0.5700000000000004,0.0,0.0,0.0,0.0,-0.2270499237889107
1666089465394783079,0.5850000000000004,0.0,0.0,0.0,0.0,-0.21099201014409055
1666089465445052562,0.6000000000000004,0.0,0.0,0.0,0.0,-0.18985943282639403
1666089465494876386,0.6108788251876831,0.0,0.0,0.0,0.0,-0.17453292519943345
1666089465544826745,0.6108788251876831,0.0,0.0,0.0,0.0,-0.17453292519943345
1666089465595293518,0.6037368774414061,0.0,0.0,0.0,0.0,-0.17453292519943345
1666089465644979360,0.6000024080276489,0.0,0.0,0.0,0.0,-0.17453292519943345
1666089465694922097,0.5610756278038025,0.0,0.0,0.0,0.0,-0.17453292519943345
1666089465744812899,0.5610756278038025,0.0,0.0,0.0,0.0,-0.17453292519943345
1666089465794770283,0.5610756278038025,0.0,0.0,0.0,0.0,-0.17453292519943345
1666089465845533380,0.5760756278038025,0.0,0.0,0.0,0.0,-0.17453292519943345
1666089465894752735,0.5775466561317444,0.0,0.0,0.0,0.0,-0.17453292519943345
1666089465944865327,0.5649810433387756,0.0,0.0,0.0,0.0,-0.17453292519943345
1666089465994989029,0.5647677779197692,0.0,0.0,0.0,0.0,-0.17453292519943345
1666089466044881458,0.5532886385917664,0.0,0.0,0.0,0.0,-0.17453292519943345
1666089466094812367,0.4807731509208679,0.0,0.0,0.0,0.0,-0.032514140009880066
1666089466144724326,0.4807731509208679,0.0,0.0,0.0,0.0,-0.032514140009880066
1666089466194734405,0.4807731509208679,0.0,0.0,0.0,0.0,-0.032514140009880066
1666089466245973118,0.49577315092086793,0.0,0.0,0.0,0.0,-0.07878138591804129
1666089466294734567,0.5022111535072327,0.0,0.0,0.0,0.0,-0.14456860721111298
1666089466344842168,0.5022111535072327,0.0,0.0,0.0,0.0,-0.14456860721111298
1666089466394887411,0.4925524294376373,0.0,0.0,0.0,0.0,-0.15070290863513947
1666089466444924466,0.4869414865970611,0.0,0.0,0.0,0.0,-0.15395760536193848
1666089466494854458,0.4869414865970611,0.0,0.0,0.0,0.0,-0.15395760536193848
1666089466545083942,0.48013004660606384,0.0,0.0,0.0,0.0,-0.15724904835224152
1666089466595101769,0.47745198011398315,0.0,0.0,0.0,0.0,-0.17453292519943345
1666089466644883570,0.4779171842983527,0.0,0.0,0.0,0.0,-0.27453292519943345
1666089466694681129,0.4783823884827223,0.0,0.0,0.0,0.0,-0.3745329251994335
1666089466745023958,0.47958254515309895,0.0,0.0,0.0,0.0,-0.47453292519943346
1666089466795086510,0.48017141222953796,0.0,0.0,0.0,0.0,-0.5235987755982994
1666089466844936668,0.47698495822699777,0.0,0.0,0.0,0.0,-0.6235987755982993
1666089466894811842,0.4707316756248474,0.0,0.0,0.0,0.0,-0.6981317007977323
1666089466944749978,0.4710870385169983,0.0,0.0,0.0,0.0,-0.6981317007977323
1666089466994842897,0.4710870385169983,0.0,0.0,0.0,0.0,-0.6981317007977323
1666089467044970060,0.4611314535140991,0.0,0.0,0.0,0.0,-0.6981317007977323
1666089467094797738,0.4611314535140991,0.0,0.0,0.0,0.0,-0.6981317007977323
1666089467144756772,0.4611314535140991,0.0,0.0,0.0,0.0,-0.6981317007977323
1666089467195057677,0.37468406558036804,0.0,0.0,0.0,0.0,-0.6981317007977323
1666089467245377711,0.38968406558036806,0.0,0.0,0.0,0.0,-0.6981317007977323
1666089467294746790,0.40468406558036807,0.0,0.0,0.0,0.0,-0.6981317007977323
1666089467344880216,0.4196840655803681,0.0,0.0,0.0,0.0,-0.6348579003455868
1666089467394746798,0.4346840655803681,0.0,0.0,0.0,0.0,-0.5715840998934412
1666089467444786236,0.4460597038269043,0.0,0.0,0.0,0.0,-0.5235987755982994
1666089467494853514,0.44856566190719604,0.0,0.0,0.0,0.0,-0.5235987755982994
1666089467545028257,0.44856566190719604,0.0,0.0,0.0,0.0,-0.5235987755982994
1666089467595355521,0.4523074328899383,0.0,0.0,0.0,0.0,-0.3490658503988664
1666089467644788278,0.4523074328899383,0.0,0.0,0.0,0.0,-0.3490658503988664
1666089467694773551,0.4066861569881439,0.0,0.0,0.0,0.0,-0.3490658503988664
1666089467744744618,0.4066861569881439,0.0,0.0,0.0,0.0,-0.3490658503988664
1666089467794908675,0.4066861569881439,0.0,0.0,0.0,0.0,-0.3490658503988664
1666089467844854170,0.41568011045455927,0.0,0.0,0.0,0.0,-0.3490658503988664
1666089467894747774,0.423564612865448,0.0,0.0,0.0,0.0,-0.17453292519943345
1666089467944773535,0.43560177087783813,0.0,0.0,0.0,0.0,-0.07802507281303406
1666089467994972370,0.43560177087783813,0.0,0.0,0.0,0.0,-0.07802507281303406
1666089468046871070,0.4253212809562683,0.0,0.0,0.0,0.0,-0.07156925648450851
1666089468094721030,0.4253212809562683,0.0,0.0,0.0,0.0,-0.07156925648450851
1666089468144739826,0.4253212809562683,0.0,0.0,0.0,0.0,-0.07156925648450851
1666089468194971180,0.2753212809562683,0.0,0.0,0.0,0.0,-0.04632859970726135
1666089468245254876,0.2903212809562683,0.0,0.0,0.0,0.0,-0.04771606413177982
1666089468294775653,0.3053212809562683,0.0,0.0,0.0,0.0,-0.04909661666063644
1666089468344700115,0.32032128095626833,0.0,0.0,0.0,0.0,-0.05009766490395838
1666089468394948190,0.33532128095626834,0.0,0.0,0.0,0.0,-0.051116754055184746
1666089468444897349,0.35032128095626835,0.0,0.0,0.0,0.0,-0.05213584320641112
1666089468494765676,0.36532128095626837,0.0,0.0,0.0,0.0,-0.05242725948817266
1666089468545527032,0.3803212809562684,0.0,0.0,0.0,0.0,-0.0527186757699342
1666089468595038283,0.3953212809562684,0.0,0.0,0.0,0.0,-0.05248384114584623
1666089468645031835,0.4103212809562684,0.0,0.0,0.0,0.0,-0.052249006521758255
1666089468695062929,0.4253212809562684,0.0,0.0,0.0,0.0,-0.050457253667943
1666089468744849941,0.43884092569351196,0.0,0.0,0.0,0.0,-0.048842329531908035
1666089468794870861,0.4486193656921386,0.0,0.0,0.0,0.0,-0.046312619000673294
1666089468844812610,0.4486193656921386,0.0,0.0,0.0,0.0,-0.046312619000673294
1666089468894712173,0.46361936569213863,0.0,0.0,0.0,0.0,-0.04391944890024615
1666089468944687560,0.46590834856033325,0.0,0.0,0.0,0.0,-0.04355425387620926
1666089468994939999,0.47914363995572656,0.0,0.0,0.0,0.0,0.056445746123790747
1666089469046303782,0.47468894720077515,0.0,0.0,0.0,0.0,-0.04020613059401512
1666089469094820510,0.47468894720077515,0.0,0.0,0.0,0.0,-0.04020613059401512
1666089469144993478,0.47468894720077515,0.0,0.0,0.0,0.0,-0.04020613059401512
1666089469194776282,0.4856932636429913,0.0,0.0,0.0,0.0,0.059793869405984884
1666089469245305648,0.4721355736255645,0.0,0.0,0.0,0.0,-0.03539275750517845
1666089469294840848,0.4721355736255645,0.0,0.0,0.0,0.0,-0.03539275750517845
1666089469348153194,0.4714960157871246,0.0,0.0,0.0,0.0,-0.03388328477740288
1666089469394715102,0.4621418714523315,0.0,0.0,0.0,0.0,-0.03156886622309685
1666089469444787204,0.4621418714523315,0.0,0.0,0.0,0.0,-0.03156886622309685
1666089469494852596,0.451106458902359,0.0,0.0,0.0,0.0,-0.02911348082125187
1666089469544776864,0.451106458902359,0.0,0.0,0.0,0.0,-0.02911348082125187
1666089469594722812,0.46083357290618665,0.0,0.0,0.0,0.0,0.07088651917874814
1666089469644788947,0.4371907114982605,0.0,0.0,0.0,0.0,-0.023182295262813568
1666089469695058902,0.43181517720222473,0.0,0.0,0.0,0.0,-0.020047903060913086
1666089469744749298,0.43181517720222473,0.0,0.0,0.0,0.0,-0.020047903060913086
1666089469794832259,0.44681517720222474,0.0,0.0,0.0,0.0,0.0393295168935003
1666089469845661613,0.46181517720222476,0.0,0.0,0.0,0.0,0.09870693684791373
1666089469895950668,0.4276228340131522,0.0,0.0,0.0,0.0,-0.0012930631520862712
1666089469944701288,0.4174136817455292,0.0,0.0,0.0,0.0,-0.005754723213613033
1666089469995004515,0.41784012317657465,0.0,0.0,0.0,0.0,-0.005555754993110895
1666089470045105083,0.40896937251091003,0.0,0.0,0.0,0.0,-0.0033070126082748175
1666089470094691845,0.42396937251091005,0.0,0.0,0.0,0.0,0.04820381892239525
1666089470144921040,0.43896937251091006,0.0,0.0,0.0,0.0,0.09971465045306535
1666089470194961210,0.3916117846965789,0.0,0.0,0.0,0.0,-0.0002664054336491972
1666089470244748385,0.3916117846965789,0.0,0.0,0.0,0.0,-0.0002664054336491972
1666089470294736243,0.38098442554473877,0.0,0.0,0.0,0.0,0.00241278950124979
1666089470345837219,0.3823348581790924,0.0,0.0,0.0,0.0,0.0025559065397828817
1666089470394993224,0.372797429561615,0.0,0.0,0.0,0.0,0.002570136683061719
1666089470444992517,0.3684779405593872,0.0,0.0,0.0,0.0,0.0023603953886777163
1666089470494737350,0.3834779405593872,0.0,0.0,0.0,0.0,0.036247756178986255
1666089470544965331,0.39847794055938723,0.0,0.0,0.0,0.0,0.07013511696929481
1666089470594872979,0.41347794055938725,0.0,0.0,0.0,0.0,0.10402247775960338
1666089470644933109,0.4219821095466614,0.0,0.0,0.0,0.0,0.12323473393917084
1666089470695310146,0.4276449382305145,0.0,0.0,0.0,0.0,0.12509386241436005
1666089470744829496,0.37936118245124817,0.0,0.0,0.0,0.0,0.00978678185492754
1666089470794821823,0.37936118245124817,0.0,0.0,0.0,0.0,0.00978678185492754
1666089470845334387,0.3943611824512482,0.0,0.0,0.0,0.0,0.04077737001718388
1666089470895098098,0.3853833377361297,0.0,0.0,0.0,0.0,0.015869619324803352
1666089470944839753,0.3853833377361297,0.0,0.0,0.0,0.0,0.015869619324803352
1666089470996734320,0.38920286297798157,0.0,0.0,0.0,0.0,0.018574882298707962
1666089471045382707,0.3893417716026306,0.0,0.0,0.0,0.0,0.02238120324909687
1666089471095100838,0.3872356116771698,0.0,0.0,0.0,0.0,0.024154338985681534
1666089471144977409,0.3872356116771698,0.0,0.0,0.0,0.0,0.024154338985681534
1666089471201500907,0.38449317216873163,0.0,0.0,0.0,0.0,0.026214130222797394
1666089471244736639,0.3816182911396026,0.0,0.0,0.0,0.0,0.0295310840010643
1666089471294841139,0.37994083726514993,0.0,0.0,0.0,0.0,0.1295310840010643
1666089471344887022,0.37826338339069726,0.0,0.0,0.0,0.0,0.2295310840010643
1666089471394764559,0.37658592951624464,0.0,0.0,0.0,0.0,0.32953108400106434
1666089471447152255,0.36486308312750165,0.0,0.0,0.0,0.0,0.4295310840010643
1666089471495066376,0.3536224663257599,0.0,0.0,0.0,0.0,0.5235987755982984
1666089471544842963,0.3536224663257599,0.0,0.0,0.0,0.0,0.5235987755982984
1666089471595243869,0.33900111452045945,0.0,0.0,0.0,0.0,0.6235987755982983
1666089471644864531,0.3281033933162689,0.0,0.0,0.0,0.0,0.6981317007977313
1666089471696791946,0.3184442222118377,0.0,0.0,0.0,0.0,0.6981317007977313
1666089471746490787,0.3184442222118377,0.0,0.0,0.0,0.0,0.6981317007977313
1666089471795039279,0.31016153097152704,0.0,0.0,0.0,0.0,0.6981317007977313
1666089471845540328,0.31016153097152704,0.0,0.0,0.0,0.0,0.6981317007977313
1666089471895219545,0.3151162564754486,0.0,0.0,0.0,0.0,0.6981317007977313
1666089471945285859,0.3151162564754486,0.0,0.0,0.0,0.0,0.6981317007977313
1666089471996477660,0.3301162564754486,0.0,0.0,0.0,0.0,0.7239368203126696
1666089472044791569,0.34511625647544864,0.0,0.0,0.0,0.0,0.7497419398276078
1666089472096349281,0.36011625647544865,0.0,0.0,0.0,0.0,0.7755470593425461
1666089472145050335,0.3090548813343048,0.0,0.0,0.0,0.0,0.8726646259971643
1666089472194795351,0.3240548813343048,0.0,0.0,0.0,0.0,0.8726646259971643
1666089472245075009,0.3085798919200897,0.0,0.0,0.0,0.0,0.6981317007977313
1666089472295654750,0.3085798919200897,0.0,0.0,0.0,0.0,0.6981317007977313
1666089472345000282,0.3097330839840817,0.0,0.0,0.0,0.0,0.7981317007977313
1666089472394774513,0.3105925917625427,0.0,0.0,0.0,0.0,0.8726646259971643
1666089472445369334,0.32559259176254274,0.0,0.0,0.0,0.0,0.8726646259971643
1666089472494726762,0.34059259176254275,0.0,0.0,0.0,0.0,0.8726646259971643
1666089472544694450,0.3230339884757995,0.0,0.0,0.0,0.0,0.6981317007977313
1666089472594800917,0.3225364685058594,0.0,0.0,0.0,0.0,0.6981317007977313
1666089472645881019,0.3293057978153229,0.0,0.0,0.0,0.0,0.6981317007977313
1666089472695182111,0.3293057978153229,0.0,0.0,0.0,0.0,0.6981317007977313
1666089472745317655,0.34362795948982233,0.0,0.0,0.0,0.0,0.5235987755982984
1666089472794827864,0.34362795948982233,0.0,0.0,0.0,0.0,0.5235987755982984
1666089472849745295,0.35862795948982235,0.0,0.0,0.0,0.0,0.5235987755982984
1666089472894786826,0.37362795948982236,0.0,0.0,0.0,0.0,0.5235987755982984
1666089472945030683,0.3842254877090454,0.0,0.0,0.0,0.0,0.5235987755982984
1666089472994770653,0.39103490114212036,0.0,0.0,0.0,0.0,0.5235987755982984
1666089473044799923,0.39103490114212036,0.0,0.0,0.0,0.0,0.5235987755982984
1666089473094832165,0.39776313304901123,0.0,0.0,0.0,0.0,0.3490658503988654
1666089473144824460,0.3983646035194397,0.0,0.0,0.0,0.0,0.3490658503988654
1666089473194819089,0.39373064041137695,0.0,0.0,0.0,0.0,0.3490658503988654
1666089473244955249,0.39373064041137695,0.0,0.0,0.0,0.0,0.3490658503988654
1666089473294717918,0.39373064041137695,0.0,0.0,0.0,0.0,0.3490658503988654
1666089473345099602,0.38871353864669794,0.0,0.0,0.0,0.0,0.17453292519943245
1666089473395122974,0.39455354213714594,0.0,0.0,0.0,0.0,0.17453292519943245
1666089473444725754,0.39455354213714594,0.0,0.0,0.0,0.0,0.17453292519943245
1666089473494733879,0.3896951675415039,0.0,0.0,0.0,0.0,0.17453292519943245
1666089473545601646,0.3896951675415039,0.0,0.0,0.0,0.0,0.17453292519943245
1666089473594828437,0.4031565487384796,0.0,0.0,0.0,0.0,0.17453292519943245
1666089473644886112,0.4031565487384796,0.0,0.0,0.0,0.0,0.17453292519943245
1666089473697292654,0.37793925404548645,0.0,0.0,0.0,0.0,0.17453292519943245
1666089473744991883,0.37793925404548645,0.0,0.0,0.0,0.0,0.17453292519943245
1666089473794933951,0.3834027051925659,0.0,0.0,0.0,0.0,0.17453292519943245
1666089473844765767,0.3834027051925659,0.0,0.0,0.0,0.0,0.17453292519943245
1666089473894849444,0.39840270519256593,0.0,0.0,0.0,0.0,0.17453292519943245
1666089473946955286,0.40268781781196594,0.0,0.0,0.0,0.0,0.17453292519943245
1666089473996353020,0.4174323081970215,0.0,0.0,0.0,0.0,0.07321206480264664
1666089474044826416,0.4174323081970215,0.0,0.0,0.0,0.0,0.07321206480264664
1666089474094983161,0.4174323081970215,0.0,0.0,0.0,0.0,0.07321206480264664
1666089474146440129,0.4137152853989674,0.0,0.0,0.0,0.0,0.17321206480264664
1666089474195328468,0.4136661887168884,0.0,0.0,0.0,0.0,0.17453292519943245
1666089474244739689,0.42056365525022577,0.0,0.0,0.0,0.0,0.27453292519943245
1666089474294836656,0.27056365525022574,0.0,0.0,0.0,0.0,0.17643546458896964
1666089474347420828,0.17389167626483498,0.0,0.0,0.0,0.0,0.07643546458896963
1666089474395400483,0.1,0.0,0.0,0.0,0.0,-4.996003610813204e-16
1666089474444829354,0.1,0.0,0.0,0.0,0.0,-4.996003610813204e-16
1666089474494689910,0.1,0.0,0.0,0.0,0.0,-4.996003610813204e-16
1666089474545234727,0.1,0.0,0.0,0.0,0.0,-4.996003610813204e-16
1666089474594893905,0.1,0.0,0.0,0.0,0.0,-4.996003610813204e-16
1666089474645058506,0.1,0.0,0.0,0.0,0.0,-4.996003610813204e-16
1666089474695278226,0.1,0.0,0.0,0.0,0.0,-4.996003610813204e-16
1666089474745563132,0.1,0.0,0.0,0.0,0.0,0.0999999999999995
1666089474795174865,0.1,0.0,0.0,0.0,0.0,0.1999999999999995
1666089474846658051,0.1,0.0,0.0,0.0,0.0,0.2999999999999995
1666089474895241024,0.1,0.0,0.0,0.0,0.0,0.39999999999999947
1666089474946517695,0.1,0.0,0.0,0.0,0.0,0.49999999999999944
1666089474994970093,0.1,0.0,0.0,0.0,0.0,0.39999999999999947
1666089475045294510,0.1,0.0,0.0,0.0,0.0,0.2999999999999995
1666089475094903334,0.1,0.0,0.0,0.0,0.0,0.19999999999999948
1666089475145102258,0.1,0.0,0.0,0.0,0.0,0.17453292519943245
1666089475194818647,0.1,0.0,0.0,0.0,0.0,0.17453292519943245
1666089475245383370,0.1,0.0,0.0,0.0,0.0,0.27453292519943245
1666089475295030051,0.1,0.0,0.0,0.0,0.0,0.3745329251994325
1666089475345099920,0.1,0.0,0.0,0.0,0.0,0.47453292519943246
1666089475394796318,0.1,0.0,0.0,0.0,0.0,0.5745329251994324
1666089475444869726,0.1,0.0,0.0,0.0,0.0,0.6745329251994324
1666089475495091838,0.1,0.0,0.0,0.0,0.0,0.7745329251994324
1666089475544855115,0.1,0.0,0.0,0.0,0.0,0.8726646259971643
1666089475594917014,0.1,0.0,0.0,0.0,0.0,0.8726646259971643
1666089475644964333,0.1,0.0,0.0,0.0,0.0,0.7726646259971643
1666089475694761975,0.1,0.0,0.0,0.0,0.0,0.6726646259971644
1666089475745233298,0.115,0.0,0.0,0.0,0.0,0.6582187654408548
1666089475794835086,0.13,0.0,0.0,0.0,0.0,0.6437824956714765
1666089475845196195,0.14500000000000002,0.0,0.0,0.0,0.0,0.6293462259020982
1666089475894950712,0.16000000000000003,0.0,0.0,0.0,0.0,0.6149099561327199
1666089475944807935,0.17500000000000004,0.0,0.0,0.0,0.0,0.5946050263580599
1666089475994854134,0.19000000000000006,0.0,0.0,0.0,0.0,0.5603400514316518
1666089476045778785,0.20500000000000007,0.0,0.0,0.0,0.0,0.5266119243928024
1666089476095353177,0.22000000000000008,0.0,0.0,0.0,0.0,0.49288379735395293
1666089476146230144,0.2350000000000001,0.0,0.0,0.0,0.0,0.4587582756358737
1666089476194983402,0.2500000000000001,0.0,0.0,0.0,0.0,0.4246327539177944
1666089476245459683,0.2650000000000001,0.0,0.0,0.0,0.0,0.3885849623006385
1666089476294996175,0.28000000000000014,0.0,0.0,0.0,0.0,0.35253717068348256
1666089476346041897,0.29500000000000015,0.0,0.0,0.0,0.0,0.3168028407959313
1666089476394895599,0.31000000000000016,0.0,0.0,0.0,0.0,0.28106851090838003
1666089476444963998,0.3250000000000002,0.0,0.0,0.0,0.0,0.24512119353685008
1666089476496300725,0.3400000000000002,0.0,0.0,0.0,0.0,0.20917387616532013
1666089476546680543,0.3550000000000002,0.0,0.0,0.0,0.0,0.1727019075546079
1666089476594894853,0.3700000000000002,0.0,0.0,0.0,0.0,0.13622993894389568
1666089476644994384,0.38500000000000023,0.0,0.0,0.0,0.0,0.09710953019103621
1666089476694750402,0.40000000000000024,0.0,0.0,0.0,0.0,0.05575142387189623
1666089476745123681,0.41500000000000026,0.0,0.0,0.0,0.0,0.01405714760219566
1666089476795252094,0.43000000000000027,0.0,0.0,0.0,0.0,-0.02763712866750491
1666089476845052396,0.4450000000000003,0.0,0.0,0.0,0.0,-0.07500036443302074
1666089476895397722,0.4600000000000003,0.0,0.0,0.0,0.0,-0.1329455550413545
1666089476945012844,0.4750000000000003,0.0,0.0,0.0,0.0,-0.19089074564968825
1666089476994753672,0.4900000000000003,0.0,0.0,0.0,0.0,-0.2700820411595458
1666089477045257232,0.49823085394703737,0.0,0.0,0.0,0.0,-0.3700820411595458
1666089477095437400,0.5003077387809753,0.0,0.0,0.0,0.0,-0.3953149616718292
1666089477145044279,0.4860016405582428,0.0,0.0,0.0,0.0,-0.40740713477134705
1666089477195839414,0.4703395664691925,0.0,0.0,0.0,0.0,-0.4185732305049896
1666089477244888792,0.4703395664691925,0.0,0.0,0.0,0.0,-0.4185732305049896
1666089477294951173,0.4703395664691925,0.0,0.0,0.0,0.0,-0.4185732305049896
1666089477346033497,0.3203395664691925,0.0,0.0,0.0,0.0,-0.3910577036918168
1666089477395265009,0.3122636935254788,0.0,0.0,0.0,0.0,-0.4910577036918168
1666089477444922550,0.3041878205817651,0.0,0.0,0.0,0.0,-0.5910577036918168
1666089477494891698,0.3191878205817651,0.0,0.0,0.0,0.0,-0.6290898352958542
1666089477544772751,0.3341878205817651,0.0,0.0,0.0,0.0,-0.6671219668998916
1666089477596244703,0.34212820801383753,0.0,0.0,0.0,0.0,-0.7671219668998915
1666089477645557666,0.35006859544590996,0.0,0.0,0.0,0.0,-0.8671219668998915
1666089477695318974,0.3564675575460625,0.0,0.0,0.0,0.0,-0.9671219668998915
1666089477744993258,0.36162572868462917,0.0,0.0,0.0,0.0,-1.0671219668998915
1666089477795467948,0.3390678349525924,0.0,0.0,0.0,0.0,-1.1671219668998916
1666089477844814872,0.31650994122055565,0.0,0.0,0.0,0.0,-1.2671219668998916
1666089477895003947,0.33150994122055566,0.0,0.0,0.0,0.0,-1.343604822462862
1666089477945219397,0.3465099412205557,0.0,0.0,0.0,0.0,-1.4200876780258325
1666089477995492082,0.35524869178462365,0.0,0.0,0.0,0.0,-1.5200876780258326
1666089478044906190,0.3639874423486916,0.0,0.0,0.0,0.0,-1.6200876780258326
1666089478096205128,0.3735144549092617,0.0,0.0,0.0,0.0,-1.7200876780258327
1666089478144964260,0.38602921366691584,0.0,0.0,0.0,0.0,-1.5707963267948972
1666089478194749291,0.38602921366691584,0.0,0.0,0.0,0.0,-1.5707963267948972
1666089478250747594,0.38602921366691584,0.0,0.0,0.0,0.0,-1.5707963267948972
1666089478295118941,0.40102921366691585,0.0,0.0,0.0,0.0,-1.5707963267948972
1666089478345174431,0.41602921366691586,0.0,0.0,0.0,0.0,-1.5707963267948972
1666089478395521773,0.3160113394260406,0.0,0.0,0.0,0.0,-1.5707963267948972
1666089478445046721,0.3160113394260406,0.0,0.0,0.0,0.0,-1.5707963267948972
1666089478495008641,0.3310113394260406,0.0,0.0,0.0,0.0,-1.4476151551642868
1666089478545190385,0.34074732661247253,0.0,0.0,0.0,0.0,-1.3962634015954642
1666089478594769465,0.35574732661247255,0.0,0.0,0.0,0.0,-1.3612080482624906
1666089478644829281,0.37074732661247256,0.0,0.0,0.0,0.0,-1.3148991118433961
1666089478695400753,0.3857473266124726,0.0,0.0,0.0,0.0,-1.2642722391545562
1666089478744768825,0.4007473266124726,0.0,0.0,0.0,0.0,-1.2136453664657163
1666089478795127464,0.25074732661247257,0.0,0.0,0.0,0.0,-0.7593770710070696
1666089478844849048,0.2657473266124726,0.0,0.0,0.0,0.0,-0.7474100467267533
1666089478895137727,0.2807473266124726,0.0,0.0,0.0,0.0,-0.7354331070735677
1666089478948327830,0.2957473266124726,0.0,0.0,0.0,0.0,-0.723893874101386
1666089478994984905,0.3107473266124726,0.0,0.0,0.0,0.0,-0.7126365266565958
1666089479044818725,0.32574732661247263,0.0,0.0,0.0,0.0,-0.6958884590369557
1666089479095270892,0.34074732661247265,0.0,0.0,0.0,0.0,-0.6791403914173156
1666089479145230595,0.35574732661247266,0.0,0.0,0.0,0.0,-0.6675837695852154
1666089479194899816,0.37074732661247267,0.0,0.0,0.0,0.0,-0.6560271477531151
1666089479244838647,0.3857473266124727,0.0,0.0,0.0,0.0,-0.6421463736690237
1666089479295549815,0.4007473266124727,0.0,0.0,0.0,0.0,-0.628272045262283
1666089479345891026,0.4157473266124727,0.0,0.0,0.0,0.0,-0.6143977168555422
1666089479395885449,0.4307473266124727,0.0,0.0,0.0,0.0,-0.5965199136656721
1666089479444989729,0.44574732661247274,0.0,0.0,0.0,0.0,-0.5804278857954466
1666089479494841963,0.46074732661247275,0.0,0.0,0.0,0.0,-0.564335857925221
1666089479546055723,0.47574732661247277,0.0,0.0,0.0,0.0,-0.5438660560296893
1666089479595643788,0.4907473266124728,0.0,0.0,0.0,0.0,-0.5348545556650642
1666089479645548424,0.5057473266124728,0.0,0.0,0.0,0.0,-0.5258430553004392
1666089479695027077,0.5207473266124728,0.0,0.0,0.0,0.0,-0.5079344603135212
1666089479745464527,0.5357473266124728,0.0,0.0,0.0,0.0,-0.4900258653266032
1666089479794742037,0.5507473266124728,0.0,0.0,0.0,0.0,-0.4721172703396852
1666089479844801948,0.5657473266124728,0.0,0.0,0.0,0.0,-0.4542086753527672
1666089479895073096,0.5807473266124729,0.0,0.0,0.0,0.0,-0.4363000803658492
1666089479945009369,0.5957473266124729,0.0,0.0,0.0,0.0,-0.4183914853789312
1666089479995036724,0.6107473266124729,0.0,0.0,0.0,0.0,-0.40048289039201324
1666089480044858058,0.6257473266124729,0.0,0.0,0.0,0.0,-0.38257429540509524
1666089480094791888,0.6407473266124729,0.0,0.0,0.0,0.0,-0.36466570041817725
1666089480144856314,0.6557473266124729,0.0,0.0,0.0,0.0,-0.34675710543125926
1666089480195200436,0.6707473266124729,0.0,0.0,0.0,0.0,-0.32884851044434127
1666089480244745493,0.685747326612473,0.0,0.0,0.0,0.0,-0.3005963929437637
1666089480294984366,0.700747326612473,0.0,0.0,0.0,0.0,-0.2724015610789364
1666089480344786469,0.715747326612473,0.0,0.0,0.0,0.0,-0.243887786894994
1666089480394688673,0.730747326612473,0.0,0.0,0.0,0.0,-0.21537401271105155
1666089480445125524,0.745747326612473,0.0,0.0,0.0,0.0,-0.18582824599863515
1666089480495505395,0.760747326612473,0.0,0.0,0.0,0.0,-0.15548207092498134
1666089480544849214,0.775747326612473,0.0,0.0,0.0,0.0,-0.12513589585132753
1666089480595540592,0.7900865077972412,0.0,0.0,0.0,0.0,-0.07056713849306107
1666089480644726317,0.7900865077972412,0.0,0.0,0.0,0.0,-0.07056713849306107
1666089480694683273,0.7635630369186401,0.0,0.0,0.0,0.0,-0.06758658587932587
1666089480744904437,0.7360202074050903,0.0,0.0,0.0,0.0,-0.0654819905757904
1666089480794729272,0.7360202074050903,0.0,0.0,0.0,0.0,-0.0654819905757904
1666089480845013054,0.7052349448204039,0.0,0.0,0.0,0.0,-0.06365279108285904
1666089480894829494,0.6685466170310974,0.0,0.0,0.0,0.0,-0.060976430773735046
1666089480944835870,0.6330385804176331,0.0,0.0,0.0,0.0,-4.996003610813204e-16
1666089480994942103,0.6330385804176331,0.0,0.0,0.0,0.0,-4.996003610813204e-16
1666089481044797056,0.6066836714744568,0.0,0.0,0.0,0.0,-0.056724663823843
1666089481094741714,0.6066836714744568,0.0,0.0,0.0,0.0,-0.056724663823843
1666089481145036674,0.6066836714744568,0.0,0.0,0.0,0.0,-0.056724663823843
1666089481194935252,0.5788844227790831,0.0,0.0,0.0,0.0,-0.05350399389863014
1666089481244791412,0.5511789321899413,0.0,0.0,0.0,0.0,-4.996003610813204e-16
1666089481295528782,0.5238917469978333,0.0,0.0,0.0,0.0,-4.996003610813204e-16
1666089481344687352,0.5238917469978333,0.0,0.0,0.0,0.0,-4.996003610813204e-16
1666089481395309405,0.47583895921707153,0.0,0.0,0.0,0.0,-4.996003610813204e-16
1666089481444904345,0.47583895921707153,0.0,0.0,0.0,0.0,-4.996003610813204e-16
1666089481495292189,0.4415298402309418,0.0,0.0,0.0,0.0,0.07230786234140396
1666089481544712132,0.4415298402309418,0.0,0.0,0.0,0.0,0.07230786234140396
1666089481594862378,0.3884722590446472,0.0,0.0,0.0,0.0,-4.996003610813204e-16
1666089481644742461,0.3884722590446472,0.0,0.0,0.0,0.0,-4.996003610813204e-16
1666089481695009419,0.2384722590446472,0.0,0.0,0.0,0.0,-4.996003610813204e-16
1666089481745070619,0.08847225904464717,0.0,0.0,0.0,0.0,-4.996003610813204e-16
1666089481794829240,0.0,0.0,0.0,0.0,0.0,-4.996003610813204e-16
1666089481844734502,0.0,0.0,0.0,0.0,0.0,-4.996003610813204e-16
1666089481895291109,0.0,0.0,0.0,0.0,0.0,-4.996003610813204e-16
1666089481944799676,0.0,0.0,0.0,0.0,0.0,-4.996003610813204e-16
1666089481994987978,0.0,0.0,0.0,0.0,0.0,-4.996003610813204e-16
1666089482044873921,0.0,0.0,0.0,0.0,0.0,-4.996003610813204e-16
1666089482095068139,0.0,0.0,0.0,0.0,0.0,0.0999999999999995
1666089482144783536,0.0,0.0,0.0,0.0,0.0,0.17453292519943245
1666089482194770199,0.0,0.0,0.0,0.0,0.0,0.17453292519943245
1666089482244777794,0.0,0.0,0.0,0.0,0.0,0.17453292519943245
1666089482294812392,0.0,0.0,0.0,0.0,0.0,0.17453292519943245
1666089482345061349,0.0,0.0,0.0,0.0,0.0,0.17453292519943245
1666089482394880067,0.015,0.0,0.0,0.0,0.0,0.1715658104355606
1666089482444783342,0.03,0.0,0.0,0.0,0.0,0.16859869567168875
1666089482495192378,0.045,0.0,0.0,0.0,0.0,0.1656315809078169
1666089482544825618,0.06,0.0,0.0,0.0,0.0,0.15823393451136541
1666089482594880200,0.075,0.0,0.0,0.0,0.0,0.1519765406545182
1666089482644711742,0.09,0.0,0.0,0.0,0.0,0.145719146797671
1666089482694925973,0.105,0.0,0.0,0.0,0.0,0.14040376951757993
1666089482745217247,0.12,0.0,0.0,0.0,0.0,0.13508839223748886
1666089482794959099,0.135,0.0,0.0,0.0,0.0,0.13040380871567997
1666089482845648730,0.15000000000000002,0.0,0.0,0.0,0.0,0.12626121847458616
1666089482894797365,0.16500000000000004,0.0,0.0,0.0,0.0,0.12211862823349234
1666089482944928873,0.18000000000000005,0.0,0.0,0.0,0.0,0.11797603799239853
1666089482994782644,0.19500000000000006,0.0,0.0,0.0,0.0,0.11439566096759726
1666089483044813510,0.21000000000000008,0.0,0.0,0.0,0.0,0.11127391755911295
1666089483094773978,0.2250000000000001,0.0,0.0,0.0,0.0,0.10856444534793568
1666089483144688504,0.2400000000000001,0.0,0.0,0.0,0.0,0.1058549731367584
1666089483195335888,0.2550000000000001,0.0,0.0,0.0,0.0,0.10354222805419251
1666089483244817868,0.27000000000000013,0.0,0.0,0.0,0.0,0.10122948297162662
1666089483294831012,0.28500000000000014,0.0,0.0,0.0,0.0,0.09891673788906073
1666089483344889895,0.30000000000000016,0.0,0.0,0.0,0.0,0.09715607810517145
1666089483394908959,0.31500000000000017,0.0,0.0,0.0,0.0,0.0955991550431475
1666089483444741113,0.3300000000000002,0.0,0.0,0.0,0.0,0.09404223198112356
1666089483495016902,0.3450000000000002,0.0,0.0,0.0,0.0,0.09274050621125514
1666089483545052411,0.3600000000000002,0.0,0.0,0.0,0.0,0.09143878044138672
1666089483595008090,0.3750000000000002,0.0,0.0,0.0,0.0,0.09033231107523812
1666089483644807617,0.39000000000000024,0.0,0.0,0.0,0.0,0.08922584170908952
1666089483695185512,0.40500000000000025,0.0,0.0,0.0,0.0,0.08829222730665637
1666089483745019721,0.42000000000000026,0.0,0.0,0.0,0.0,0.0908467806721113
1666089483795195861,0.4350000000000003,0.0,0.0,0.0,0.0,0.09340133403756623
1666089483845292083,0.4500000000000003,0.0,0.0,0.0,0.0,0.09243247024988127
1666089483895041217,0.4650000000000003,0.0,0.0,0.0,0.0,0.09146360646219631
1666089483944691686,0.4800000000000003,0.0,0.0,0.0,0.0,0.09054845085235243
1666089483995064628,0.49500000000000033,0.0,0.0,0.0,0.0,0.08964170541198212
1666089484044704072,0.5100000000000003,0.0,0.0,0.0,0.0,0.08873495997161181
1666089484094858020,0.5250000000000004,0.0,0.0,0.0,0.0,0.08765910534748973
1666089484144749271,0.5400000000000004,0.0,0.0,0.0,0.0,0.08658325072336766
1666089484194782282,0.5550000000000004,0.0,0.0,0.0,0.0,0.08530054851943827
1666089484244814305,0.5700000000000004,0.0,0.0,0.0,0.0,0.08401784631550889
1666089484295424175,0.5850000000000004,0.0,0.0,0.0,0.0,0.08221580117663756
1666089484345346345,0.6000000000000004,0.0,0.0,0.0,0.0,0.08041375603776622
1666089484394976026,0.6150000000000004,0.0,0.0,0.0,0.0,0.0776950035945375
1666089484444967494,0.6300000000000004,0.0,0.0,0.0,0.0,0.07497625115130878
1666089484495016696,0.6450000000000005,0.0,0.0,0.0,0.0,0.07017998986803359
1666089484544751896,0.6600000000000005,0.0,0.0,0.0,0.0,0.0653837285847584
1666089484594731298,0.6750000000000005,0.0,0.0,0.0,0.0,0.06058746730148319
1666089484645941854,0.6653430595148884,0.0,0.0,0.0,0.0,0.1605874673014832
1666089484695024168,0.6431402899151762,0.0,0.0,0.0,0.0,0.2605874673014832
1666089484744792437,0.6234956383705139,0.0,0.0,0.0,0.0,0.3490658503988654
1666089484794766187,0.5879526734352112,0.0,0.0,0.0,0.0,0.3490658503988654
1666089484844848164,0.5879526734352112,0.0,0.0,0.0,0.0,0.3490658503988654
1666089484894965376,0.5579313039779663,0.0,0.0,0.0,0.0,0.3490658503988654
1666089484944771322,0.5579313039779663,0.0,0.0,0.0,0.0,0.3490658503988654
1666089484995735798,0.5579313039779663,0.0,0.0,0.0,0.0,0.3490658503988654
1666089485045210130,0.5334177017211914,0.0,0.0,0.0,0.0,0.3490658503988654
1666089485094811711,0.47815173864364624,0.0,0.0,0.0,0.0,0.3490658503988654
1666089485144923798,0.47815173864364624,0.0,0.0,0.0,0.0,0.3490658503988654
1666089485195182224,0.47815173864364624,0.0,0.0,0.0,0.0,0.3490658503988654
1666089485245010007,0.4758363962173462,0.0,0.0,0.0,0.0,0.3490658503988654
1666089485294861116,0.47540995478630066,0.0,0.0,0.0,0.0,0.3490658503988654
1666089485345198330,0.47540995478630066,0.0,0.0,0.0,0.0,0.3490658503988654
1666089485395290405,0.3645680546760559,0.0,0.0,0.0,0.0,0.3490658503988654
1666089485444786549,0.21456805467605589,0.0,0.0,0.0,0.0,0.34267422435689615
1666089485494783533,0.06456805467605586,0.0,0.0,0.0,0.0,0.3362825983149269
1666089485544865633,0.0,0.0,0.0,0.0,0.0,0.3335312992499484
1666089485594784100,0.0,0.0,0.0,0.0,0.0,0.356868678414402
1666089485644767670,0.0,0.0,0.0,0.0,0.0,0.356868678414402
1666089485694705989,0.0,0.0,0.0,0.0,0.0,0.356868678414402
1666089485744800784,0.0,0.0,0.0,0.0,0.0,0.3773659290847413
1666089485797690091,0.0,0.0,0.0,0.0,0.0,0.3679998482308148
1666089485845531202,0.0,0.0,0.0,0.0,0.0,0.3679998482308148
1666089485894702030,0.0,0.0,0.0,0.0,0.0,0.3823520372333483
1666089485945058912,0.0,0.0,0.0,0.0,0.0,0.3823520372333483
1666089485995034245,0.0,0.0,0.0,0.0,0.0,0.3868073553917322
1666089486045090549,0.0,0.0,0.0,0.0,0.0,0.3750035169416948
1666089486095033299,0.0,0.0,0.0,0.0,0.0,0.3754044371399048
1666089486144780631,0.0,0.0,0.0,0.0,0.0,0.368921103541683
1666089486194794236,0.0,0.0,0.0,0.0,0.0,0.35825950364607156
1666089486244695760,0.0,0.0,0.0,0.0,0.0,0.35825950364607156
1666089486294999675,0.0,0.0,0.0,0.0,0.0,0.36060209618515604
1666089486345980937,0.0,0.0,0.0,0.0,0.0,0.3490658503988654
1666089486395630308,0.0,0.0,0.0,0.0,0.0,0.32717486840340126
1666089486445086338,0.0,0.0,0.0,0.0,0.0,0.32717486840340126
1666089486494749433,0.0,0.0,0.0,0.0,0.0,0.32717486840340126
1666089486545061625,0.0,0.0,0.0,0.0,0.0,0.3233060431438811
1666089486594895039,0.0,0.0,0.0,0.0,0.0,0.3233060431438811
1666089486645504668,0.0,0.0,0.0,0.0,0.0,0.2811709056059018
1666089486694734076,0.0,0.0,0.0,0.0,0.0,0.2811709056059018
1666089486744932058,0.0,0.0,0.0,0.0,0.0,0.2656268444661087
1666089486794909137,0.0,0.0,0.0,0.0,0.0,0.2593031577579175
1666089486845130160,0.0,0.0,0.0,0.0,0.0,0.24841745658013514
1666089486894778720,0.0,0.0,0.0,0.0,0.0,0.24841745658013514
1666089486945015046,0.0,0.0,0.0,0.0,0.0,0.23181578848698242
1666089486994905506,0.0,0.0,0.0,0.0,0.0,0.17453292519943245
1666089487045116372,0.0,0.0,0.0,0.0,0.0,0.17453292519943245
1666089487095206128,0.0,0.0,0.0,0.0,0.0,0.17453292519943245
1666089487145661713,0.0,0.0,0.0,0.0,0.0,0.17453292519943245
1666089487194753117,0.0,0.0,0.0,0.0,0.0,0.17453292519943245
1666089487244746677,0.0,0.0,0.0,0.0,0.0,0.17453292519943245
1666089487294871603,0.0,0.0,0.0,0.0,0.0,0.17453292519943245
1666089487344843535,0.0,0.0,0.0,0.0,0.0,0.17453292519943245
1666089487394761442,0.0,0.0,0.0,0.0,0.0,0.17453292519943245
1666089487445424555,0.0,0.0,0.0,0.0,0.0,0.17453292519943245
1666089487495095307,0.0,0.0,0.0,0.0,0.0,0.17453292519943245
1666089487544718139,0.0,0.0,0.0,0.0,0.0,0.17453292519943245
1666089487595588031,0.0,0.0,0.0,0.0,0.0,0.17453292519943245
1666089487645315151,0.0,0.0,0.0,0.0,0.0,0.17453292519943245
1666089487694878797,0.0,0.0,0.0,0.0,0.0,0.17453292519943245
1666089487744850711,0.0,0.0,0.0,0.0,0.0,0.17453292519943245
1666089487795370394,0.0,0.0,0.0,0.0,0.0,0.07453292519943244
1666089487844755246,0.0,0.0,0.0,0.0,0.0,-4.996003610813204e-16
1666089487894793451,0.0,0.0,0.0,0.0,0.0,-4.996003610813204e-16
1666089487944739494,0.0,0.0,0.0,0.0,0.0,-4.996003610813204e-16
1666089487994802860,0.0,0.0,0.0,0.0,0.0,-4.996003610813204e-16
1666089488044971818,0.0,0.0,0.0,0.0,0.0,-4.996003610813204e-16
1666089488094940242,0.0,0.0,0.0,0.0,0.0,-4.996003610813204e-16
1666089488144796144,0.0,0.0,0.0,0.0,0.0,-4.996003610813204e-16
1666089488195539490,0.0,0.0,0.0,0.0,0.0,-4.996003610813204e-16
1666089488245998449,0.0,0.0,0.0,0.0,0.0,-4.996003610813204e-16
1666089488294691093,0.0,0.0,0.0,0.0,0.0,-4.996003610813204e-16
1666089488345314919,0.0,0.0,0.0,0.0,0.0,-4.996003610813204e-16
1666089488394977663,0.0,0.0,0.0,0.0,0.0,-4.996003610813204e-16
1666089488444822837,0.0,0.0,0.0,0.0,0.0,-4.996003610813204e-16
1666089488494921610,0.0,0.0,0.0,0.0,0.0,-4.996003610813204e-16
1666089488544786140,0.0,0.0,0.0,0.0,0.0,-4.996003610813204e-16
1666089488595087697,0.0,0.0,0.0,0.0,0.0,-4.996003610813204e-16
1666089488644814553,0.0,0.0,0.0,0.0,0.0,-4.996003610813204e-16
1666089488694943567,0.0,0.0,0.0,0.0,0.0,-4.996003610813204e-16
1666089488745208306,0.0,0.0,0.0,0.0,0.0,-4.996003610813204e-16
1666089488795284561,0.0,0.0,0.0,0.0,0.0,-4.996003610813204e-16
1666089488844868889,0.0,0.0,0.0,0.0,0.0,-4.996003610813204e-16
1666089488894860334,0.0,0.0,0.0,0.0,0.0,-4.996003610813204e-16
1666089488944693740,0.0,0.0,0.0,0.0,0.0,-4.996003610813204e-16
1666089488994980583,0.0,0.0,0.0,0.0,0.0,-4.996003610813204e-16
1666089489044706098,0.0,0.0,0.0,0.0,0.0,-4.996003610813204e-16
1666089489094820655,0.0,0.0,0.0,0.0,0.0,-4.996003610813204e-16
1666089489145151371,0.0,0.0,0.0,0.0,0.0,-4.996003610813204e-16
1666089489195056684,0.0,0.0,0.0,0.0,0.0,-4.996003610813204e-16
1666089489244954891,0.0,0.0,0.0,0.0,0.0,-4.996003610813204e-16
1666089489294833477,0.0,0.0,0.0,0.0,0.0,-4.996003610813204e-16
1666089489345198929,0.0,0.0,0.0,0.0,0.0,-4.996003610813204e-16
1666089489394985039,0.0,0.0,0.0,0.0,0.0,-4.996003610813204e-16
1666089489444781306,0.0,0.0,0.0,0.0,0.0,-4.996003610813204e-16
1666089489495000621,0.0,0.0,0.0,0.0,0.0,-4.996003610813204e-16
1666089489544876031,0.0,0.0,0.0,0.0,0.0,-4.996003610813204e-16
1666089489595676629,0.0,0.0,0.0,0.0,0.0,0.0
1666089489644921986,0.0,0.0,0.0,0.0,0.0,-4.996003610813204e-16
1666089489694979127,0.0,0.0,0.0,0.0,0.0,-4.996003610813204e-16
1666089489744823748,0.0,0.0,0.0,0.0,0.0,-4.996003610813204e-16
1666089489795850707,0.0,0.0,0.0,0.0,0.0,-4.996003610813204e-16
1666089489844925706,0.0,0.0,0.0,0.0,0.0,-4.996003610813204e-16
1666089489895157987,0.0,0.0,0.0,0.0,0.0,-4.996003610813204e-16
1666089489944832163,0.0,0.0,0.0,0.0,0.0,-4.996003610813204e-16
1666089489994938764,0.0,0.0,0.0,0.0,0.0,-4.996003610813204e-16
1666089490045239324,0.0,0.0,0.0,0.0,0.0,-4.996003610813204e-16
1666089490097391573,0.0,0.0,0.0,0.0,0.0,-4.996003610813204e-16
1666089490144786822,0.0,0.0,0.0,0.0,0.0,-4.996003610813204e-16
1666089490195078041,0.0,0.0,0.0,0.0,0.0,-4.996003610813204e-16
1666089490244799728,0.0,0.0,0.0,0.0,0.0,-4.996003610813204e-16
1666089490295319604,0.0,0.0,0.0,0.0,0.0,-4.996003610813204e-16
1666089490344727576,0.0,0.0,0.0,0.0,0.0,-4.996003610813204e-16
1666089490395706892,0.0,0.0,0.0,0.0,0.0,-4.996003610813204e-16
1666089490444853775,0.0,0.0,0.0,0.0,0.0,-4.996003610813204e-16
1666089490495079660,0.0,0.0,0.0,0.0,0.0,-4.996003610813204e-16
1666089490544712848,0.0,0.0,0.0,0.0,0.0,-4.996003610813204e-16
1666089490595331493,0.0,0.0,0.0,0.0,0.0,-4.996003610813204e-16
1666089490644763094,0.0,0.0,0.0,0.0,0.0,-4.996003610813204e-16
1666089490698639816,0.0,0.0,0.0,0.0,0.0,-4.996003610813204e-16
1666089490744801402,0.0,0.0,0.0,0.0,0.0,-4.996003610813204e-16
1666089490794920656,0.0,0.0,0.0,0.0,0.0,-4.996003610813204e-16
1666089490844733324,0.0,0.0,0.0,0.0,0.0,-4.996003610813204e-16
1666089490895016581,0.0,0.0,0.0,0.0,0.0,-4.996003610813204e-16
1666089490944956696,0.0,0.0,0.0,0.0,0.0,-4.996003610813204e-16
1666089490998332122,0.0,0.0,0.0,0.0,0.0,-4.996003610813204e-16
1666089491044711479,0.0,0.0,0.0,0.0,0.0,-4.996003610813204e-16
1666089491094913583,0.0,0.0,0.0,0.0,0.0,-4.996003610813204e-16
1666089491145005137,0.0,0.0,0.0,0.0,0.0,-4.996003610813204e-16
1666089491194908694,0.0,0.0,0.0,0.0,0.0,-4.996003610813204e-16
1666089491245530537,0.0,0.0,0.0,0.0,0.0,-4.996003610813204e-16
1666089491294800940,0.0,0.0,0.0,0.0,0.0,-4.996003610813204e-16
1666089491345148546,0.0,0.0,0.0,0.0,0.0,-4.996003610813204e-16
1666089491394779245,0.0,0.0,0.0,0.0,0.0,-4.996003610813204e-16
1666089491445152323,0.0,0.0,0.0,0.0,0.0,-4.996003610813204e-16
1666089491498961669,0.0,0.0,0.0,0.0,0.0,-4.996003610813204e-16
1666089491544817640,0.0,0.0,0.0,0.0,0.0,-4.996003610813204e-16
1666089491594850841,0.0,0.0,0.0,0.0,0.0,-4.996003610813204e-16
1666089491645960587,0.0,0.0,0.0,0.0,0.0,-4.996003610813204e-16
1666089491695408318,0.0,0.0,0.0,0.0,0.0,-4.996003610813204e-16
1666089491744999665,0.0,0.0,0.0,0.0,0.0,-4.996003610813204e-16
1666089491794985466,0.0,0.0,0.0,0.0,0.0,-4.996003610813204e-16
1666089491844868968,0.0,0.0,0.0,0.0,0.0,-4.996003610813204e-16
1666089491895370326,0.0,0.0,0.0,0.0,0.0,-4.996003610813204e-16
1666089491944692462,0.0,0.0,0.0,0.0,0.0,-4.996003610813204e-16
1666089491995358722,0.0,0.0,0.0,0.0,0.0,-4.996003610813204e-16
1666089492044756500,0.0,0.0,0.0,0.0,0.0,-4.996003610813204e-16
1666089492095034955,0.0,0.0,0.0,0.0,0.0,-4.996003610813204e-16
1666089492145255040,0.0,0.0,0.0,0.0,0.0,-4.996003610813204e-16
1666089492194788435,0.0,0.0,0.0,0.0,0.0,-4.996003610813204e-16
1666089492245167670,0.0,0.0,0.0,0.0,0.0,-4.996003610813204e-16
1666089492296018900,0.0,0.0,0.0,0.0,0.0,-4.996003610813204e-16
1666089492344909177,0.0,0.0,0.0,0.0,0.0,-4.996003610813204e-16
1666089492395429134,0.0,0.0,0.0,0.0,0.0,-4.996003610813204e-16
1666089492444876989,0.0,0.0,0.0,0.0,0.0,-4.996003610813204e-16
1666089492495402470,0.0,0.0,0.0,0.0,0.0,-4.996003610813204e-16
1666089492545170669,0.0,0.0,0.0,0.0,0.0,-4.996003610813204e-16
1666089492601421903,0.0,0.0,0.0,0.0,0.0,-4.996003610813204e-16
1666089492644829863,0.0,0.0,0.0,0.0,0.0,-4.996003610813204e-16
1666089492694975844,0.0,0.0,0.0,0.0,0.0,-4.996003610813204e-16
1666089492744933955,0.0,0.0,0.0,0.0,0.0,-4.996003610813204e-16
1666089492795574203,0.0,0.0,0.0,0.0,0.0,-4.996003610813204e-16
1666089492844736238,0.0,0.0,0.0,0.0,0.0,-4.996003610813204e-16
1666089492894873300,0.0,0.0,0.0,0.0,0.0,-4.996003610813204e-16
1666089492944745279,0.0,0.0,0.0,0.0,0.0,-4.996003610813204e-16
1666089492995206270,0.0,0.0,0.0,0.0,0.0,-4.996003610813204e-16
1666089493044975148,0.0,0.0,0.0,0.0,0.0,-4.996003610813204e-16
1666089493095030610,0.0,0.0,0.0,0.0,0.0,-4.996003610813204e-16
1666089493144735628,0.0,0.0,0.0,0.0,0.0,-4.996003610813204e-16
1666089493194982960,0.0,0.0,0.0,0.0,0.0,0.0999999999999995
1666089493244842363,0.0,0.0,0.0,0.0,0.0,0.17453292519943245
1666089493294816104,0.0,0.0,0.0,0.0,0.0,0.17453292519943245
1666089493344936886,0.0,0.0,0.0,0.0,0.0,0.17453292519943245
