%time,field.x,field.y,field.z
1666091637331017408,0.0,0.0,0.0
1666091637388185476,0.0,0.0,0.0
1666091637520434256,0.0,0.0,0.0
1666091637603131620,0.0,0.0,0.0
1666091637605561411,0.0,0.0,0.0
1666091637674500644,0.0,0.0,0.0
1666091637740566850,0.0,0.0,0.0
1666091637799118571,0.0,0.0,0.0
1666091637899649014,0.0,0.0,0.0
1666091637997956028,0.0,0.0,0.0
1666091638062888713,0.0,0.0,0.0
1666091638127109629,0.0,0.0,0.0
1666091638231708293,0.5802704691886902,-0.8124695420265198,0.0
1666091638344870390,0.600956380367279,-0.8420461416244507,0.0
1666091638346254105,0.6209264397621155,-0.8934447169303894,0.0
1666091638422273172,0.6229682564735413,-0.901360809803009,0.0
1666091638523863475,0.6179438233375549,-0.9374255537986755,0.0
1666091638602280980,0.6111006140708923,-0.9608405232429504,0.0
1666091638691676891,0.6177980303764343,-0.916191577911377,0.0
1666091638759598271,0.6283323168754578,-0.8921695351600647,0.0
1666091638863443731,0.6421175599098206,-0.8712127208709717,0.0
1666091638955615000,0.6450313925743103,-0.8619109988212585,0.0
1666091639043404588,0.6510180830955505,-0.848261296749115,0.0
1666091639086757917,0.6642854809761047,-0.831065833568573,0.0
1666091639174479549,0.6707853078842163,-0.8099485635757446,0.0
1666091639256847572,0.6873316764831543,-0.7900978922843933,0.0
1666091639326586573,0.700622022151947,-0.759096622467041,0.0
1666091639368489045,0.7170483469963074,-0.7371602058410645,0.0
1666091639411398841,0.7400593161582947,-0.6980603933334351,0.0
1666091639510675581,0.7558480501174927,-0.6667765974998474,0.0
1666091639582792566,0.772677481174469,-0.6271036863327026,0.0
1666091639668446827,0.7815399765968323,-0.5841886401176453,0.0
1666091639783294480,0.7936623692512512,-0.5394315719604492,0.0
1666091639785061945,0.8080063462257385,-0.4864591658115387,0.0
1666091639903977349,0.8216466903686523,-0.432281494140625,0.0
1666091639991897159,0.8384281992912292,-0.3768869936466217,0.0
1666091640026706366,0.8497913479804993,-0.3314388394355774,0.0
1666091640134826123,0.8617792129516602,-0.28394341468811035,0.0
1666091640176858124,0.8732433319091797,-0.24590997397899628,0.0
1666091640221842402,0.8810772895812988,-0.20848248898983002,0.0
1666091640329184325,0.8874456882476807,-0.17308777570724487,0.0
1666091640387863039,0.8888632655143738,-0.14738288521766663,0.0
1666091640501157249,0.8826509714126587,-0.1253281980752945,0.0
1666091640509750418,0.8868391513824463,-0.10747174173593521,0.0
1666091640615487829,0.8891952037811279,-0.0922105610370636,0.0
1666091640704848015,0.89082270860672,-0.07779962569475174,0.0
1666091640793006403,0.8920637369155884,-0.07630941271781921,0.0
1666091640836708707,0.886157214641571,-0.07171186804771423,0.0
1666091640891679213,0.8826921582221985,-0.06912367045879364,0.0
1666091640946885038,0.8779470324516296,-0.06555822491645813,0.0
1666091641111093738,0.8817772269248962,-0.06595377624034882,0.0
1666091641147464019,0.8759889602661133,-0.06242404878139496,0.0
1666091641242656874,0.8751664161682129,-0.061298444867134094,0.0
1666091641347949123,0.8778812289237976,-0.06780287623405457,0.0
1666091641412258576,0.8781364560127258,-0.0732947289943695,0.0
1666091641477963496,0.8727956414222717,-0.0736611858010292,0.0
1666091641550105684,0.869472861289978,-0.08307774364948273,0.0
1666091641621569971,0.8624343276023865,-0.09009367972612381,0.0
1666091641699456502,0.8533393740653992,-0.09737147390842438,0.0
1666091641748744522,0.8312078714370728,-0.1002965196967125,0.0
1666091641817219742,0.7999898195266724,-0.10622944682836533,0.0
1666091641947384139,0.7657411694526672,-0.11035053431987762,0.0
1666091642028412697,0.7300005555152893,-0.11791356652975082,0.0
1666091642098212078,0.6979110836982727,-0.12842059135437012,0.0
1666091642145154936,0.6663705110549927,-0.13858255743980408,0.0
1666091642208162718,0.6369471549987793,-0.14678609371185303,0.0
1666091642301108761,0.6079584956169128,-0.16031132638454437,0.0
1666091642349553595,0.5861653685569763,-0.16702023148536682,0.0
1666091642419125596,0.5658088326454163,-0.1739259958267212,0.0
1666091642499900286,0.5450581312179565,-0.18442797660827637,0.0
1666091642553615288,0.5299254059791565,-0.19270795583724976,0.0
1666091642638331117,0.5193791389465332,-0.20021264255046844,0.0
1666091642682879642,0.50542813539505,-0.2067497968673706,0.0
1666091642775223518,0.49309802055358887,-0.21344660222530365,0.0
1666091642833229020,0.4817778170108795,-0.21980398893356323,0.0
1666091642903663532,0.4733225107192993,-0.22493964433670044,0.0
1666091642973506613,0.46915432810783386,-0.2291768491268158,0.0
1666091643029020266,0.4699169993400574,-0.23361283540725708,0.0
1666091643105683715,0.47608670592308044,-0.2379382997751236,0.0
1666091643171042514,0.48194944858551025,-0.2415897399187088,0.0
1666091643235497296,0.4909113049507141,-0.2409866601228714,0.0
1666091643341020096,0.5028193593025208,-0.24133548140525818,0.0
1666091643405065136,0.5283722877502441,-0.2504478693008423,0.0
1666091643498269700,0.5514301657676697,-0.2606540620326996,0.0
1666091643543246637,0.5748975872993469,-0.2706197202205658,0.0
1666091643615138869,0.5972580909729004,-0.2807735800743103,0.0
1666091643679558837,0.6207005977630615,-0.28832095861434937,0.0
1666091643757125423,0.6544426679611206,-0.29555433988571167,0.0
1666091643820228823,0.6877260208129883,-0.3005964756011963,0.0
1666091643923314312,0.7215180993080139,-0.30867186188697815,0.0
1666091643982128897,0.7421719431877136,-0.31326034665107727,0.0
1666091644124473094,0.7621557116508484,-0.3159317076206207,0.0
1666091644186487084,0.780456006526947,-0.317726194858551,0.0
1666091644250581169,0.7966439723968506,-0.32403844594955444,0.0
1666091644302423010,0.8130326867103577,-0.3342903256416321,0.0
1666091644371756238,0.8305892944335938,-0.3443065881729126,0.0
1666091644420008873,0.8449238538742065,-0.3510819375514984,0.0
1666091644505004969,0.8581087589263916,-0.3585926294326782,0.0
1666091644534780788,0.8640534281730652,-0.36397916078567505,0.0
1666091644637538168,0.869691789150238,-0.36759433150291443,0.0
1666091644649706581,0.8759436011314392,-0.36793336272239685,0.0
1666091644767129249,0.9014002680778503,-0.36994996666908264,0.0
1666091644855452657,0.9366099238395691,-0.37620308995246887,0.0
1666091644951796231,0.9532687067985535,-0.38138240575790405,0.0
1666091645040701194,0.9822089076042175,-0.38321542739868164,0.0
1666091645075961828,1.0158518552780151,-0.38603484630584717,0.0
1666091645141545501,1.0379478931427002,-0.38868749141693115,0.0
1666091645212317250,1.0755221843719482,-0.39975523948669434,0.0
1666091645335999442,1.1177475452423096,-0.4053294360637665,0.0
1666091645431606737,1.1562923192977905,-0.4139899015426636,0.0
1666091645476245224,1.1926857233047485,-0.4135252833366394,0.0
1666091645522486169,1.2214274406433105,-0.41672971844673157,0.0
1666091645703973504,1.248718500137329,-0.41283175349235535,0.0
1666091645705141771,1.2700557708740234,-0.41302746534347534,0.0
1666091645767069514,1.295562505722046,-0.4127228558063507,0.0
1666091645849127448,1.3067580461502075,-0.4127526879310608,0.0
1666091645937333732,1.3198590278625488,-0.4110685884952545,0.0
1666091646001340802,1.3289315700531006,-0.4082790017127991,0.0
1666091646089876447,1.3373572826385498,-0.40974608063697815,0.0
1666091646172568980,1.3507757186889648,-0.4121982753276825,0.0
1666091646267490360,1.3661634922027588,-0.41705137491226196,0.0
1666091646335767439,1.3798688650131226,-0.4209993779659271,0.0
1666091646443085312,1.3887284994125366,-0.42500409483909607,0.0
1666091646519698431,1.3947352170944214,-0.4295918941497803,0.0
1666091646566759053,1.4010162353515625,-0.43523091077804565,0.0
1666091646670743784,1.4081488847732544,-0.43951910734176636,0.0
1666091646712330875,1.4073618650436401,-0.44100645184516907,0.0
1666091646754735068,1.4072833061218262,-0.44165557622909546,0.0
1666091646853710906,1.4164081811904907,-0.4466817378997803,0.0
1666091646907523977,1.420365333557129,-0.4477447271347046,0.0
1666091646974239641,1.424761176109314,-0.44987496733665466,0.0
1666091647086806127,1.433205485343933,-0.45803916454315186,0.0
1666091647181187684,1.4545657634735107,-0.4724147617816925,0.0
1666091647186484890,1.470297932624817,-0.4835550785064697,0.0
1666091647261068172,1.4863804578781128,-0.49642282724380493,0.0
1666091647331028823,1.479662299156189,-0.49931201338768005,0.0
1666091647449089787,1.4729769229888916,-0.501200258731842,0.0
1666091647535900307,1.4671683311462402,-0.5032405257225037,0.0
1666091647557821425,1.4636766910552979,-0.506527841091156,0.0
1666091647678052462,1.4562463760375977,-0.5088570713996887,0.0
1666091647679754747,1.4417362213134766,-0.5136361122131348,0.0
1666091647810088709,1.4201337099075317,-0.5216291546821594,0.0
1666091647901417291,1.4031490087509155,-0.5308245420455933,0.0
1666091647993316885,1.381226897239685,-0.5377901792526245,0.0
1666091648053877389,1.369818925857544,-0.5483273267745972,0.0
1666091648180187369,1.3499281406402588,-0.5564607381820679,0.0
1666091648271143089,1.3282783031463623,-0.5634082555770874,0.0
1666091648287087945,1.3110146522521973,-0.5706372261047363,0.0
1666091648365258999,1.2840842008590698,-0.5754766464233398,0.0
1666091648429005256,1.2556514739990234,-0.5800574421882629,0.0
1666091648547024449,1.2207157611846924,-0.5809656381607056,0.0
1666091648630847303,1.1953104734420776,-0.5805046558380127,0.0
1666091648735800449,1.171521544456482,-0.5780140161514282,0.0
1666091648797750675,1.146910548210144,-0.575969934463501,0.0
1666091648904042871,1.1242958307266235,-0.573669970035553,0.0
1666091648941210203,1.097217321395874,-0.572106122970581,0.0
1666091649008367580,1.0727900266647339,-0.5676034688949585,0.0
1666091649077240204,1.051529884338379,-0.5619493126869202,0.0
1666091649171110529,1.0312308073043823,-0.5518582463264465,0.0
1666091649250343638,1.0105329751968384,-0.5425494313240051,0.0
1666091649297019889,0.9923113584518433,-0.5308495163917542,0.0
1666091649364656501,0.9784470796585083,-0.511342465877533,0.0
1666091649423263547,0.968101978302002,-0.48671263456344604,0.0
1666091649513031291,0.9637238383293152,-0.45823103189468384,0.0
1666091649623561350,0.9560184478759766,-0.4211163818836212,0.0
1666091649676151783,0.9648188352584839,-0.38391777873039246,0.0
1666091649751463825,0.9697675108909607,-0.34536564350128174,0.0
1666091649819929668,0.9781818985939026,-0.30317920446395874,0.0
1666091649909539863,0.9882633686065674,-0.2559260427951813,0.0
1666091649967312782,0.998544454574585,-0.21416647732257843,0.0
1666091650045742700,1.0050785541534424,-0.1688767373561859,0.0
1666091650091845690,1.0120989084243774,-0.12045121192932129,0.0
1666091650158010969,1.0159517526626587,-0.08074456453323364,0.0
1666091650247455684,1.0178651809692383,-0.03101556934416294,0.0
1666091650315530892,1.016782522201538,0.009043474681675434,0.0
1666091650432877307,1.0205281972885132,0.04914285987615585,0.0
1666091650486951173,1.024248480796814,0.07835078984498978,0.0
1666091650555359234,1.0206369161605835,0.10807959735393524,0.0
1666091650625222268,1.0144760608673096,0.13528792560100555,0.0
1666091650677872132,1.0040415525436401,0.15672117471694946,0.0
1666091650757224155,0.9925480484962463,0.17926396429538727,0.0
1666091650825139893,0.9835847020149231,0.1997099071741104,0.0
1666091650890732395,0.967342734336853,0.21510997414588928,0.0
1666091650952573259,0.9518488645553589,0.22763821482658386,0.0
1666091651008141194,0.938634991645813,0.23879429697990417,0.0
1666091651112810549,0.9205219149589539,0.24939106404781342,0.0
1666091651159778471,0.9010592103004456,0.2583165764808655,0.0
1666091651234782544,0.8845106959342957,0.26452261209487915,0.0
1666091651293705708,0.8688178062438965,0.2691989541053772,0.0
1666091651389908241,0.8544472455978394,0.2750086188316345,0.0
1666091651452725152,0.8522763848304749,0.2810564339160919,0.0
1666091651512083325,0.8551689982414246,0.2864844501018524,0.0
1666091651600105681,0.8632336854934692,0.28951647877693176,0.0
1666091651645819735,0.8751044869422913,0.29390302300453186,0.0
1666091651709450917,0.8882140517234802,0.2991308271884918,0.0
1666091651775112059,0.9017621874809265,0.3032585084438324,0.0
1666091651841690546,0.9149096012115479,0.30570048093795776,0.0
1666091651895805095,0.9260257482528687,0.30652835965156555,0.0
1666091651959915635,0.936665952205658,0.3057422935962677,0.0
1666091652056780848,0.9479005336761475,0.30538085103034973,0.0
1666091652104550525,0.9566926956176758,0.3053825795650482,0.0
1666091652177405486,0.9649455547332764,0.30777543783187866,0.0
1666091652232078326,0.9726971387863159,0.3079042434692383,0.0
1666091652348851897,0.9809375405311584,0.309787392616272,0.0
1666091652350286329,0.990017294883728,0.3130485415458679,0.0
1666091652424560606,0.9991402626037598,0.31441637873649597,0.0
1666091652544017553,1.0070561170578003,0.3203367292881012,0.0
1666091652633574884,1.011665940284729,0.32821863889694214,0.0
1666091652745521084,1.0239986181259155,0.3372417092323303,0.0
1666091652828893484,1.0341538190841675,0.34533023834228516,0.0
1666091652874384241,1.04270601272583,0.346460223197937,0.0
1666091652945499926,1.0512968301773071,0.34679049253463745,0.0
1666091653034319144,1.057195782661438,0.34551504254341125,0.0
1666091653103927254,1.0641728639602661,0.34194284677505493,0.0
1666091653179982658,1.0673631429672241,0.34152719378471375,0.0
1666091653238418973,1.0644404888153076,0.3443858325481415,0.0
1666091653387242274,1.0694608688354492,0.3520927429199219,0.0
1666091653446088808,1.0722639560699463,0.36027345061302185,0.0
1666091653569634864,1.0805634260177612,0.37405866384506226,0.0
1666091653637890203,1.0883733034133911,0.38861900568008423,0.0
1666091653641308671,1.0903527736663818,0.40854206681251526,0.0
1666091653718172077,1.0923652648925781,0.4333726167678833,0.0
1666091653830915242,1.090750813484192,0.45730966329574585,0.0
1666091653926060532,1.0851585865020752,0.4818360507488251,0.0
1666091653997986518,1.0725035667419434,0.5016477108001709,0.0
1666091654081292839,1.0576423406600952,0.512976884841919,0.0
1666091654124171450,1.0433259010314941,0.5250460505485535,0.0
1666091654216048835,1.0364748239517212,0.5463149547576904,0.0
1666091654256065215,1.0184047222137451,0.5619938969612122,0.0
1666091654310042292,0.9949718117713928,0.5798177719116211,0.0
1666091654443611689,0.9680975675582886,0.591927707195282,0.0
1666091654482657480,0.953075110912323,0.6046252250671387,0.0
1666091654539070322,0.9339854717254639,0.607273519039154,0.0
1666091654615154805,0.9169774055480957,0.6050603985786438,0.0
1666091654718088403,0.8975846171379089,0.6036893725395203,0.0
1666091654779251241,0.8834357261657715,0.6027752161026001,0.0
1666091654892808905,0.8745005130767822,0.6021257638931274,0.0
1666091655004408549,0.8576670289039612,0.5888704657554626,0.0
1666091655031739300,0.8454694747924805,0.5748545527458191,0.0
1666091655098801106,0.8469647765159607,0.5645903944969177,0.0
1666091655157139525,0.8339318633079529,0.5373063087463379,0.0
1666091655221991199,0.8424784541130066,0.5151824355125427,0.0
1666091655305748009,0.8556957840919495,0.4709206223487854,0.0
1666091655413961489,0.8603972792625427,0.44669225811958313,0.0
1666091655499860173,0.8713244199752808,0.41407281160354614,0.0
1666091655523013607,0.8786591291427612,0.37935367226600647,0.0
1666091655591226661,0.8879843354225159,0.3364093601703644,0.0
1666091655659353721,0.899264395236969,0.28262871503829956,0.0
1666091655765035125,0.9070705771446228,0.24249450862407684,0.0
1666091655870114423,0.9050049185752869,0.18588604032993317,0.0
1666091655917923848,0.9083642959594727,0.13212426006793976,0.0
1666091655975315657,0.9308369755744934,0.0865703672170639,0.0
1666091656048752086,0.9427849054336548,0.03375434875488281,0.0
1666091656111758069,0.9960577487945557,-0.038150183856487274,0.0
1666091656234398553,1.0242736339569092,-0.10163155198097229,0.0
1666091656315981047,1.052317500114441,-0.15805810689926147,0.0
1666091656379767811,1.0852144956588745,-0.1996811330318451,0.0
1666091656430731591,1.1254991292953491,-0.23069722950458527,0.0
1666091656508768578,1.1564701795578003,-0.2623228430747986,0.0
1666091656583505810,1.1893306970596313,-0.2850620448589325,0.0
1666091656651419146,1.2140668630599976,-0.31069499254226685,0.0
1666091656739217995,1.235750675201416,-0.332726389169693,0.0
1666091656792161573,1.2553781270980835,-0.3369084298610687,0.0
1666091656884978418,1.2714660167694092,-0.33968448638916016,0.0
1666091656957092292,1.2890117168426514,-0.357217013835907,0.0
1666091657004221435,1.3051854372024536,-0.356357216835022,0.0
1666091657077559168,1.3117018938064575,-0.3734003007411957,0.0
1666091657137555930,1.3190540075302124,-0.3863890469074249,0.0
1666091657198653898,1.323633074760437,-0.39940619468688965,0.0
1666091657265900652,1.3201289176940918,-0.41223615407943726,0.0
1666091657347273967,1.3158844709396362,-0.4233252704143524,0.0
1666091657416440068,1.30983304977417,-0.43359407782554626,0.0
1666091657542352014,1.3020099401474,-0.4414214491844177,0.0
1666091657650038643,1.2950849533081055,-0.44792699813842773,0.0
1666091657651823727,1.2875133752822876,-0.45442938804626465,0.0
1666091657776867087,1.2792555093765259,-0.45946264266967773,0.0
1666091657863427505,1.274823784828186,-0.46362724900245667,0.0
1666091657926422313,1.2665627002716064,-0.46636396646499634,0.0
1666091657958351581,1.2665536403656006,-0.4635378420352936,0.0
1666091658024048046,1.2565141916275024,-0.4683094024658203,0.0
1666091658090050038,1.2531960010528564,-0.46793174743652344,0.0
1666091658166895627,1.247035026550293,-0.47023001313209534,0.0
1666091658265758963,1.2402948141098022,-0.4765220582485199,0.0
1666091658333469913,1.2293121814727783,-0.48191219568252563,0.0
1666091658395378793,1.2166283130645752,-0.4893467426300049,0.0
1666091658458822917,1.1994175910949707,-0.4999856650829315,0.0
1666091658549331710,1.1878353357315063,-0.5181587338447571,0.0
1666091658586450260,1.168773889541626,-0.5365277528762817,0.0
1666091658665114332,1.1465175151824951,-0.5576997399330139,0.0
1666091658733108519,1.1225714683532715,-0.5740934610366821,0.0
1666091658791926923,1.1023335456848145,-0.5849757790565491,0.0
1666091658873399142,1.0834232568740845,-0.5998771786689758,0.0
1666091658978511318,1.0585498809814453,-0.6172965168952942,0.0
1666091659063378562,1.0300551652908325,-0.6299922466278076,0.0
1666091659145957192,0.9978348016738892,-0.6460735201835632,0.0
1666091659157235648,0.9620800018310547,-0.6638423204421997,0.0
1666091659282108164,0.9255587458610535,-0.679781436920166,0.0
1666091659362916457,0.887089729309082,-0.6921231150627136,0.0
1666091659427400393,0.8563221096992493,-0.6995725035667419,0.0
1666091659477768356,0.8319392204284668,-0.7044954299926758,0.0
1666091659559701842,0.8147569894790649,-0.7027297616004944,0.0
1666091659613308655,0.8045317530632019,-0.6964401602745056,0.0
1666091659698203518,0.7966175675392151,-0.6859803795814514,0.0
1666091659739547070,0.794823408126831,-0.6699053645133972,0.0
1666091659830473125,0.7997180819511414,-0.6506645083427429,0.0
1666091659901813382,0.8094868063926697,-0.6270433664321899,0.0
1666091659950851444,0.8181005120277405,-0.6035270094871521,0.0
1666091660017843568,0.8339684009552002,-0.5764628052711487,0.0
1666091660127840064,0.8516803979873657,-0.5442148447036743,0.0
1666091660130226324,0.8658145666122437,-0.5096482634544373,0.0
1666091660187532323,0.8808076977729797,-0.471219003200531,0.0
1666091660321242930,0.8964430689811707,-0.43072545528411865,0.0
1666091660367919959,0.910071849822998,-0.3888527750968933,0.0
1666091660498087298,0.9224019646644592,-0.353478342294693,0.0
1666091660503142472,0.9325987696647644,-0.31295910477638245,0.0
1666091660583754449,0.945101261138916,-0.2733228802680969,0.0
1666091660677523717,0.9587768912315369,-0.23859359323978424,0.0
1666091660747626292,0.9724410772323608,-0.20566150546073914,0.0
1666091660857701737,0.9855743646621704,-0.17844000458717346,0.0
1666091660900384870,1.0002484321594238,-0.1558247208595276,0.0
1666091660948264768,1.014931082725525,-0.1368582546710968,0.0
1666091661027885778,1.0298621654510498,-0.12282726168632507,0.0
1666091661029554240,1.0442025661468506,-0.11438009887933731,0.0
1666091661146248461,1.05829918384552,-0.10763876140117645,0.0
1666091661204309535,1.0717897415161133,-0.10277985036373138,0.0
1666091661272571102,1.0821740627288818,-0.09959893673658371,0.0
1666091661340677969,1.091225266456604,-0.09687914699316025,0.0
1666091661384193339,1.1024410724639893,-0.09009227901697159,0.0
1666091661458887811,1.1146917343139648,-0.0832008570432663,0.0
1666091661551302327,1.1317275762557983,-0.07254862040281296,0.0
1666091661627329993,1.1491119861602783,-0.06242285296320915,0.0
1666091661726645125,1.1668907403945923,-0.053879208862781525,0.0
1666091661846244394,1.1869157552719116,-0.04532778263092041,0.0
1666091661855810042,1.2054885625839233,-0.03989937901496887,0.0
1666091661985795278,1.2254568338394165,-0.03830895945429802,0.0
1666091661987242507,1.251150131225586,-0.04452723264694214,0.0
1666091662125444205,1.2732481956481934,-0.053261648863554,0.0
1666091662168365482,1.2914402484893799,-0.06319916248321533,0.0
1666091662225351440,1.3096415996551514,-0.07308660447597504,0.0
1666091662318420071,1.3175203800201416,-0.08361101150512695,0.0
1666091662413033010,1.32106614112854,-0.09691429883241653,0.0
1666091662556492635,1.3206002712249756,-0.11410371214151382,0.0
1666091662652343431,1.3204500675201416,-0.12730365991592407,0.0
1666091662660977725,1.3147656917572021,-0.13913406431674957,0.0
1666091662747660180,1.3236494064331055,-0.14666390419006348,0.0
1666091662840955264,1.319841980934143,-0.15599536895751953,0.0
1666091662935653400,1.314939260482788,-0.1656954437494278,0.0
1666091662971036845,1.2979025840759277,-0.17595115303993225,0.0
1666091663053832455,1.2805880308151245,-0.17940135300159454,0.0
1666091663131808210,1.2685703039169312,-0.1855279952287674,0.0
1666091663191969076,1.2419716119766235,-0.1864897608757019,0.0
1666091663319718301,1.2132058143615723,-0.18587510287761688,0.0
1666091663388370163,1.1851801872253418,-0.17895174026489258,0.0
1666091663463032802,1.1554300785064697,-0.1739315688610077,0.0
1666091663571458627,1.1322650909423828,-0.1732463836669922,0.0
1666091663631813708,1.1037373542785645,-0.17576980590820312,0.0
1666091663717040150,1.0776563882827759,-0.17060688138008118,0.0
1666091663801118579,1.0513907670974731,-0.1706874817609787,0.0
1666091663865792815,1.0235843658447266,-0.16607120633125305,0.0
1666091663994161012,0.9977108836174011,-0.1618049144744873,0.0
1666091664102146607,0.975691556930542,-0.16117721796035767,0.0
1666091664205128523,0.9532161951065063,-0.16160765290260315,0.0
1666091664286392547,0.9330684542655945,-0.16007086634635925,0.0
1666091664357315338,0.9192684292793274,-0.16194932162761688,0.0
1666091664420047962,0.9053946733474731,-0.16290029883384705,0.0
1666091664486323445,0.8969069123268127,-0.15805837512016296,0.0
1666091664557953553,0.8860917687416077,-0.15823757648468018,0.0
1666091664684523525,0.9093023538589478,-0.14857186377048492,0.0
1666091664728175121,0.9311126470565796,-0.14516404271125793,0.0
1666091664810605494,0.9510456919670105,-0.1498643159866333,0.0
1666091664858308111,0.9846130013465881,-0.12834200263023376,0.0
1666091664936667066,1.0057536363601685,-0.11365465819835663,0.0
1666091665015089355,1.0068233013153076,-0.0972195640206337,0.0
1666091665053731574,1.032568335533142,-0.06938941776752472,0.0
1666091665107785830,1.0588942766189575,-0.049103282392024994,0.0
1666091665185732274,1.079238772392273,-0.030509255826473236,0.0
1666091665240378771,1.1049668788909912,-0.008864466100931168,0.0
1666091665306189321,1.12386155128479,0.0034332750365138054,0.0
1666091665426904638,1.1343419551849365,0.028321798890829086,0.0
1666091665484244913,1.1452056169509888,0.0569617785513401,0.0
1666091665560694495,1.1548411846160889,0.07395180314779282,0.0
1666091665606437421,1.1634396314620972,0.09547498822212219,0.0
1666091665692846619,1.1737245321273804,0.11893738061189651,0.0
1666091665770974926,1.1830986738204956,0.15712152421474457,0.0
1666091665807776859,1.189905047416687,0.18298646807670593,0.0
1666091665866174509,1.1914145946502686,0.22196899354457855,0.0
1666091665929386171,1.1913150548934937,0.25851812958717346,0.0
1666091666054168119,1.193052887916565,0.2807327210903168,0.0
1666091666135732205,1.1936933994293213,0.30224624276161194,0.0
1666091666236749572,1.1911245584487915,0.3234676718711853,0.0
1666091666393026335,1.1882749795913696,0.34285473823547363,0.0
1666091666394278181,1.1841624975204468,0.35901543498039246,0.0
1666091666500982985,1.185867190361023,0.37463030219078064,0.0
1666091666552637358,1.189165711402893,0.39377400279045105,0.0
1666091666660401770,1.2030811309814453,0.4063831567764282,0.0
1666091666662318207,1.196866512298584,0.4216480553150177,0.0
1666091666784712903,1.195239543914795,0.4390271008014679,0.0
1666091666872753286,1.1862150430679321,0.4487629532814026,0.0
1666091666874709475,1.1784294843673706,0.45798563957214355,0.0
1666091666998814590,1.1647158861160278,0.47062599658966064,0.0
1666091667000233673,1.1519324779510498,0.4805184602737427,0.0
1666091667073391383,1.1331062316894531,0.49243077635765076,0.0
1666091667165914615,1.11293363571167,0.5061735510826111,0.0
1666091667254813131,1.0950359106063843,0.5189420580863953,0.0
1666091667341332090,1.0769033432006836,0.5314268469810486,0.0
1666091667420982871,1.055040717124939,0.5428430438041687,0.0
1666091667422952099,1.0329267978668213,0.5575131773948669,0.0
1666091667493706906,1.0102840662002563,0.5735808610916138,0.0
1666091667601432161,0.9884312152862549,0.5897818207740784,0.0
1666091667652794987,0.9689530730247498,0.6041205525398254,0.0
1666091667764411202,0.9516791105270386,0.6192441582679749,0.0
1666091667843023473,0.9340990781784058,0.6311609745025635,0.0
1666091667844501327,0.9169648289680481,0.6402052640914917,0.0
1666091667947132935,0.9055843353271484,0.6441885232925415,0.0
1666091668054986649,0.8966593146324158,0.6444900631904602,0.0
1666091668152116804,0.8912355899810791,0.6391021609306335,0.0
1666091668275258727,0.8846350312232971,0.6326173543930054,0.0
1666091668326839364,0.8814844489097595,0.6235986351966858,0.0
1666091668415608063,0.88858562707901,0.6195033192634583,0.0
1666091668487380950,0.891869843006134,0.6115483641624451,0.0
1666091668573444474,0.9035470485687256,0.6004365682601929,0.0
1666091668691936841,0.9117598533630371,0.586724579334259,0.0
1666091668751806516,0.9213002324104309,0.5715746879577637,0.0
1666091668833185852,0.9344161748886108,0.5533761382102966,0.0
1666091668979828552,0.9480605721473694,0.536424458026886,0.0
1666091668995562727,0.9542179703712463,0.5197539329528809,0.0
1666091669070405019,0.9621793031692505,0.506371796131134,0.0
1666091669145909634,0.9675103425979614,0.49133169651031494,0.0
1666091669266031349,0.9724208116531372,0.4756962060928345,0.0
1666091669356335794,0.982464611530304,0.46795204281806946,0.0
1666091669376309837,0.9864707589149475,0.4572235941886902,0.0
1666091669445854193,0.9950501322746277,0.45063120126724243,0.0
1666091669571014020,0.9990413188934326,0.44276368618011475,0.0
1666091669658702926,0.999333381652832,0.4331180155277252,0.0
1666091669697981706,0.9991381764411926,0.4237700402736664,0.0
1666091669812206560,0.9955788254737854,0.4121084213256836,0.0
1666091669813739337,0.9934983849525452,0.39936500787734985,0.0
1666091669884749123,0.9888640642166138,0.38620704412460327,0.0
1666091669951336060,0.98563551902771,0.37121596932411194,0.0
1666091670099807571,0.9785503149032593,0.3571534752845764,0.0
1666091670144169907,0.9738463163375854,0.3450630009174347,0.0
1666091670207724686,0.9685319662094116,0.33702608942985535,0.0
1666091670314035493,0.968718409538269,0.33135128021240234,0.0
1666091670414032791,0.9626339077949524,0.3260760009288788,0.0
1666091670456481934,0.9553932547569275,0.3265201449394226,0.0
1666091670510223277,0.949212908744812,0.3288104832172394,0.0
1666091670589793300,0.9411284327507019,0.33040887117385864,0.0
1666091670707082024,0.9309144020080566,0.33281660079956055,0.0
1666091670787157144,0.9219114184379578,0.336195707321167,0.0
1666091670861048041,0.9119164347648621,0.33891230821609497,0.0
1666091670934822252,0.9040907621383667,0.3424750864505768,0.0
1666091670996342484,0.8979383707046509,0.34281685948371887,0.0
1666091671042343923,0.8983724117279053,0.3402722477912903,0.0
1666091671110686995,0.9000982642173767,0.33539241552352905,0.0
1666091671178707058,0.9133210778236389,0.3290655016899109,0.0
1666091671242237193,0.9303122758865356,0.3164694905281067,0.0
1666091671362200515,0.9498239755630493,0.2997755706310272,0.0
1666091671457491399,0.9704853296279907,0.2830084562301636,0.0
1666091671532946268,0.9910783171653748,0.26314347982406616,0.0
1666091671572375477,1.0101122856140137,0.2409152090549469,0.0
1666091671645874016,1.0279704332351685,0.2154230922460556,0.0
1666091671741912842,1.047225832939148,0.18371668457984924,0.0
1666091671838867829,1.0549746751785278,0.1677260398864746,0.0
1666091671903309090,1.0711231231689453,0.13057206571102142,0.0
1666091671973409360,1.0824055671691895,0.09403867274522781,0.0
1666091672066462697,1.0902043581008911,0.0564408078789711,0.0
1666091672140764796,1.0937035083770752,0.018056560307741165,0.0
1666091672235267847,1.0960693359375,-0.012085555121302605,0.0
1666091672331178968,1.094870686531067,-0.04228278994560242,0.0
1666091672402566785,1.0964648723602295,-0.06755631417036057,0.0
1666091672464188841,1.089408040046692,-0.09336414188146591,0.0
1666091672579944769,1.0788118839263916,-0.11700590699911118,0.0
1666091672642395209,1.0677005052566528,-0.13768093287944794,0.0
1666091672710966987,1.0562942028045654,-0.15688131749629974,0.0
1666091672786075582,1.042884111404419,-0.17302975058555603,0.0
1666091672819307723,1.0324219465255737,-0.1891857087612152,0.0
1666091672883137106,1.0174070596694946,-0.2035778909921646,0.0
1666091672948353074,1.0003035068511963,-0.21506771445274353,0.0
1666091673014449919,0.9826858639717102,-0.22361531853675842,0.0
1666091673081275104,0.9562333822250366,-0.22751927375793457,0.0
1666091673181939924,0.9292955994606018,-0.22851519286632538,0.0
1666091673264145089,0.903762698173523,-0.23048809170722961,0.0
1666091673337265008,0.8782500624656677,-0.22703902423381805,0.0
1666091673402712515,0.8545103669166565,-0.22721318900585175,0.0
1666091673474567863,0.8298540711402893,-0.22217486798763275,0.0
1666091673535734636,0.812768816947937,-0.22092746198177338,0.0
1666091673612582126,0.7997210025787354,-0.2154548615217209,0.0
1666091673712203562,0.7895058989524841,-0.20841673016548157,0.0
1666091673805289270,0.7799276113510132,-0.2022707760334015,0.0
1666091673861530117,0.7695956230163574,-0.19281218945980072,0.0
1666091673964214440,0.7624703645706177,-0.18259452283382416,0.0
1666091673973114961,0.7566246390342712,-0.17384356260299683,0.0
1666091674048179829,0.7535387873649597,-0.1648586541414261,0.0
1666091674138834640,0.7510092258453369,-0.15751871466636658,0.0
1666091674228333048,0.7512170076370239,-0.15189796686172485,0.0
1666091674334732814,0.7491053938865662,-0.14687278866767883,0.0
1666091674387613404,0.752081036567688,-0.14454641938209534,0.0
1666091674499145722,0.7510501742362976,-0.1397501677274704,0.0
1666091674558944910,0.7560679912567139,-0.13798664510250092,0.0
1666091674652099500,0.7539653182029724,-0.13418903946876526,0.0
1666091674695926384,0.7521977424621582,-0.13104885816574097,0.0
1666091674767360157,0.7513586282730103,-0.12760475277900696,0.0
1666091674831685109,0.7510329484939575,-0.12422648072242737,0.0
1666091674904162109,0.7537939548492432,-0.12242788821458817,0.0
1666091674970107601,0.752534806728363,-0.12029507756233215,0.0
1666091675095686919,0.7532745003700256,-0.11836997419595718,0.0
1666091675097098272,0.7504520416259766,-0.11322661489248276,0.0
1666091675179565377,0.7469058036804199,-0.1102575957775116,0.0
1666091675295599251,0.7427123188972473,-0.10750581324100494,0.0
1666091675391942502,0.7385411858558655,-0.10502991825342178,0.0
1666091675404901900,0.7367619872093201,-0.09941954910755157,0.0
1666091675474741438,0.7302679419517517,-0.10174401849508286,0.0
1666091675594795443,0.7217364311218262,-0.10251810401678085,0.0
1666091675644638808,0.7157135605812073,-0.10374696552753448,0.0
1666091675715908117,0.7119045257568359,-0.10065440088510513,0.0
1666091675785584900,0.7083257436752319,-0.0972171351313591,0.0
1666091675834872976,0.7006677985191345,-0.09903078526258469,0.0
1666091675907649584,0.698696494102478,-0.10079340636730194,0.0
1666091675971602133,0.6972699761390686,-0.09874127805233002,0.0
1666091676026817544,0.694743275642395,-0.10542555153369904,0.0
1666091676133661926,0.6934067010879517,-0.11065924912691116,0.0
1666091676162456870,0.6904760003089905,-0.1144619882106781,0.0
1666091676254234894,0.6855734586715698,-0.12110253423452377,0.0
1666091676316345644,0.6840944290161133,-0.12525931000709534,0.0
1666091676422356773,0.6827685236930847,-0.131270632147789,0.0
1666091676464194597,0.6829090118408203,-0.13820533454418182,0.0
1666091676508479784,0.6896209120750427,-0.1453855037689209,0.0
1666091676558923165,0.6958742737770081,-0.1566300392150879,0.0
1666091676706033816,0.7072421908378601,-0.17098882794380188,0.0
1666091676708429762,0.7208285331726074,-0.18760938942432404,0.0
1666091676787379384,0.733841061592102,-0.2015976458787918,0.0
1666091676922104392,0.7451919317245483,-0.21539925038814545,0.0
1666091676991898097,0.7580687999725342,-0.22889070212841034,0.0
1666091677066875875,0.7723587155342102,-0.24255020916461945,0.0
1666091677108189597,0.7871132493019104,-0.2563496530056,0.0
1666091677172897354,0.8028741478919983,-0.2698521912097931,0.0
1666091677267867159,0.8187234401702881,-0.2809177041053772,0.0
1666091677328000036,0.8328701853752136,-0.29052290320396423,0.0
1666091677410655524,0.8485890030860901,-0.2976519465446472,0.0
1666091677505150789,0.8653372526168823,-0.30210956931114197,0.0
1666091677604290055,0.8814215064048767,-0.30129483342170715,0.0
1666091677686489526,0.8942286372184753,-0.2970888912677765,0.0
1666091677791421231,0.9061477780342102,-0.291193425655365,0.0
1666091677893222119,0.9140670299530029,-0.2817937135696411,0.0
1666091677919678813,0.9206210374832153,-0.27270856499671936,0.0
1666091677982918356,0.9238073825836182,-0.26209160685539246,0.0
1666091678060263413,0.9277106523513794,-0.25123265385627747,0.0
1666091678193024282,0.9297959804534912,-0.2378167062997818,0.0
1666091678273562879,0.9289093613624573,-0.22970794141292572,0.0
1666091678297203060,0.9272763133049011,-0.22034074366092682,0.0
1666091678371389734,0.9214478135108948,-0.20771393179893494,0.0
1666091678478481486,0.9173479676246643,-0.20128080248832703,0.0
1666091678541292755,0.9100749492645264,-0.19468969106674194,0.0
1666091678620351969,0.903302788734436,-0.19032762944698334,0.0
1666091678766469217,0.8951564431190491,-0.18541653454303741,0.0
1666091678809247499,0.887953519821167,-0.1793902963399887,0.0
1666091678857068426,0.8826804161071777,-0.1728072613477707,0.0
1666091678962469585,0.8740481734275818,-0.16367921233177185,0.0
1666091679058885987,0.8642998933792114,-0.1556054949760437,0.0
1666091679133707724,0.857312798500061,-0.1520969420671463,0.0
1666091679168571087,0.8507733941078186,-0.14924708008766174,0.0
