%time,field.linear.x,field.linear.y,field.linear.z,field.angular.x,field.angular.y,field.angular.z
1666091626974596839,0.0,0.0,0.0,0.0,0.0,0.0
1666091626994477496,0.0,0.0,0.0,0.0,0.0,0.0
1666091627014464258,0.0,0.0,0.0,0.0,0.0,0.0
1666091627034483841,0.0,0.0,0.0,0.0,0.0,0.0
1666091627054440430,0.0,0.0,0.0,0.0,0.0,0.0
1666091627075444920,0.0,0.0,0.0,0.0,0.0,0.0
1666091627094476336,0.0,0.0,0.0,0.0,0.0,0.0
1666091627114446117,0.0,0.0,0.0,0.0,0.0,0.0
1666091627134484152,0.0,0.0,0.0,0.0,0.0,0.0
1666091627176041437,0.002132302208337933,0.0,0.0,0.0,0.0,0.0
1666091627176051397,0.004264604416675866,0.0,0.0,0.0,0.0,-0.0010471975511965976
1666091627220030718,0.006396906625013799,0.0,0.0,0.0,0.0,-0.0008726646259971648
1666091627220047963,0.0,0.0,0.0,0.0,0.0,0.0
1666091627264031602,0.0,0.0,0.0,0.0,0.0,-0.006283185307179587
1666091627264041133,0.0,0.0,0.0,0.0,0.0,0.0
1666091627308026917,0.0,0.0,0.0,0.0,0.0,0.0
1666091627308035444,0.0,0.0,0.0,0.0,0.0,0.0
1666091627352044218,0.0,0.0,0.0,0.0,0.0,0.0
1666091627352052489,0.0,0.0,0.0,0.0,0.0,0.0
1666091627396024782,0.0,0.0,0.0,0.0,0.0,0.0
1666091627396044034,0.0,0.0,0.0,0.0,0.0,0.0
1666091627396053474,-0.002132302208337933,0.0,0.0,0.0,0.0,0.0
1666091627440023640,-0.002132302208337933,0.0,0.0,0.0,0.0,0.004537856055185257
1666091627440037350,0.0,0.0,0.0,0.0,0.0,0.0
1666091627454276250,0.0,0.0,0.0,0.0,0.0,0.0
1666091627474298028,0.0,0.0,0.0,0.0,0.0,0.0
1666091627516024924,0.0,0.0,0.0,0.0,0.0,0.0
1666091627516033563,0.0,0.0,0.0,0.0,0.0,0.0
1666091627560027167,0.0,0.0,0.0,0.0,0.0,0.0
1666091627560035318,0.0,0.0,0.0,0.0,0.0,0.0
1666091627608021540,0.0,0.0,0.0,0.0,0.0,0.0
1666091627608028603,0.0,0.0,0.0,0.0,0.0,0.0
1666091627652020409,0.0,0.0,0.0,0.0,0.0,0.0
1666091627652029131,0.0,0.0,0.0,0.0,0.0,0.0
1666091627696026166,0.0,0.0,0.0,0.0,0.0,0.0
1666091627696038784,0.0,0.0,0.0,0.0,0.0,0.0
1666091627696045440,0.0,0.0,0.0,0.0,0.0,0.0
1666091627740038953,0.0,0.0,0.0,0.0,0.0,0.0
1666091627740051068,0.0,0.0,0.0,0.0,0.0,0.0
1666091627755237237,0.0,0.0,0.0,0.0,0.0,0.0
1666091627775194846,0.0,0.0,0.0,0.0,0.0,0.0
1666091627816068824,0.0,0.0,0.0,0.0,0.0,0.0
1666091627816078130,0.0,0.0,0.0,0.0,0.0,0.0
1666091627860031938,0.0,0.0,0.0,0.0,0.0,0.0
1666091627860045189,0.0,0.0,0.0,0.0,0.0,0.0
1666091627908061068,0.0,0.0,0.0,0.0,0.0,0.0
1666091627908070286,0.0,0.0,0.0,0.0,0.0,0.0
1666091627952028657,0.0,0.0,0.0,0.0,0.0,0.0
1666091627952037045,0.0,0.0,0.0,0.0,0.0,0.0
1666091627996021922,0.0,0.0,0.0,0.0,0.0,0.0
1666091627996030595,0.0,0.0,0.0,0.0,0.0,0.0
1666091628040032305,0.0,0.0,0.0,0.0,0.0,0.0
1666091628040042673,0.0,0.0,0.0,0.0,0.0,0.0
1666091628040050492,0.0,0.0,0.0,0.0,0.0,0.0
1666091628084022685,0.0,0.0,0.0,0.0,0.0,0.0
1666091628084034195,0.0,0.0,0.0,0.0,0.0,0.0
1666091628094938462,0.0,0.0,0.0,0.0,0.0,0.0
1666091628114956737,0.0,0.0,0.0,0.0,0.0,0.0
1666091628156027297,0.0,0.0,0.0,0.0,0.0,0.0
1666091628156036873,0.0,0.0,0.0,0.0,0.0,0.0
1666091628200029007,0.0,0.0,0.0,0.0,0.0,0.0
1666091628200037351,0.0,0.0,0.0,0.0,0.0,0.0
1666091628244050219,0.0,0.0,0.0,0.0,0.0,0.0
1666091628244058236,0.0,0.0,0.0,0.0,0.0,0.0
1666091628288050415,0.0,0.0,0.0,0.0,0.0,0.0
1666091628288058475,0.0,0.0,0.0,0.0,0.0,0.0
1666091628332061319,0.0,0.0,0.0,0.0,0.0,0.0
1666091628332070467,0.0,0.0,0.0,0.0,0.0,0.0
1666091628376036093,0.0,0.0,0.0,0.0,0.0,0.0
1666091628376045419,0.0,0.0,0.0,0.0,0.0,0.0
1666091628376056424,0.0,0.0,0.0,0.0,0.0,0.0
1666091628420144638,0.0,0.0,0.0,0.0,0.0,0.0
1666091628420166070,0.0,0.0,0.0,0.0,0.0,0.0
1666091628435368783,0.0,0.0,0.0,0.0,0.0,0.0
1666091628455958397,0.0,0.0,0.0,0.0,0.0,0.0
1666091628496070150,0.0,0.0,0.0,0.0,0.0,0.0
1666091628496084092,0.0,0.0,0.0,0.0,0.0,0.0
1666091628540053401,0.0,0.0,0.0,0.0,0.0,0.0
1666091628540063846,0.0,0.0,0.0,0.0,0.0,0.0
1666091628588055950,0.0,0.0,0.0,0.0,0.0,0.0
1666091628588067883,0.0,0.0,0.0,0.0,0.0,0.0
1666091628632043112,0.0,0.0,0.0,0.0,0.0,0.0
1666091628632054204,0.0,0.0,0.0,0.0,0.0,0.0
1666091628676043607,0.0,0.0,0.0,0.0,0.0,0.0
1666091628676054275,0.0,0.0,0.0,0.0,0.0,0.0
1666091628676064942,0.0,0.0,0.0,0.0,0.0,0.0
1666091628720033020,0.0,0.0,0.0,0.0,0.0,0.0
1666091628720042892,0.0,0.0,0.0,0.0,0.0,0.0
1666091628735720359,0.0,0.0,0.0,0.0,0.0,0.0
1666091628755671217,0.0,0.0,0.0,0.0,0.0,0.0
1666091628796037872,0.0,0.0,0.0,0.0,0.0,0.0
1666091628796049013,0.0,0.0,0.0,0.0,0.0,0.0
1666091628840042604,0.0,0.0,0.0,0.0,0.0,0.0
1666091628840054056,0.0,0.0,0.0,0.0,0.0,0.0
1666091628884241592,0.0,0.0,0.0,0.0,0.0,0.0
1666091628884270234,0.0,0.0,0.0,0.0,0.0,0.0
1666091628932051290,0.0,0.0,0.0,0.0,0.0,0.0
1666091628932065198,0.0,0.0,0.0,0.0,0.0,0.0
1666091628976040702,0.0,0.0,0.0,0.0,0.0,0.0
1666091628976051255,0.0,0.0,0.0,0.0,0.0,0.0
1666091628976062245,0.0,0.0,0.0,0.0,0.0,0.0
1666091629020049861,0.0,0.0,0.0,0.0,0.0,0.0
1666091629020061164,0.0,0.0,0.0,0.0,0.0,0.0
1666091629035749930,0.0,0.0,0.0,0.0,0.0,0.0
1666091629055715163,0.0,0.0,0.0,0.0,0.0,0.0
1666091629096044832,0.0,0.0,0.0,0.0,0.0,0.0
1666091629096055621,0.0,0.0,0.0,0.0,0.0,0.0
1666091629140049531,0.0,0.0,0.0,0.0,0.0,0.0
1666091629140059739,0.0,0.0,0.0,0.0,0.0,0.0
1666091629184038118,0.0,0.0,0.0,0.0,0.0,0.0
1666091629184051918,0.0,0.0,0.0,0.0,0.0,0.0
1666091629228034093,0.0,0.0,0.0,0.0,0.0,0.0
1666091629228043231,0.0,0.0,0.0,0.0,0.0,0.0
1666091629272093635,0.0,0.0,0.0,0.0,0.0,0.0
1666091629272106252,0.0,0.0,0.0,0.0,0.0,0.0
1666091629316077670,0.0,0.0,0.0,0.0,0.0,0.0
1666091629316091880,0.0,0.0,0.0,0.0,0.0,0.0
1666091629316095965,0.0,0.0,0.0,0.0,0.0,0.0
1666091629360039339,0.0,0.0,0.0,0.0,0.0,0.0
1666091629360050146,0.0,0.0,0.0,0.0,0.0,0.0
1666091629376512450,0.0,0.0,0.0,0.0,0.0,0.0
1666091629395482221,0.0,0.0,0.0,0.0,0.0,0.0
1666091629436028142,0.0,0.0,0.0,0.0,0.0,0.0
1666091629436033965,-0.002132302208337933,0.0,0.0,0.0,0.0,0.0
1666091629480665166,0.0,0.0,0.0,0.0,0.0,0.0
1666091629480770428,0.0,0.0,0.0,0.0,0.0,0.0
1666091629528211841,0.0,0.0,0.0,0.0,0.0,0.0
1666091629528242677,0.0,0.0,0.0,0.0,0.0,0.0
1666091629572250468,0.0,0.0,0.0,0.0,0.0,0.0
1666091629572288730,0.0,0.0,0.0,0.0,0.0,0.0
1666091629620065347,0.0,0.0,0.0,0.0,0.0,0.0
1666091629620079172,0.0,0.0,0.0,0.0,0.0,0.0
1666091629620084064,0.0,0.0,0.0,0.0,0.0,0.0
1666091629664077184,0.0,0.0,0.0,0.0,0.0,0.0
1666091629664094095,0.0,0.0,0.0,0.0,0.0,0.0
1666091629676851604,0.0,0.0,0.0,0.0,0.0,0.0
1666091629696477786,0.0,0.0,0.0,0.0,0.0,0.0
1666091629744077928,0.0,0.0,0.0,0.0,0.0,0.0
1666091629744092322,0.0,0.0,0.0,0.0,0.0,0.0
1666091629788107200,0.0,0.0,0.0,0.0,0.0,0.0
1666091629788130472,0.0,0.0,0.0,0.0,0.0,0.0
1666091629832491635,0.0,0.0,0.0,0.0,0.0,0.0
1666091629832609017,0.0,0.0,0.0,0.0,0.0,0.0
1666091629880094149,0.0,0.0,0.0,0.0,0.0,0.0
1666091629880122322,0.0,0.0,0.0,0.0,0.0,0.0
1666091629880134272,0.0,0.0,0.0,0.0,0.0,0.0
1666091629924063756,0.0,0.0,0.0,0.0,0.0,0.0
1666091629924081504,0.0,0.0,0.0,0.0,0.0,0.0
1666091629935592548,0.0,0.0,0.0,0.0,0.0,0.0
1666091629955931124,0.0,0.0,0.0,0.0,0.0,0.0
1666091629996289260,0.0,0.0,0.0,0.0,0.0,0.0
1666091630040294214,0.0,0.0,0.0,0.0,0.0,0.0
1666091630040345259,0.0,0.0,0.0,0.0,0.0,0.0
1666091630040384031,0.0,0.0,0.0,0.0,0.0,0.0
1666091630088252395,0.0,0.0,0.0,0.0,0.0,0.0
1666091630088291040,0.0,0.0,0.0,0.0,0.0,0.0
1666091630096512976,0.0,0.0,0.0,0.0,0.0,0.0
1666091630116512019,0.0,0.0,0.0,0.0,0.0,0.0
1666091630164041793,0.0,0.0,0.0,0.0,0.0,0.0
1666091630164064174,0.0,0.0,0.0,0.0,0.0,0.0
1666091630208222018,0.0,0.0,0.0,0.0,0.0,0.0
1666091630208253567,0.0,0.0,0.0,0.0,0.0,0.0
1666091630252084628,0.0,0.0,0.0,0.0,0.0,0.0
1666091630252096017,0.0,0.0,0.0,0.0,0.0,0.0
1666091630296046688,0.0,0.0,0.0,0.0,0.0,0.0
1666091630296057994,0.0,0.0,0.0,0.0,0.0,0.0
1666091630344043204,0.0,0.0,0.0,0.0,0.0,0.0
1666091630344053800,0.0,0.0,0.0,0.0,0.0,0.0
1666091630344057801,0.0,0.0,0.0,0.0,0.0,0.0
1666091630388045245,0.0,0.0,0.0,0.0,0.0,0.0
1666091630388056979,0.0,0.0,0.0,0.0,0.0,0.0
1666091630396234347,0.0,0.0,0.0,0.0,0.0,0.0
1666091630416171964,0.0,0.0,0.0,0.0,0.0,0.0
1666091630464056500,0.0,0.0,0.0,0.0,0.0,0.0
1666091630464074594,-0.002132302208337933,0.0,0.0,0.0,0.0,0.0
1666091630512059469,-0.002132302208337933,0.0,0.0,0.0,0.0,0.0
1666091630512073527,-0.004264604416675866,0.0,0.0,0.0,0.0,0.0
1666091630556057379,-0.008529208833351731,0.0,0.0,0.0,0.0,0.0031415926535897933
1666091630556071844,-0.012793813250027599,0.0,0.0,0.0,0.0,0.0036651914291880917
1666091630600063026,-0.014926115458365532,0.0,0.0,0.0,0.0,-0.0013962634015954637
1666091630600072586,-0.017058417666703463,0.0,0.0,0.0,0.0,-0.002967059728390361
1666091630600093899,-0.017058417666703463,0.0,0.0,0.0,0.0,0.0012217304763960308
1666091630644131998,-0.021323022083379328,0.0,0.0,0.0,0.0,0.0010471975511965976
1666091630644148601,-0.025587626500055197,0.0,0.0,0.0,0.0,0.0013962634015954637
1666091630656414816,-0.027719928708393127,0.0,0.0,0.0,0.0,0.002617993877991494
1666091630676433296,-0.025587626500055197,0.0,0.0,0.0,0.0,0.0008726646259971648
1666091630720106480,-0.025587626500055197,0.0,0.0,0.0,0.0,0.0020943951023931952
1666091630720129971,-0.025587626500055197,0.0,0.0,0.0,0.0,0.005061454830783556
1666091630764062002,-0.027719928708393127,0.0,0.0,0.0,0.0,0.0019198621771937623
1666091630764075933,-0.034116835333406925,0.0,0.0,0.0,0.0,-0.0005235987755982988
1666091630812147047,-0.03198453312506899,0.0,0.0,0.0,0.0,0.00034906585039886593
1666091630812164324,-0.03624913754174486,0.0,0.0,0.0,0.0,0.0020943951023931952
1666091630856096535,-0.04051374195842073,0.0,0.0,0.0,0.0,0.0036651914291880917
1666091630856107732,-0.044778346375096596,0.0,0.0,0.0,0.0,0.0022689280275926286
1666091630900075424,-0.044778346375096596,0.0,0.0,0.0,0.0,0.002967059728390361
1666091630900088728,-0.044778346375096596,0.0,0.0,0.0,0.0,0.0015707963267948967
1666091630900101991,-0.042646044166758657,0.0,0.0,0.0,0.0,-0.0012217304763960308
1666091630944114784,-0.044778346375096596,0.0,0.0,0.0,0.0,0.0015707963267948967
1666091630944130672,-0.03838143975008279,0.0,0.0,0.0,0.0,0.0015707963267948967
1666091630957695103,-0.03624913754174486,0.0,0.0,0.0,0.0,0.00017453292519943296
1666091630977502853,-0.03198453312506899,0.0,0.0,0.0,0.0,0.0015707963267948967
1666091631020173116,-0.025587626500055197,0.0,0.0,0.0,0.0,0.0010471975511965976
1666091631020195468,-0.025587626500055197,0.0,0.0,0.0,0.0,0.00034906585039886593
1666091631064072435,-0.025587626500055197,0.0,0.0,0.0,0.0,0.00034906585039886593
1666091631064085882,-0.019190719875041395,0.0,0.0,0.0,0.0,-0.0012217304763960308
1666091631108128398,-0.014926115458365532,0.0,0.0,0.0,0.0,-0.005934119456780722
1666091631108141899,-0.008529208833351731,0.0,0.0,0.0,0.0,0.0
1666091631156415074,0.0,0.0,0.0,0.0,0.0,0.0
1666091631156461789,-0.002132302208337933,0.0,0.0,0.0,0.0,0.0
1666091631200060478,0.0,0.0,0.0,0.0,0.0,0.0
1666091631200074824,0.0,0.0,0.0,0.0,0.0,0.0
1666091631200083172,0.0,0.0,0.0,0.0,0.0,0.0
1666091631244092144,0.0,0.0,0.0,0.0,0.0,0.0
1666091631244108090,0.0,0.0,0.0,0.0,0.0,0.0
1666091631257063187,0.0,0.0,0.0,0.0,0.0,0.0
1666091631277041432,0.0,0.0,0.0,0.0,0.0,0.0
1666091631320103899,0.0,0.0,0.0,0.0,0.0,0.0
1666091631320115374,0.0,0.0,0.0,0.0,0.0,0.0
1666091631364094520,0.0,0.0,0.0,0.0,0.0,0.0
1666091631364110538,0.0,0.0,0.0,0.0,0.0,0.0
1666091631408480647,0.0,0.0,0.0,0.0,0.0,0.0
1666091631408513821,0.0,0.0,0.0,0.0,0.0,0.0
1666091631452183619,0.0,0.0,0.0,0.0,0.0,0.0
1666091631452205979,0.0,0.0,0.0,0.0,0.0,0.0
1666091631496080098,0.0,0.0,0.0,0.0,0.0,0.0
1666091631496094220,0.0,0.0,0.0,0.0,0.0,0.0
1666091631540076569,0.0,0.0,0.0,0.0,0.0,0.0
1666091631540094027,0.0,0.0,0.0,0.0,0.0,0.0
1666091631540100041,0.0,0.0,0.0,0.0,0.0,0.0
1666091631588125304,0.0,0.0,0.0,0.0,0.0,0.0
1666091631588145502,0.0,0.0,0.0,0.0,0.0,0.0
1666091631596821691,0.0,0.0,0.0,0.0,0.0,0.0
1666091631616749033,0.0,0.0,0.0,0.0,0.0,0.0
1666091631660107860,0.0,0.0,0.0,0.0,0.0,0.0
1666091631660118054,0.0,0.0,0.0,0.0,0.0,0.0
1666091631704072560,0.0,0.0,0.0,0.0,0.0,0.0
1666091631704084884,0.0,0.0,0.0,0.0,0.0,0.0
1666091631748093177,0.0,0.0,0.0,0.0,0.0,0.0
1666091631748108917,0.0,0.0,0.0,0.0,0.0,0.0
1666091631792122560,0.0,0.0,0.0,0.0,0.0,0.0
1666091631792150892,0.0,0.0,0.0,0.0,0.0,0.0
1666091631836070642,0.0,0.0,0.0,0.0,0.0,0.0
1666091631836086397,0.0,0.0,0.0,0.0,0.0,0.0
1666091631880092408,0.0,0.0,0.0,0.0,0.0,0.0
1666091631880105747,0.0,0.0,0.0,0.0,0.0,0.0
1666091631880110467,0.0,0.0,0.0,0.0,0.0,0.0
1666091631924114936,0.0,0.0,0.0,0.0,0.0,0.0
1666091631924136377,0.0,0.0,0.0,0.0,0.0,0.0
1666091631936742910,0.0,0.0,0.0,0.0,0.0,0.0
1666091631956759306,0.0,0.0,0.0,0.0,0.0,0.0
1666091632000047559,0.0,0.0,0.0,0.0,0.0,0.0
1666091632000060633,0.0,0.0,0.0,0.0,0.0,0.0
1666091632044201371,0.0,0.0,0.0,0.0,0.0,0.0
1666091632044232608,0.0,0.0,0.0,0.0,0.0,0.0
1666091632088063258,0.0,0.0,0.0,0.0,0.0,0.0
1666091632088077849,0.0,0.0,0.0,0.0,0.0,0.0
1666091632132054000,0.0,0.0,0.0,0.0,0.0,0.0
1666091632132060495,0.0,0.0,0.0,0.0,0.0,0.0
1666091632176240946,0.0,0.0,0.0,0.0,0.0,0.0
1666091632176383102,0.0,0.0,0.0,0.0,0.0,0.0
1666091632220126945,0.0,0.0,0.0,0.0,0.0,0.0
1666091632220139656,0.0,0.0,0.0,0.0,0.0,0.0
1666091632220149843,0.0,0.0,0.0,0.0,0.0,0.0
1666091632268058834,0.0,0.0,0.0,0.0,0.0,0.0
1666091632268071900,0.0,0.0,0.0,0.0,0.0,0.0
1666091632277838296,0.0,0.0,0.0,0.0,0.0,0.0
1666091632298538168,0.0,0.0,0.0,0.0,0.0,0.0
1666091632344166873,0.0,0.0,0.0,0.0,0.0,0.0
1666091632344187168,0.0,0.0,0.0,0.0,0.0,0.0
1666091632388108065,0.0,0.0,0.0,0.0,0.0,0.0
1666091632388122892,0.0,0.0,0.0,0.0,0.0,0.0
1666091632436064232,0.0,0.0,0.0,0.0,0.0,0.0
1666091632436075044,0.0,0.0,0.0,0.0,0.0,0.0
1666091632476091677,0.0,0.0,0.0,0.0,0.0,0.0
1666091632476103282,0.0,0.0,0.0,0.0,0.0,0.0
1666091632524087134,0.0,0.0,0.0,0.0,0.0,0.0
1666091632524105211,0.0,0.0,0.0,0.0,0.0,0.0
1666091632524120918,0.0,0.0,0.0,0.0,0.0,0.0
1666091632568076005,0.0,0.0,0.0,0.0,0.0,0.0
1666091632568093292,0.0,0.0,0.0,0.0,0.0,0.0
1666091632577805356,0.0,0.0,0.0,0.0,0.0,0.0
1666091632597536112,0.0,0.0,0.0,0.0,0.0,0.0
1666091632640093015,0.0,0.0,0.0,0.0,0.0,0.0
1666091632640107351,0.0,0.0,0.0,0.0,0.0,0.0
1666091632688098868,0.0,0.0,0.0,0.0,0.0,0.0
1666091632688115292,0.0,0.0,0.0,0.0,0.0,0.0
1666091632732067470,0.0,0.0,0.0,0.0,0.0,0.0
1666091632732095185,0.0,0.0,0.0,0.0,0.0,0.0
1666091632776280347,0.0,0.0,0.0,0.0,0.0,0.0
1666091632776318336,0.0,0.0,0.0,0.0,0.0,0.0
1666091632820225365,0.0,0.0,0.0,0.0,0.0,0.0
1666091632820255883,0.0,0.0,0.0,0.0,0.0,0.0
1666091632820274096,0.0,0.0,0.0,0.0,0.0,0.0
1666091632864100710,0.0,0.0,0.0,0.0,0.0,0.0
1666091632864119233,0.0,0.0,0.0,0.0,0.0,0.0
1666091632878303236,0.0,0.0,0.0,0.0,0.0,0.0
1666091632898508758,0.0,0.0,0.0,0.0,0.0,0.0
1666091632940118549,0.0,0.0,0.0,0.0,0.0,0.0
1666091632940139179,0.0,0.0,0.0,0.0,0.0,0.0
1666091632984120420,0.0,0.0,0.0,0.0,0.0,0.0
1666091632984141679,0.0,0.0,0.0,0.0,0.0,0.0
1666091633028121602,0.0,0.0,0.0,0.0,0.0,0.0
1666091633028146678,0.0,0.0,0.0,0.0,0.0,0.0
1666091633072067789,0.0,0.0,0.0,0.0,0.0,0.0
1666091633072080236,0.0,0.0,0.0,0.0,0.0,0.0
1666091633116119605,0.0,0.0,0.0,0.0,0.0,0.0
1666091633116141189,0.0,0.0,0.0,0.0,0.0,0.0
1666091633160162026,0.0,0.0,0.0,0.0,0.0,0.0
1666091633160182988,0.0,0.0,0.0,0.0,0.0,0.0
1666091633160207288,0.0,0.0,0.0,0.0,0.0,0.0
1666091633204095943,0.0,0.0,0.0,0.0,0.0,0.0
1666091633204114592,0.0,0.0,0.0,0.0,0.0,0.0
1666091633218241903,0.0,0.0,0.0,0.0,0.0,0.0
1666091633237354550,0.0,0.0,0.0,0.0,0.0,0.0
1666091633280167312,0.0,0.0,0.0,0.0,0.0,0.0
1666091633280185931,0.0,0.0,0.0,0.0,0.0,0.0
1666091633324154012,0.0,0.0,0.0,0.0,0.0,0.0
1666091633324182543,0.0,0.0,0.0,0.0,0.0,0.0
1666091633372110981,0.0,0.0,0.0,0.0,0.0,0.0
1666091633372123910,0.0,0.0,0.0,0.0,0.0,0.0
1666091633420082267,0.0,0.0,0.0,0.0,0.0,0.0
1666091633420096726,0.0,0.0,0.0,0.0,0.0,0.0
1666091633420101412,0.0,0.0,0.0,0.0,0.0,0.0
1666091633464110325,0.0,0.0,0.0,0.0,0.0,0.0
1666091633464130504,0.0,0.0,0.0,0.0,0.0,0.0
1666091633477660685,0.0,0.0,0.0,0.0,0.0,0.0
1666091633497231731,0.0,0.0,0.0,0.0,0.0,0.0
1666091633544079925,0.0,0.0,0.0,0.0,0.0,0.0
1666091633544094040,0.0,0.0,0.0,0.0,0.0,0.0
1666091633592294308,0.0,0.0,0.0,0.0,0.0,0.0
1666091633592320488,0.0,0.0,0.0,0.0,0.0,0.0
1666091633636101740,0.0,0.0,0.0,0.0,0.0,0.0
1666091633636118808,0.0,0.0,0.0,0.0,0.0,0.0
1666091633680159762,0.0,0.0,0.0,0.0,0.0,0.0
1666091633680180543,0.0,0.0,0.0,0.0,0.0,0.0
1666091633680210037,0.0,0.0,0.0,0.0,0.0,0.0
1666091633724322971,0.0,0.0,0.0,0.0,0.0,0.0
1666091633724368711,0.0,0.0,0.0,0.0,0.0,0.0
1666091633738350166,0.0,0.0,0.0,0.0,0.0,0.0
1666091633758404560,0.0,0.0,0.0,0.0,0.0,0.0
1666091633800093154,0.0,0.0,0.0,0.0,0.0,0.0
1666091633800104409,0.0,0.0,0.0,0.0,0.0,0.0
1666091633848197644,0.0,0.0,0.0,0.0,0.0,0.0
1666091633848222518,0.0,0.0,0.0,0.0,0.0,0.0
1666091633892118776,0.0,0.0,0.0,0.0,0.0,0.0
1666091633892175233,0.0,0.0,0.0,0.0,0.0,0.0
1666091633940073954,0.0,0.0,0.0,0.0,0.0,0.0
1666091633940090960,0.0,0.0,0.0,0.0,0.0,0.0
1666091633940097287,0.0,0.0,0.0,0.0,0.0,0.0
1666091633984097518,0.0,0.0,0.0,0.0,0.0,0.0
1666091633984118107,0.0,0.0,0.0,0.0,0.0,0.0
1666091633998545996,0.0,0.0,0.0,0.0,0.0,0.0
1666091634018083080,0.0,0.0,0.0,0.0,0.0,0.0
1666091634060104329,0.0,0.0,0.0,0.0,0.0,0.0
1666091634060121137,0.0,0.0,0.0,0.0,0.0,0.0
1666091634104101405,0.0,0.0,0.0,0.0,0.0,0.0
1666091634104117630,0.0,0.0,0.0,0.0,0.0,0.0
1666091634148102833,0.0,0.0,0.0,0.0,0.0,0.0
1666091634148122198,0.0,0.0,0.0,0.0,0.0,0.0
1666091634196200304,0.0,0.0,0.0,0.0,0.0,0.0
1666091634196226550,0.0,0.0,0.0,0.0,0.0,0.0
1666091634240105019,0.0,0.0,0.0,0.0,0.0,0.0
1666091634240120918,0.0,0.0,0.0,0.0,0.0,0.0
1666091634240128845,0.0,0.0,0.0,0.0,0.0,0.0
1666091634284375410,0.0,0.0,0.0,0.0,0.0,0.0
1666091634284432919,0.0,0.0,0.0,0.0,0.0,0.0
1666091634300723244,0.0,0.0,0.0,0.0,0.0,0.0
1666091634318926972,0.0,0.0,0.0,0.0,0.0,0.0
1666091634360363042,0.0,0.0,0.0,0.0,0.0,0.0
1666091634360434115,0.0,0.0,0.0,0.0,0.0,0.0
1666091634404059498,0.0,0.0,0.0,0.0,0.0,0.0
1666091634404072871,0.0,0.0,0.0,0.0,0.0,0.0
1666091634448140394,0.0,0.0,0.0,0.0,0.0,0.0
1666091634448161375,0.0,0.0,0.0,0.0,0.0,0.0
1666091634496141026,0.0,0.0,0.0,0.0,0.0,0.0
1666091634496167785,0.0,0.0,0.0,0.0,0.0,0.0
1666091634540336597,0.0,0.0,0.0,0.0,0.0,0.0
1666091634540473495,0.0,0.0,0.0,0.0,0.0,0.0
1666091634540509472,0.0,0.0,0.0,0.0,0.0,0.0
1666091634588125054,0.0,0.0,0.0,0.0,0.0,0.0
1666091634588143376,0.0,0.0,0.0,0.0,0.0,0.0
1666091634598858594,0.0,0.0,0.0,0.0,0.0,0.0
1666091634619369282,0.0,0.0,0.0,0.0,0.0,0.0
1666091634660081357,0.0,0.0,0.0,0.0,0.0,0.0
1666091634660098377,0.0,0.0,0.0,0.0,0.0,0.0
1666091634704174397,0.0,0.0,0.0,0.0,0.0,0.0
1666091634704194787,0.0,0.0,0.0,0.0,0.0,0.0
1666091634748206923,0.0,0.0,0.0,0.0,0.0,0.0
1666091634748241899,0.0,0.0,0.0,0.0,0.0,0.0
1666091634792084529,0.0,0.0,0.0,0.0,0.0,0.0
1666091634792099258,0.0,0.0,0.0,0.0,0.0,0.0
1666091634836086032,0.0,0.0,0.0,0.0,0.0,0.0
1666091634836098844,0.0,0.0,0.0,0.0,0.0,0.0
1666091634880375612,0.0,0.0,0.0,0.0,0.0,0.0
1666091634880417664,0.0,0.0,0.0,0.0,0.0,0.0
1666091634880437855,0.0,0.0,0.0,0.0,0.0,0.0
1666091634924104645,0.0,0.0,0.0,0.0,0.0,0.0
1666091634924118721,0.0,0.0,0.0,0.0,0.0,0.0
1666091634938579069,0.0,0.0,0.0,0.0,0.0,0.0
1666091634958514107,0.0,0.0,0.0,0.0,0.0,0.0
1666091635000098359,0.0,0.0,0.0,0.0,0.0,0.0
1666091635000129752,0.0,0.0,0.0,0.0,0.0,0.0
1666091635044099882,0.0,0.0,0.0,0.0,0.0,0.0
1666091635044117273,0.0,0.0,0.0,0.0,0.0,0.0
1666091635088131749,0.0,0.0,0.0,0.0,0.0,0.0
1666091635088152698,0.0,0.0,0.0,0.0,0.0,0.0
1666091635132120633,0.0,0.0,0.0,0.0,0.0,0.0
1666091635132150024,0.0,0.0,0.0,0.0,0.0,0.0
1666091635176147242,0.0,0.0,0.0,0.0,0.0,0.0
1666091635176164464,0.0,0.0,0.0,0.0,0.0,0.0
1666091635220096595,0.0,0.0,0.0,0.0,0.0,0.0
1666091635220115477,0.0,0.0,0.0,0.0,0.0,0.0
1666091635220121689,0.0,0.0,0.0,0.0,0.0,0.0
1666091635264083531,0.0,0.0,0.0,0.0,0.0,0.0
1666091635264098858,0.0,0.0,0.0,0.0,0.0,0.0
1666091635279393190,0.0,0.0,0.0,0.0,0.0,0.0
1666091635300171678,0.0,0.0,0.0,0.0,0.0,0.0
1666091635344217665,0.0,0.0,0.0,0.0,0.0,0.0
1666091635344243760,0.0,0.0,0.0,0.0,0.0,0.0
1666091635388215871,0.0,0.0,0.0,0.0,0.0,0.0
1666091635388232879,0.0,0.0,0.0,0.0,0.0,0.0
1666091635432116221,0.0,0.0,0.0,0.0,0.0,0.0
1666091635432137400,0.0,0.0,0.0,0.0,0.0,0.0
1666091635476140699,0.0,0.0,0.0,0.0,0.0,0.0
1666091635476158361,0.0,0.0,0.0,0.0,0.0,0.0
1666091635524132920,0.0,0.0,0.0,0.0,0.0,0.0
1666091635524157602,0.0,0.0,0.0,0.0,0.0,0.0
1666091635524174918,0.0,0.0,0.0,0.0,0.0,0.0
1666091635568069122,0.0,0.0,0.0,0.0,0.0,0.0
1666091635568080683,0.0,0.0,0.0,0.0,0.0,0.0
1666091635578540231,0.0,0.0,0.0,0.0,0.0,0.0
1666091635598644907,0.0,0.0,0.0,0.0,0.0,0.0
1666091635640098911,0.0,0.0,0.0,0.0,0.0,0.0
1666091635640113070,0.0,0.0,0.0,0.0,0.0,0.0
1666091635688149359,0.0,0.0,0.0,0.0,0.0,0.0
1666091635688169836,0.0,0.0,0.0,0.0,0.0,0.0
1666091635732410407,0.0,0.0,0.0,0.0,0.0,0.0
1666091635732462180,0.0,0.0,0.0,0.0,0.0,0.0
1666091635780256635,0.0,0.0,0.0,0.0,0.0,0.0
1666091635780309705,0.0,0.0,0.0,0.0,0.0,0.0
1666091635780331877,0.0,0.0,0.0,0.0,0.0,0.0
1666091635824075786,0.0,0.0,0.0,0.0,0.0,0.0
1666091635824096119,0.0,0.0,0.0,0.0,0.0,0.0
1666091635839840775,0.0,0.0,0.0,0.0,0.0,0.0
1666091635859361963,0.0,0.0,0.0,0.0,0.0,0.0
1666091635900075190,0.0,0.0,0.0,0.0,0.0,0.0
1666091635900090118,0.0,0.0,0.0,0.0,0.0,0.0
1666091635944095143,0.0,0.0,0.0,0.0,0.0,0.0
1666091635944110961,0.0,0.0,0.0,0.0,0.0,0.0
1666091635988395997,0.0,0.0,0.0,0.0,0.0,0.0
1666091635988432343,0.0,0.0,0.0,0.0,0.0,0.0
1666091636036066048,0.0,0.0,0.0,0.0,0.0,0.0
1666091636036078808,0.0,0.0,0.0,0.0,0.0,0.0
1666091636080177244,0.0,0.0,0.0,0.0,0.0,0.0
1666091636080214743,0.0,0.0,0.0,0.0,0.0,0.0
1666091636080235286,0.0,0.0,0.0,0.0,0.0,0.0
1666091636124061405,0.0,0.0,0.0,0.0,0.0,0.0
1666091636124095702,0.0,0.0,0.0,0.0,0.0,0.0
1666091636139554233,0.0,0.0,0.0,0.0,0.0,0.0
1666091636159270215,0.0,0.0,0.0,0.0,0.0,0.0
1666091636200171933,0.0,0.0,0.0,0.0,0.0,0.0
1666091636200223034,0.0,0.0,0.0,0.0,0.0,0.0
1666091636244068228,0.0,0.0,0.0,0.0,0.0,0.0
1666091636244085949,0.0,0.0,0.0,0.0,0.0,0.0
1666091636288170166,0.0,0.0,0.0,0.0,0.0,0.0
1666091636288199631,0.0,0.0,0.0,0.0,0.0,0.0
1666091636332134416,0.0,0.0,0.0,0.0,0.0,0.0
1666091636332147552,0.0,0.0,0.0,0.0,0.0,0.0
1666091636376094979,0.0,0.0,0.0,0.0,0.0,0.0
1666091636376113009,0.0,0.0,0.0,0.0,0.0,0.0
1666091636420144748,0.0,0.0,0.0,0.0,0.0,0.0
1666091636420167962,0.0,0.0,0.0,0.0,0.0,0.0
1666091636464065424,0.0,0.0,0.0,0.0,0.0,0.0
1666091636464081793,0.0,0.0,0.0,0.0,0.0,0.0
1666091636464087115,0.0,0.0,0.0,0.0,0.0,0.0
1666091636508101715,0.0,0.0,0.0,0.0,0.0,0.0
1666091636508118608,0.0,0.0,0.0,0.0,0.0,0.0
1666091636519267309,0.0,0.0,0.0,0.0,0.0,0.0
1666091636539006994,0.0,0.0,0.0,0.0,0.0,0.0
1666091636584188180,0.0,0.0,0.0,0.0,0.0,0.0
1666091636584219621,0.0,0.0,0.0,0.0,0.0,0.0
1666091636632113118,0.0,0.0,0.0,0.0,0.0,0.0
1666091636632131947,0.0,0.0,0.0,0.0,0.0,0.0
1666091636676072277,0.0,0.0,0.0,0.0,0.0,0.0
1666091636676080950,0.0,0.0,0.0,0.0,0.0,0.0
1666091636720102884,0.0,0.0,0.0,0.0,0.0,0.0
1666091636720118286,0.0,0.0,0.0,0.0,0.0,0.0
1666091636720124784,0.0,0.0,0.0,0.0,0.0,0.0
1666091636764064651,0.0,0.0,0.0,0.0,0.0,0.0
1666091636764082367,0.0,0.0,0.0,0.0,0.0,0.0
1666091636778921350,0.0,0.0,0.0,0.0,0.0,0.0
1666091636798878200,0.0,0.0,0.0,0.0,0.0,0.0
1666091636840082935,0.0,0.0,0.0,0.0,0.0,0.0
1666091636840097442,0.0,0.0,0.0,0.0,0.0,0.0
1666091636884198406,0.0,0.0,0.0,0.0,0.0,0.0
1666091636884225684,0.0,0.0,0.0,0.0,0.0,0.0
1666091636929950177,0.0,0.0,0.0,0.0,0.0,0.0
1666091636930008720,0.0,0.0,0.0,0.0,0.0,0.0
1666091636972063877,0.0,0.0,0.0,0.0,0.0,0.0
1666091636972075339,0.0,0.0,0.0,0.0,0.0,0.0
1666091637016265728,0.0,0.0,0.0,0.0,0.0,0.0
1666091637016297373,0.0,0.0,0.0,0.0,0.0,0.0
1666091637060154537,0.0,0.0,0.0,0.0,0.0,0.0
1666091637060193981,0.0,0.0,0.0,0.0,0.0,0.0
1666091637060219722,0.0,0.0,0.0,0.0,0.0,0.0
1666091637104074144,0.0,0.0,0.0,0.0,0.0,0.0
1666091637104091489,0.0,0.0,0.0,0.0,0.0,0.0
1666091637118912102,0.0,0.0,0.0,0.0,0.0,0.0
1666091637138941702,0.0,0.0,0.0,0.0,0.0,0.0
1666091637180102578,0.0,0.0,0.0,0.0,0.0,0.0
1666091637180125769,0.0,0.0,0.0,0.0,0.0,0.0
1666091637228048010,0.0,0.0,0.0,0.0,0.0,0.0
1666091637228057518,0.0,0.0,0.0,0.0,0.0,0.0
1666091637272061669,0.0,0.0,0.0,0.0,0.0,0.0
1666091637272075417,0.0,0.0,0.0,0.0,0.0,0.0
1666091637316108391,0.0,0.0,0.0,0.0,0.0,0.0
1666091637316123765,0.0,0.0,0.0,0.0,0.0,0.0
1666091637360154844,0.0,0.0,0.0,0.0,0.0,0.0
1666091637360180601,0.0,0.0,0.0,0.0,0.0,0.0
1666091637360187155,0.0,0.0,0.0,0.0,0.0,0.0
1666091637404456942,0.0,0.0,0.0,0.0,0.0,0.0
1666091637404513051,0.0,0.0,0.0,0.0,0.0,0.0
1666091637419756267,0.0,0.0,0.0,0.0,0.0,0.0
1666091637441226262,0.0,0.0,0.0,0.0,0.0,0.0
1666091637488167613,0.0,0.0,0.0,0.0,0.0,0.0
1666091637488215267,0.0,0.0,0.0,0.0,0.0,0.0
1666091637532037400,0.0,0.0,0.0,0.0,0.0,0.0
1666091637532048450,0.0,0.0,0.0,0.0,0.0,0.0
1666091637576093547,0.0,0.0,0.0,0.0,0.0,0.0
1666091637576111539,0.0,0.0,0.0,0.0,0.0,0.0
1666091637620381497,0.0,0.0,0.0,0.0,0.0,0.0
1666091637620427670,0.0,0.0,0.0,0.0,0.0,0.0
1666091637620445452,0.0,0.0,0.0,0.0,0.0,0.0
1666091637664097891,0.0,0.0,0.0,0.0,0.0,0.0
1666091637664113500,0.0,0.0,0.0,0.0,0.0,0.0
1666091637679383165,0.0,0.0,0.0,0.0,0.0,0.0
1666091637700292281,0.0,0.0,0.0,0.0,0.0,0.0
1666091637744053009,0.0,0.0,0.0,0.0,0.0,0.0
1666091637744064805,0.0,0.0,0.0,0.0,0.0,0.0
1666091637788349479,0.0,0.0,0.0,0.0,0.0,0.0
1666091637788410155,0.0,0.0,0.0,0.0,0.0,0.0
1666091637832571953,0.0,0.0,0.0,0.0,0.0,0.0
1666091637832635437,0.0,0.0,0.0,0.0,0.0,0.0
1666091637876073510,0.0,0.0,0.0,0.0,0.0,0.0
1666091637876086544,0.0,0.0,0.0,0.0,0.0,0.0
1666091637924514349,0.0,0.0,0.0,0.0,0.0,0.0
1666091637924569939,0.0,0.0,0.0,0.0,0.0,0.0
1666091637924598232,0.0,0.0,0.0,0.0,0.0,0.0
1666091637972222820,0.0,0.0,0.0,0.0,0.0,0.0
1666091637972253418,0.0,0.0,0.0,0.0,0.0,0.0
1666091637979597275,0.0,0.0,0.0,0.0,0.0,0.0
1666091637999716407,0.0,0.0,0.0,0.0,0.0,0.0
1666091638044233876,0.0,0.0,0.0,0.0,0.0,0.0
1666091638044274146,0.0,0.0,0.0,0.0,0.0,0.0
1666091638092496964,0.0,0.0,0.0,0.0,0.0,0.0
1666091638092559201,0.0,0.0,0.0,0.0,0.0,0.0
1666091638136308721,0.0,0.0,0.0,0.0,0.0,0.0
1666091638136330603,0.0,0.0,0.0,0.0,0.0,0.0
1666091638184325604,0.0,0.0,0.0,0.0,0.0,0.0
1666091638184362628,0.0,0.0,0.0,0.0,0.0,0.0
1666091638184400663,0.0,0.0,0.0,0.0,0.0,0.0
1666091638228104159,0.0,0.0,0.0,0.0,0.0,0.0
1666091638228120174,0.0,0.0,0.0,0.0,0.0,0.0
1666091638239435209,0.0,0.0,0.0,0.0,0.0,0.0
1666091638262378839,0.0,0.0,0.0,0.0,0.0,0.0
1666091638304294892,0.0,0.0,0.0,0.0,0.0,0.0
1666091638304335811,0.0,0.0,0.0,0.0,0.0,0.0
1666091638352138465,0.0,0.0,0.0,0.0,0.0,-0.00017453292519943296
1666091638352158143,0.0,0.0,0.0,0.0,0.0,-0.0008726646259971648
1666091638396199452,0.0,0.0,0.0,0.0,0.0,-0.0036651914291880917
1666091638396236122,0.0,0.0,0.0,0.0,0.0,-0.0031415926535897933
1666091638440159692,0.0,0.0,0.0,0.0,0.0,-0.003316125578789226
1666091638440183885,0.002132302208337933,0.0,0.0,0.0,0.0,-0.0022689280275926286
1666091638440195771,0.008529208833351731,0.0,0.0,0.0,0.0,0.0012217304763960308
1666091638488205570,0.0,0.0,0.0,0.0,0.0,0.0019198621771937623
1666091638488234171,0.012793813250027599,0.0,0.0,0.0,0.0,-0.0020943951023931952
1666091638500245952,0.004264604416675866,0.0,0.0,0.0,0.0,-0.002967059728390361
1666091638519640526,0.006396906625013799,0.0,0.0,0.0,0.0,-0.0022689280275926286
1666091638560566919,0.017058417666703463,0.0,0.0,0.0,0.0,-0.005061454830783556
1666091638560707894,0.012793813250027599,0.0,0.0,0.0,0.0,-0.0022689280275926286
1666091638608044761,0.027719928708393127,0.0,0.0,0.0,0.0,-0.008726646259971648
1666091638608056688,0.02345532429171726,0.0,0.0,0.0,0.0,-0.026529004630313806
1666091638652356454,0.029852230916731063,0.0,0.0,0.0,0.0,-0.03089232776029963
1666091638652387243,0.03198453312506899,0.0,0.0,0.0,0.0,-0.04310963252425994
1666091638696221358,0.03624913754174486,0.0,0.0,0.0,0.0,-0.07225663103256524
1666091638696289735,0.05330755520844832,0.0,0.0,0.0,0.0,-0.10175269539126942
1666091638740240963,0.05543985741678625,0.0,0.0,0.0,0.0,-0.13264502315156904
1666091638740272633,0.05330755520844832,0.0,0.0,0.0,0.0,-0.16894787159305108
1666091638788320547,0.06183676404180006,0.0,0.0,0.0,0.0,-0.2059488517353309
1666091638788380887,0.06396906625013798,0.0,0.0,0.0,0.0,-0.22636920398366453
1666091638788491294,0.07676287950016558,0.0,0.0,0.0,0.0,-0.2504547476611863
1666091638832362014,0.08102748391684146,0.0,0.0,0.0,0.0,-0.2876302607286655
1666091638832376694,0.07676287950016558,0.0,0.0,0.0,0.0,-0.30839967882739805
1666091638840337690,0.09595359937520698,0.0,0.0,0.0,0.0,-0.3262020371977402
1666091638860696847,0.09595359937520698,0.0,0.0,0.0,0.0,-0.3399901382884954
1666091638904174422,0.1108797148335725,0.0,0.0,0.0,0.0,-0.3647738136668149
1666091638904207649,0.10021820379188286,0.0,0.0,0.0,0.0,-0.38781215979314
1666091638948087643,0.09808590158354492,0.0,0.0,0.0,0.0,-0.4207988826558329
1666091638948104369,0.11301201704191044,0.0,0.0,0.0,0.0,-0.4513421445657336
1666091638996080330,0.11940892366692425,0.0,0.0,0.0,0.0,-0.45465827014452287
1666091638996094404,0.13220273691695184,0.0,0.0,0.0,0.0,-0.4551818689201211
1666091639040121272,0.11514431925024839,0.0,0.0,0.0,0.0,-0.4485496177625427
1666091639040141252,0.12580583029193804,0.0,0.0,0.0,0.0,-0.44401176170735746
1666091639084509851,0.15352575900033116,0.0,0.0,0.0,0.0,-0.43545964837258516
1666091639084564452,0.14499655016697943,0.0,0.0,0.0,0.0,-0.4066617157146788
1666091639084681731,0.14712885237531736,0.0,0.0,0.0,0.0,-0.39304814754912304
1666091639128094097,0.14286424795864153,0.0,0.0,0.0,0.0,-0.4443608275577563
1666091639128116451,0.15352575900033116,0.0,0.0,0.0,0.0,-0.47490408946765705
1666091639141266871,0.17271647887537256,0.0,0.0,0.0,0.0,-0.4991641660703783
1666091639160578956,0.17484878108371052,0.0,0.0,0.0,0.0,-0.5031784233499651
1666091639204216663,0.17271647887537256,0.0,0.0,0.0,0.0,-0.5324999547834699
1666091639204252962,0.17911338550038639,0.0,0.0,0.0,0.0,-0.5616469532917753
1666091639248081793,0.1876425943337381,0.0,0.0,0.0,0.0,-0.5684537373745532
1666091639248101724,0.20470101200044158,0.0,0.0,0.0,0.0,-0.5536184387326013
1666091639292269170,0.20683331420877948,0.0,0.0,0.0,0.0,-0.540179403492245
1666091639292317999,0.20470101200044158,0.0,0.0,0.0,0.0,-0.541401133968641
1666091639340119766,0.20683331420877948,0.0,0.0,0.0,0.0,-0.5511749777798092
1666091639340140593,0.21109791862545538,0.0,0.0,0.0,0.0,-0.5508259119294104
1666091639384113901,0.221759429667145,0.0,0.0,0.0,0.0,-0.5316272901574728
1666091639384128389,0.221759429667145,0.0,0.0,0.0,0.0,-0.5434955290710343
1666091639384145255,0.23242094070883468,0.0,0.0,0.0,0.0,-0.5927138139772743
1666091639428144918,0.23668554512551054,0.0,0.0,0.0,0.0,-0.6408849013323178
1666091639428167927,0.22602403408382088,0.0,0.0,0.0,0.0,-0.6538003377970759
1666091639440721925,0.1556580612086691,0.0,0.0,0.0,0.0,-0.6747442888210077
1666091639461374035,0.15779036341700706,0.0,0.0,0.0,0.0,-0.7030186227033159
1666091639504373017,0.21109791862545538,0.0,0.0,0.0,0.0,-0.7033676885537148
1666091639504441443,0.22815633629215884,0.0,0.0,0.0,0.0,-0.7272786993060371
1666091639548105889,0.17484878108371052,0.0,0.0,0.0,0.0,-0.742986662573986
1666091639548119941,0.17271647887537256,0.0,0.0,0.0,0.0,-0.7230899091012506
1666091639596475840,0.20470101200044158,0.0,0.0,0.0,0.0,-0.7225663103256524
1666091639596569002,0.22815633629215884,0.0,0.0,0.0,0.0,-0.7115707360380883
1666091639644335204,0.21109791862545538,0.0,0.0,0.0,0.0,-0.6953391739945409
1666091639644366806,0.1876425943337381,0.0,0.0,0.0,0.0,-0.6955137069197403
1666091639644437326,0.20896561641711744,0.0,0.0,0.0,0.0,-0.7061602153569058
1666091639692261734,0.21749482525046915,0.0,0.0,0.0,0.0,-0.6873106594353671
1666091639692323877,0.08315978612517938,0.0,0.0,0.0,0.0,-0.6750933546714066
1666091639701289011,0.06610136845847592,0.0,0.0,0.0,0.0,-0.6829473363053812
1666091639720327369,0.1108797148335725,0.0,0.0,0.0,0.0,-0.6604325889546543
1666091639768123667,0.051175253000110395,0.0,0.0,0.0,0.0,-0.6442010269111069
1666091639768137983,0.027719928708393127,0.0,0.0,0.0,0.0,-0.6387905062299246
1666091639812205242,0.017058417666703463,0.0,0.0,0.0,0.0,-0.6351253148007365
1666091639812223113,0.034116835333406925,0.0,0.0,0.0,0.0,-0.6211626807847819
1666091639860245183,0.04051374195842073,0.0,0.0,0.0,0.0,-0.544193660771832
1666091639860278188,0.042646044166758657,0.0,0.0,0.0,0.0,-0.47071529926287065
1666091639904089338,0.034116835333406925,0.0,0.0,0.0,0.0,-0.4382521751757761
1666091639904101501,0.027719928708393127,0.0,0.0,0.0,0.0,-0.415213829049451
1666091639904109046,0.019190719875041395,0.0,0.0,0.0,0.0,-0.3907792195215304
1666091639952345787,0.004264604416675866,0.0,0.0,0.0,0.0,-0.3778637830567723
1666091639952383117,-0.004264604416675866,0.0,0.0,0.0,0.0,-0.3581415625092364
1666091639961977829,-0.008529208833351731,0.0,0.0,0.0,0.0,-0.32690016889853796
1666091639980644155,-0.010661511041689664,0.0,0.0,0.0,0.0,-0.324107642095347
1666091640024237593,-0.02345532429171726,0.0,0.0,0.0,0.0,-0.3010692959690218
1666091640024294604,-0.027719928708393127,0.0,0.0,0.0,0.0,-0.2755874888899046
1666091640072115302,-0.019190719875041395,0.0,0.0,0.0,0.0,-0.2309070600388498
1666091640072140017,-0.004264604416675866,0.0,0.0,0.0,0.0,-0.20315632493213995
1666091640116063948,-0.010661511041689664,0.0,0.0,0.0,0.0,-0.19844393595175525
1666091640116076705,0.004264604416675866,0.0,0.0,0.0,0.0,-0.18360863730980345
1666091640160281621,0.012793813250027599,0.0,0.0,0.0,0.0,-0.1785471824790199
1666091640160331762,0.017058417666703463,0.0,0.0,0.0,0.0,-0.15673056682909078
1666091640204626228,0.012793813250027599,0.0,0.0,0.0,0.0,-0.1478293876439197
1666091640204730313,0.012793813250027599,0.0,0.0,0.0,0.0,-0.14172073526193954
1666091640204753438,0.008529208833351731,0.0,0.0,0.0,0.0,-0.13700834628155484
1666091640248527670,0.006396906625013799,0.0,0.0,0.0,0.0,-0.12112585008840647
1666091640248568446,0.002132302208337933,0.0,0.0,0.0,0.0,-0.10995574287564275
1666091640261137940,0.006396906625013799,0.0,0.0,0.0,0.0,-0.12810716709638378
1666091640280664091,0.006396906625013799,0.0,0.0,0.0,0.0,-0.12095131716320703
1666091640324194707,0.002132302208337933,0.0,0.0,0.0,0.0,-0.08656833089891874
1666091640324222502,-0.004264604416675866,0.0,0.0,0.0,0.0,-0.060039326268604934
1666091640372294366,-0.002132302208337933,0.0,0.0,0.0,0.0,-0.044331363000655974
1666091640372364586,0.0,0.0,0.0,0.0,0.0,-0.028448866807507567
1666091640420095090,0.0,0.0,0.0,0.0,0.0,-0.01780235837034216
1666091640420117370,-0.004264604416675866,0.0,0.0,0.0,0.0,-0.010995574287564275
1666091640465427617,-0.002132302208337933,0.0,0.0,0.0,0.0,-0.007853981633974483
1666091640465451550,0.0,0.0,0.0,0.0,0.0,-0.00471238898038469
1666091640465464144,0.0,0.0,0.0,0.0,0.0,-0.010995574287564275
1666091640512173382,0.0,0.0,0.0,0.0,0.0,-0.010297442586766544
1666091640512200598,0.0,0.0,0.0,0.0,0.0,-0.004537856055185257
1666091640520864528,0.006396906625013799,0.0,0.0,0.0,0.0,-0.008028514559173916
1666091640540868590,0.002132302208337933,0.0,0.0,0.0,0.0,-0.01815142422074103
1666091640588132491,0.0,0.0,0.0,0.0,0.0,-0.025132741228718346
1666091640588155301,0.004264604416675866,0.0,0.0,0.0,0.0,-0.026529004630313806
1666091640632300118,0.004264604416675866,0.0,0.0,0.0,0.0,-0.024260076602721177
1666091640632323991,0.0,0.0,0.0,0.0,0.0,-0.019896753472735354
1666091640676099172,0.0,0.0,0.0,0.0,0.0,-0.019896753472735354
1666091640676131723,0.002132302208337933,0.0,0.0,0.0,0.0,-0.012566370614359173
1666091640724129740,-0.002132302208337933,0.0,0.0,0.0,0.0,0.0
1666091640724149493,-0.002132302208337933,0.0,0.0,0.0,0.0,0.0
1666091640724171163,0.0,0.0,0.0,0.0,0.0,0.0
1666091640768125176,0.0,0.0,0.0,0.0,0.0,0.0
1666091640768149473,0.0,0.0,0.0,0.0,0.0,0.0
1666091640780479365,0.0,0.0,0.0,0.0,0.0,0.0
1666091640802315215,0.0,0.0,0.0,0.0,0.0,0.0
1666091640844183520,0.0,0.0,0.0,0.0,0.0,0.0
1666091640844213893,0.0,0.0,0.0,0.0,0.0,0.0
1666091640888166561,0.0,0.0,0.0,0.0,0.0,0.0
1666091640888186141,0.0,0.0,0.0,0.0,0.0,0.0
1666091640932171065,0.0,0.0,0.0,0.0,0.0,0.0
1666091640932227417,0.0,0.0,0.0,0.0,0.0,0.0
1666091640976087041,0.0,0.0,0.0,0.0,0.0,0.0
1666091640976102250,0.0,0.0,0.0,0.0,0.0,0.0
1666091641020736293,0.0,0.0,0.0,0.0,0.0,0.0
1666091641020795390,0.0,0.0,0.0,0.0,0.0,0.0
1666091641064115287,0.0,0.0,0.0,0.0,0.0,0.0
1666091641064133219,0.0,0.0,0.0,0.0,0.0,0.0
1666091641064144574,0.0,0.0,0.0,0.0,0.0,0.0
1666091641108068838,0.0,0.0,0.0,0.0,0.0,0.0
1666091641108085705,0.0,0.0,0.0,0.0,0.0,0.0
1666091641120648863,0.0,0.0,0.0,0.0,0.0,0.0
1666091641140758160,0.0,0.0,0.0,0.0,0.0,0.0
1666091641184193871,0.0,0.0,0.0,0.0,0.0,0.0
1666091641184218673,0.0,0.0,0.0,0.0,0.0,0.0
1666091641228108678,0.0,0.0,0.0,0.0,0.0,0.0
1666091641228142361,0.0,0.0,0.0,0.0,0.0,0.0
1666091641272326456,0.0,0.0,0.0,0.0,0.0,0.0
1666091641272368172,0.0,0.0,0.0,0.0,0.0,0.0
1666091641316169852,0.0,0.0,0.0,0.0,0.0,0.0
1666091641316189637,0.0,0.0,0.0,0.0,0.0,0.0
1666091641362640682,0.0,0.0,0.0,0.0,0.0,0.0
1666091641362671559,0.0,0.0,0.0,0.0,0.0,0.0
1666091641408479713,0.0,0.0,0.0,0.0,0.0,0.0
1666091641408513352,0.0,0.0,0.0,0.0,0.0,0.0
1666091641408566165,0.0,0.0,0.0,0.0,0.0,0.0
1666091641456129643,0.0,0.0,0.0,0.0,0.0,0.0
1666091641456154077,0.0,0.0,0.0,0.0,0.0,0.0
1666091641461233488,0.0,0.0,0.0,0.0,0.0,0.0
1666091641482365774,0.0,0.0,0.0,0.0,0.0,0.0
1666091641524163881,0.0,0.0,0.0,0.0,0.0,0.0
1666091641524186268,0.0,0.0,0.0,0.0,0.0,0.0
1666091641568166624,0.0,0.0,0.0,0.0,0.0,0.0
1666091641568195541,0.0,0.0,0.0,0.0,0.0,0.0
1666091641616160826,0.0,0.0,0.0,0.0,0.0,0.0
1666091641616183871,0.0,0.0,0.0,0.0,0.0,0.0
1666091641660083442,0.0,0.0,0.0,0.0,0.0,0.0
1666091641660097262,0.0,0.0,0.0,0.0,0.0,0.0
1666091641705122030,0.0,0.0,0.0,0.0,0.0,0.0
1666091641705138960,0.0,0.0,0.0,0.0,0.0,0.0
1666091641705165982,0.0,0.0,0.0,0.0,0.0,0.0
1666091641748085833,0.0,0.0,0.0,0.0,0.0,0.0
1666091641748102385,0.0,0.0,0.0,0.0,0.0,0.0
1666091641761702981,0.0,0.0,0.0,0.0,0.0,0.002617993877991494
1666091641781395590,0.0,0.0,0.0,0.0,0.0,0.005759586531581288
1666091641824513888,0.0,0.0,0.0,0.0,0.0,-0.004014257279586958
1666091641824633988,0.0,0.0,0.0,0.0,0.0,-0.0024434609527920616
1666091641868358210,0.0,0.0,0.0,0.0,0.0,-0.0020943951023931952
1666091641868383311,0.0,0.0,0.0,0.0,0.0,-0.0036651914291880917
1666091641912161443,0.0,0.0,0.0,0.0,0.0,-0.00034906585039886593
1666091641912187200,0.0,0.0,0.0,0.0,0.0,0.0005235987755982988
1666091641956166156,0.0,0.0,0.0,0.0,0.0,0.0012217304763960308
1666091641956199793,0.0,0.0,0.0,0.0,0.0,-0.0041887902047863905
1666091642000100967,0.0,0.0,0.0,0.0,0.0,-0.0036651914291880917
1666091642000130543,0.0,0.0,0.0,0.0,0.0,0.0
1666091642044069624,0.0,0.0,0.0,0.0,0.0,0.00034906585039886593
1666091642044077558,0.0,0.0,0.0,0.0,0.0,-0.00017453292519943296
1666091642044101880,0.0,0.0,0.0,0.0,0.0,0.0022689280275926286
1666091642088230040,0.0,0.0,0.0,0.0,0.0,-0.0010471975511965976
1666091642088259652,0.0,0.0,0.0,0.0,0.0,-0.0038397243543875246
1666091642102195425,0.0,0.0,0.0,0.0,0.0,0.0017453292519943296
1666091642121166865,0.0,0.0,0.0,0.0,0.0,0.0
1666091642164259306,0.0,0.0,0.0,0.0,0.0,-0.0041887902047863905
1666091642164294799,0.0,0.0,0.0,0.0,0.0,-0.0006981317007977319
1666091642208133233,0.0,0.0,0.0,0.0,0.0,0.0020943951023931952
1666091642208151684,-0.002132302208337933,0.0,0.0,0.0,0.0,-0.0008726646259971648
1666091642252180318,0.0,0.0,0.0,0.0,0.0,-0.0013962634015954637
1666091642252208741,0.002132302208337933,0.0,0.0,0.0,0.0,0.00017453292519943296
1666091642296122490,0.0,0.0,0.0,0.0,0.0,-0.0038397243543875246
1666091642296140514,0.0,0.0,0.0,0.0,0.0,-0.00471238898038469
1666091642340308118,0.0,0.0,0.0,0.0,0.0,-0.0019198621771937623
1666091642340323785,0.002132302208337933,0.0,0.0,0.0,0.0,-0.0010471975511965976
1666091642384132238,0.0,0.0,0.0,0.0,0.0,0.003316125578789226
1666091642384150272,0.0,0.0,0.0,0.0,0.0,0.00034906585039886593
1666091642384156368,0.0,0.0,0.0,0.0,0.0,-0.0006981317007977319
1666091642428081496,-0.002132302208337933,0.0,0.0,0.0,0.0,-0.003316125578789226
1666091642428101310,0.0,0.0,0.0,0.0,0.0,-0.0008726646259971648
1666091642442289954,0.0,0.0,0.0,0.0,0.0,0.0
1666091642463256695,-0.002132302208337933,0.0,0.0,0.0,0.0,-0.0019198621771937623
1666091642508061467,-0.002132302208337933,0.0,0.0,0.0,0.0,-0.0015707963267948967
1666091642508071803,0.0,0.0,0.0,0.0,0.0,-0.0022689280275926286
1666091642556154305,0.0,0.0,0.0,0.0,0.0,-0.0005235987755982988
1666091642556175186,-0.002132302208337933,0.0,0.0,0.0,0.0,-0.002617993877991494
1666091642600150880,0.0,0.0,0.0,0.0,0.0,-0.008028514559173916
1666091642600241485,0.0,0.0,0.0,0.0,0.0,-0.005585053606381855
1666091642648170488,0.0,0.0,0.0,0.0,0.0,-0.00034906585039886593
1666091642648194221,0.0,0.0,0.0,0.0,0.0,0.002967059728390361
1666091642648212127,-0.002132302208337933,0.0,0.0,0.0,0.0,-0.004014257279586958
1666091642692256025,-0.002132302208337933,0.0,0.0,0.0,0.0,-0.007504915783575617
1666091642692295000,-0.002132302208337933,0.0,0.0,0.0,0.0,-0.0031415926535897933
1666091642701836910,0.0,0.0,0.0,0.0,0.0,0.00034906585039886593
1666091642722645756,-0.002132302208337933,0.0,0.0,0.0,0.0,-0.011868238913561443
1666091642768217038,0.0,0.0,0.0,0.0,0.0,-0.017104226669544427
1666091642768241325,0.002132302208337933,0.0,0.0,0.0,0.0,-0.023387411976724018
1666091642816394039,-0.002132302208337933,0.0,0.0,0.0,0.0,-0.022863813201125717
1666091642816457054,-0.004264604416675866,0.0,0.0,0.0,0.0,-0.021642082724729686
1666091642860439491,0.0,0.0,0.0,0.0,0.0,-0.021642082724729686
1666091642860497963,-0.002132302208337933,0.0,0.0,0.0,0.0,-0.03106686068549907
1666091642904143686,-0.004264604416675866,0.0,0.0,0.0,0.0,-0.05044001538263612
1666091642904161224,-0.002132302208337933,0.0,0.0,0.0,0.0,-0.04136430327226561
1666091642904179017,0.0,0.0,0.0,0.0,0.0,-0.03804817769347638
1666091642949426684,-0.002132302208337933,0.0,0.0,0.0,0.0,-0.046076692252650306
1666091642949498171,-0.002132302208337933,0.0,0.0,0.0,0.0,-0.056025068989017976
1666091642961667891,-0.002132302208337933,0.0,0.0,0.0,0.0,-0.05358160803622591
1666091642981807085,-0.006396906625013799,0.0,0.0,0.0,0.0,-0.05078908123303499
1666091643024164853,-0.004264604416675866,0.0,0.0,0.0,0.0,-0.0497418836818384
1666091643024192429,-0.004264604416675866,0.0,0.0,0.0,0.0,-0.054977871437821374
1666091643072734464,-0.006396906625013799,0.0,0.0,0.0,0.0,-0.06300638599699529
1666091643072839476,-0.006396906625013799,0.0,0.0,0.0,0.0,-0.06318091892219473
1666091643120376951,-0.006396906625013799,0.0,0.0,0.0,0.0,-0.052883476335428184
1666091643120447109,-0.002132302208337933,0.0,0.0,0.0,0.0,-0.05515240436302082
1666091643164263233,0.006396906625013799,0.0,0.0,0.0,0.0,-0.0661479786505851
1666091643164292833,-0.002132302208337933,0.0,0.0,0.0,0.0,-0.07644542123735164
1666091643165166292,-0.004264604416675866,0.0,0.0,0.0,0.0,-0.08063421144213802
1666091643208201702,0.0,0.0,0.0,0.0,0.0,-0.09023352232810683
1666091643208238436,0.002132302208337933,0.0,0.0,0.0,0.0,-0.10925761117484502
1666091643221949576,-0.004264604416675866,0.0,0.0,0.0,0.0,-0.13072516097437528
1666091643241361388,-0.006396906625013799,0.0,0.0,0.0,0.0,-0.13683381335635542
1666091643284134439,0.004264604416675866,0.0,0.0,0.0,0.0,-0.14416419621473162
1666091643284150080,0.002132302208337933,0.0,0.0,0.0,0.0,-0.1551597705022959
1666091643328218752,0.002132302208337933,0.0,0.0,0.0,0.0,-0.1605702911834783
1666091643328259542,0.0,0.0,0.0,0.0,0.0,-0.16982053621904827
1666091643372128589,0.0,0.0,0.0,0.0,0.0,-0.1754055898254301
1666091643372148594,-0.002132302208337933,0.0,0.0,0.0,0.0,-0.182212373908208
1666091643416094467,0.002132302208337933,0.0,0.0,0.0,0.0,-0.1764527873766267
1666091643416112693,0.002132302208337933,0.0,0.0,0.0,0.0,-0.16964600329384882
1666091643460329632,-0.006396906625013799,0.0,0.0,0.0,0.0,-0.1630137521362704
1666091643460358273,-0.002132302208337933,0.0,0.0,0.0,0.0,-0.15673056682909078
1666091643504033355,0.002132302208337933,0.0,0.0,0.0,0.0,-0.15742869852988853
1666091643504046197,-0.002132302208337933,0.0,0.0,0.0,0.0,-0.14416419621473162
1666091643504054457,-0.006396906625013799,0.0,0.0,0.0,0.0,-0.1494001839707146
1666091643548265305,-0.004264604416675866,0.0,0.0,0.0,0.0,-0.15760323145508795
1666091643548282660,0.004264604416675866,0.0,0.0,0.0,0.0,-0.16196655458507378
1666091643561732837,-0.002132302208337933,0.0,0.0,0.0,0.0,-0.15812683023068627
1666091643581390902,-0.006396906625013799,0.0,0.0,0.0,0.0,-0.15655603390389136
1666091643624352277,-0.006396906625013799,0.0,0.0,0.0,0.0,-0.1647590813882647
1666091643624401397,0.002132302208337933,0.0,0.0,0.0,0.0,-0.1605702911834783
1666091643672150259,0.002132302208337933,0.0,0.0,0.0,0.0,-0.1514945790731078
1666091643672173218,-0.008529208833351731,0.0,0.0,0.0,0.0,-0.1478293876439197
1666091643716258107,0.0,0.0,0.0,0.0,0.0,-0.14486232791552936
1666091643716293044,0.002132302208337933,0.0,0.0,0.0,0.0,-0.1509709802975095
1666091643760206247,-0.002132302208337933,0.0,0.0,0.0,0.0,-0.14643312424232427
1666091643760228420,-0.004264604416675866,0.0,0.0,0.0,0.0,-0.13805554383275145
1666091643804086511,-0.002132302208337933,0.0,0.0,0.0,0.0,-0.1446877949903299
1666091643804103696,-0.002132302208337933,0.0,0.0,0.0,0.0,-0.15463617172669758
1666091643804113904,0.002132302208337933,0.0,0.0,0.0,0.0,-0.15847589608108512
1666091643848590000,-0.002132302208337933,0.0,0.0,0.0,0.0,-0.15707963267948966
1666091643848658811,0.0,0.0,0.0,0.0,0.0,-0.16004669240788
1666091643865641796,-0.006396906625013799,0.0,0.0,0.0,0.0,-0.17034413499464657
1666091643883207533,0.0,0.0,0.0,0.0,0.0,-0.17418385934903408
1666091643924135183,0.002132302208337933,0.0,0.0,0.0,0.0,-0.17191493132144145
1666091643924166702,0.0,0.0,0.0,0.0,0.0,-0.16807520696705394
1666091643968141839,-0.004264604416675866,0.0,0.0,0.0,0.0,-0.17016960206944712
1666091643968157412,0.0,0.0,0.0,0.0,0.0,-0.17558012275062956
1666091644012068102,-0.002132302208337933,0.0,0.0,0.0,0.0,-0.1609193570338772
1666091644012081510,0.002132302208337933,0.0,0.0,0.0,0.0,-0.15655603390389136
1666091644056226183,-0.006396906625013799,0.0,0.0,0.0,0.0,-0.15655603390389136
1666091644056268002,0.002132302208337933,0.0,0.0,0.0,0.0,-0.15463617172669758
1666091644104154119,-0.002132302208337933,0.0,0.0,0.0,0.0,-0.1478293876439197
1666091644104172933,-0.004264604416675866,0.0,0.0,0.0,0.0,-0.136659280431156
1666091644104199909,-0.002132302208337933,0.0,0.0,0.0,0.0,-0.15219271077390553
1666091644152436324,0.0,0.0,0.0,0.0,0.0,-0.1494001839707146
1666091644152491627,-0.002132302208337933,0.0,0.0,0.0,0.0,-0.14817845349431857
1666091644162918143,-0.002132302208337933,0.0,0.0,0.0,0.0,-0.1494001839707146
1666091644182985018,-0.002132302208337933,0.0,0.0,0.0,0.0,-0.1509709802975095
1666091644228139930,0.002132302208337933,0.0,0.0,0.0,0.0,-0.15969762655748115
1666091644228164984,0.0,0.0,0.0,0.0,0.0,-0.1605702911834783
1666091644272209878,-0.002132302208337933,0.0,0.0,0.0,0.0,-0.15498523757709648
1666091644272248958,-0.004264604416675866,0.0,0.0,0.0,0.0,-0.16196655458507378
1666091644316195353,0.002132302208337933,0.0,0.0,0.0,0.0,-0.16894787159305108
1666091644316219047,0.0,0.0,0.0,0.0,0.0,-0.17837264955382048
1666091644360204255,-0.004264604416675866,0.0,0.0,0.0,0.0,-0.1722639971718403
1666091644360240631,0.0,0.0,0.0,0.0,0.0,-0.170518667919846
1666091644408425706,-0.004264604416675866,0.0,0.0,0.0,0.0,-0.1790707812546182
1666091644408537779,0.0,0.0,0.0,0.0,0.0,-0.17872171540421936
1666091644408571736,0.0,0.0,0.0,0.0,0.0,-0.16964600329384882
1666091644456145125,-0.006396906625013799,0.0,0.0,0.0,0.0,-0.1610938899590766
1666091644456165039,0.002132302208337933,0.0,0.0,0.0,0.0,-0.16353735091186866
1666091644462694204,0.002132302208337933,0.0,0.0,0.0,0.0,-0.16126842288427604
1666091644482538805,0.0,0.0,0.0,0.0,0.0,-0.15673056682909078
1666091644524285153,-0.004264604416675866,0.0,0.0,0.0,0.0,-0.1551597705022959
1666091644524333038,0.002132302208337933,0.0,0.0,0.0,0.0,-0.1541125729510993
1666091644568097434,0.0,0.0,0.0,0.0,0.0,-0.15219271077390553
1666091644568114599,-0.002132302208337933,0.0,0.0,0.0,0.0,-0.15742869852988853
1666091644612210370,-0.004264604416675866,0.0,0.0,0.0,0.0,-0.16598081186466074
1666091644612238196,0.0,0.0,0.0,0.0,0.0,-0.170518667919846
1666091644656303408,0.0,0.0,0.0,0.0,0.0,-0.16667894356545848
1666091644656345970,-0.002132302208337933,0.0,0.0,0.0,0.0,-0.16720254234105678
1666091644700239308,0.002132302208337933,0.0,0.0,0.0,0.0,-0.1726130630222392
1666091644700268739,0.0,0.0,0.0,0.0,0.0,-0.1806415775814131
1666091644744081640,0.0,0.0,0.0,0.0,0.0,-0.16929693744344995
1666091644744104201,-0.002132302208337933,0.0,0.0,0.0,0.0,-0.17872171540421936
1666091644744219440,0.004264604416675866,0.0,0.0,0.0,0.0,-0.18011797880581482
1666091644788350439,-0.002132302208337933,0.0,0.0,0.0,0.0,-0.1858775653373961
1666091644788402227,-0.006396906625013799,0.0,0.0,0.0,0.0,-0.1839577031602023
1666091644803328607,-0.004264604416675866,0.0,0.0,0.0,0.0,-0.1881464933649887
1666091644822584594,0.004264604416675866,0.0,0.0,0.0,0.0,-0.1907644872429802
1666091644868135933,-0.002132302208337933,0.0,0.0,0.0,0.0,-0.1869247628885927
1666091644868147086,-0.004264604416675866,0.0,0.0,0.0,0.0,-0.18483036778619952
1666091644912222935,0.002132302208337933,0.0,0.0,0.0,0.0,-0.1839577031602023
1666091644912251387,0.0,0.0,0.0,0.0,0.0,-0.17697638615222502
1666091644956259129,0.008529208833351731,0.0,0.0,0.0,0.0,-0.17034413499464657
1666091644956282154,0.010661511041689664,0.0,0.0,0.0,0.0,-0.16964600329384882
1666091645000146878,0.006396906625013799,0.0,0.0,0.0,0.0,-0.1699950691442477
1666091645000184913,0.017058417666703463,0.0,0.0,0.0,0.0,-0.1668534764906579
1666091645044033989,0.021323022083379328,0.0,0.0,0.0,0.0,-0.15742869852988853
1666091645044042685,0.019190719875041395,0.0,0.0,0.0,0.0,-0.15795229730548682
1666091645044049975,0.025587626500055197,0.0,0.0,0.0,0.0,-0.15498523757709648
1666091645088994595,0.025587626500055197,0.0,0.0,0.0,0.0,-0.15358897417550102
1666091645089051653,0.03624913754174486,0.0,0.0,0.0,0.0,-0.1605702911834783
1666091645103295228,0.03838143975008279,0.0,0.0,0.0,0.0,-0.1754055898254301
1666091645122955017,0.05330755520844832,0.0,0.0,0.0,0.0,-0.19024088846738194
1666091645164425576,0.04904295079177246,0.0,0.0,0.0,0.0,-0.20036379812894903
1666091645164524396,0.05330755520844832,0.0,0.0,0.0,0.0,-0.19600047499896323
1666091645208163720,0.06396906625013798,0.0,0.0,0.0,0.0,-0.20193459445574394
1666091645208187327,0.06823367066681385,0.0,0.0,0.0,0.0,-0.2038544566329377
1666091645252386727,0.08102748391684146,0.0,0.0,0.0,0.0,-0.19809487010135637
1666091645252435228,0.07463057729182765,0.0,0.0,0.0,0.0,-0.2017600615305445
1666091645296096762,0.07676287950016558,0.0,0.0,0.0,0.0,-0.1947787445225672
1666091645296118417,0.08742439054185526,0.0,0.0,0.0,0.0,-0.1923352835697751
1666091645340043290,0.08955669275019319,0.0,0.0,0.0,0.0,-0.19844393595175525
1666091645340055572,0.09382129716686904,0.0,0.0,0.0,0.0,-0.18675022996339324
1666091645384108073,0.10021820379188286,0.0,0.0,0.0,0.0,-0.1733111947230369
1666091645384131052,0.10235050600022079,0.0,0.0,0.0,0.0,-0.14381513036433274
1666091645384137496,0.12154122587526218,0.0,0.0,0.0,0.0,-0.13648474750595657
1666091645428079766,0.11727662145858632,0.0,0.0,0.0,0.0,-0.14503686084072878
1666091645428095232,0.11940892366692425,0.0,0.0,0.0,0.0,-0.14241886696273728
1666091645442981455,0.13433503912528977,0.0,0.0,0.0,0.0,-0.14416419621473162
1666091645470144385,0.1300704347086139,0.0,0.0,0.0,0.0,-0.14486232791552936
1666091645508063784,0.13859964354196566,0.0,0.0,0.0,0.0,-0.154810704651897
1666091645508074819,0.13859964354196566,0.0,0.0,0.0,0.0,-0.1492256510455152
1666091645552586650,0.15139345679199323,0.0,0.0,0.0,0.0,-0.1478293876439197
1666091645552613828,0.14499655016697943,0.0,0.0,0.0,0.0,-0.14486232791552936
1666091645600097805,0.1556580612086691,0.0,0.0,0.0,0.0,-0.12042771838760874
1666091645600122773,0.16418727004202083,0.0,0.0,0.0,0.0,-0.12636183784438945
1666091645648050240,0.17271647887537256,0.0,0.0,0.0,0.0,-0.130201562198777
1666091645648062750,0.18551029212540016,0.0,0.0,0.0,0.0,-0.1165879940332212
1666091645648067003,0.17698108329204845,0.0,0.0,0.0,0.0,-0.11100294042683936
1666091645692152863,0.18124568770872432,0.0,0.0,0.0,0.0,-0.1165879940332212
1666091645692164867,0.19190719875041395,0.0,0.0,0.0,0.0,-0.1329940890019679
1666091645702622525,0.19190719875041395,0.0,0.0,0.0,0.0,-0.12077678423800761
1666091645724232610,0.18977489654207602,0.0,0.0,0.0,0.0,-0.12199851471440365
1666091645768043268,0.2004364075837657,0.0,0.0,0.0,0.0,-0.13543754995475998
1666091645768054613,0.20256870979210362,0.0,0.0,0.0,0.0,-0.11693705988362009
1666091645816109829,0.10661511041689664,0.0,0.0,0.0,0.0,-0.12374384396639797
1666091645816126537,0.03838143975008279,0.0,0.0,0.0,0.0,-0.11693705988362009
1666091645864130687,0.12580583029193804,0.0,0.0,0.0,0.0,-0.12391837689159739
1666091645864152968,0.17271647887537256,0.0,0.0,0.0,0.0,-0.11274826967883368
1666091645864198767,0.14286424795864153,0.0,0.0,0.0,0.0,-0.10716321607245181
1666091645912289633,0.09808590158354492,0.0,0.0,0.0,0.0,-0.0895353906273091
1666091645912332356,0.09595359937520698,0.0,0.0,0.0,0.0,-0.05916666164260777
1666091645923202766,0.12580583029193804,0.0,0.0,0.0,0.0,-0.034732052114687155
1666091645943833671,0.159922665625345,0.0,0.0,0.0,0.0,-0.02181661564992912
1666091645984711120,0.12793813250027597,0.0,0.0,0.0,0.0,-0.00017453292519943296
1666091646028155944,0.10661511041689664,0.0,0.0,0.0,0.0,-0.0006981317007977319
1666091646028189789,0.12367352808360012,0.0,0.0,0.0,0.0,-0.022863813201125717
1666091646028202709,0.1407319457503036,0.0,0.0,0.0,0.0,-0.04084070449666731
1666091646076064415,0.14286424795864153,0.0,0.0,0.0,0.0,-0.032114058236695664
1666091646076083591,0.1300704347086139,0.0,0.0,0.0,0.0,-0.028623399732707
1666091646085064811,0.14286424795864153,0.0,0.0,0.0,0.0,-0.07644542123735164
1666091646103932525,0.13433503912528977,0.0,0.0,0.0,0.0,-0.08779006137531478
1666091646144133309,0.159922665625345,0.0,0.0,0.0,0.0,-0.0736528944341607
1666091646144148690,0.1684518744586967,0.0,0.0,0.0,0.0,-0.06981317007977318
1666091646188077929,0.16418727004202083,0.0,0.0,0.0,0.0,-0.06963863715457375
1666091646188118930,0.1876425943337381,0.0,0.0,0.0,0.0,-0.06806784082777885
1666091646232085109,0.19190719875041395,0.0,0.0,0.0,0.0,-0.06370451769779302
1666091646232099981,0.18551029212540016,0.0,0.0,0.0,0.0,-0.04625122517784973
1666091646276160663,0.20470101200044158,0.0,0.0,0.0,0.0,-0.018500490071139894
1666091646276180399,0.2004364075837657,0.0,0.0,0.0,0.0,-0.023212879051524585
1666091646320175864,0.20896561641711744,0.0,0.0,0.0,0.0,-0.032812189937493394
1666091646320203037,0.20256870979210362,0.0,0.0,0.0,0.0,-0.030368728984701335
1666091646364262139,0.221759429667145,0.0,0.0,0.0,0.0,-0.02076941809873252
1666091646364294977,0.22389173187548297,0.0,0.0,0.0,0.0,-0.01658062789394613
1666091646364302048,0.2196271274588071,0.0,0.0,0.0,0.0,-0.013439035240356337
1666091646408087602,0.22389173187548297,0.0,0.0,0.0,0.0,-0.02076941809873252
1666091646408106756,0.23242094070883468,0.0,0.0,0.0,0.0,-0.02199114857512855
1666091646423348907,0.23455324291717264,0.0,0.0,0.0,0.0,-0.014486232791552934
1666091646443794286,0.24734705616720024,0.0,0.0,0.0,0.0,-0.023561944901923447
1666091646488080950,0.24521475395886227,0.0,0.0,0.0,0.0,-0.05375614096142535
1666091646488094446,0.253743962792214,0.0,0.0,0.0,0.0,-0.06492624817418907
1666091646536176355,0.2622731716255658,0.0,0.0,0.0,0.0,-0.06806784082777885
1666091646536201917,0.2729346826672554,0.0,0.0,0.0,0.0,-0.07819075048934597
1666091646580106924,0.2771992870839313,0.0,0.0,0.0,0.0,-0.08011061266653972
1666091646580129008,0.26653777604224166,0.0,0.0,0.0,0.0,-0.07871434926494426
1666091646624162173,0.2793315892922692,0.0,0.0,0.0,0.0,-0.06579891280018622
1666091646624199171,0.29425770475063473,0.0,0.0,0.0,0.0,-0.060388392119003806
1666091646624207245,0.2985223091673106,0.0,0.0,0.0,0.0,-0.05078908123303499
1666091646668060492,0.2985223091673106,0.0,0.0,0.0,0.0,-0.05061454830783556
1666091646668074428,0.29425770475063473,0.0,0.0,0.0,0.0,-0.048520153205442354
1666091646683115312,0.3113161224173382,0.0,0.0,0.0,0.0,-0.04485496177625426
1666091646704843617,0.3155807268340141,0.0,0.0,0.0,0.0,-0.02897246558310587
1666091646752073637,0.32837454008404166,0.0,0.0,0.0,0.0,-0.021118483949131385
1666091646752087563,0.33050684229237964,0.0,0.0,0.0,0.0,-0.026354471705114374
1666091646800920508,0.317713029042352,0.0,0.0,0.0,0.0,-0.03735004599267865
1666091646800949130,0.32837454008404166,0.0,0.0,0.0,0.0,-0.03159045946109736
1666091646848165525,0.3390360511257314,0.0,0.0,0.0,0.0,-0.016755160819145562
1666091646848182857,0.3539621665840969,0.0,0.0,0.0,0.0,-0.020420352248333655
1666091646848202409,0.3518298643757589,0.0,0.0,0.0,0.0,-0.041713369122664476
1666091646892083439,0.34969756216742104,0.0,0.0,0.0,0.0,-0.05375614096142535
1666091646892100389,0.3646236776257865,0.0,0.0,0.0,0.0,-0.041015237421866746
1666091646903212082,0.3752851886674762,0.0,0.0,0.0,0.0,-0.03368485456349056
1666091646926538632,0.37954979308415204,0.0,0.0,0.0,0.0,-0.039968039870670144
1666091646968192652,0.37741749087581417,0.0,0.0,0.0,0.0,-0.044505895925855396
1666091646968212778,0.37954979308415204,0.0,0.0,0.0,0.0,-0.041713369122664476
1666091647016507693,0.38594669970916584,0.0,0.0,0.0,0.0,-0.03665191429188092
1666091647016609232,0.4008728151675314,0.0,0.0,0.0,0.0,-0.028623399732707
1666091647060199296,0.41366662841755897,0.0,0.0,0.0,0.0,-0.033335788713091695
1666091647060224142,0.4008728151675314,0.0,0.0,0.0,0.0,-0.034557519189487726
1666091647108160174,0.4008728151675314,0.0,0.0,0.0,0.0,-0.031241393610698498
1666091647108186940,0.40940202400088316,0.0,0.0,0.0,0.0,-0.039095375244672985
1666091647108213648,0.4243281394592487,0.0,0.0,0.0,0.0,-0.04834562028024293
1666091647152131405,0.43712195270927623,0.0,0.0,0.0,0.0,-0.04468042885105484
1666091647152168891,0.4349896505009383,0.0,0.0,0.0,0.0,-0.03752457891787808
1666091647164108145,0.4307250460842625,0.0,0.0,0.0,0.0,-0.03682644721708035
1666091647183954410,0.445651161542628,0.0,0.0,0.0,0.0,-0.035953782591083186
1666091647225397314,0.4499157659593038,0.0,0.0,0.0,0.0,-0.03438298626428829
1666091647225441427,0.45844497479265556,0.0,0.0,0.0,0.0,-0.01884955592153876
1666091647268041829,0.45204806816764176,0.0,0.0,0.0,0.0,-0.016406094968746697
1666091647268055169,0.45418037037597975,0.0,0.0,0.0,0.0,-0.031415926535897934
1666091647312120915,0.4733710902510211,0.0,0.0,0.0,0.0,-0.02949606435870417
1666091647312137174,0.4733710902510211,0.0,0.0,0.0,0.0,-0.024609142453120045
1666091647356524147,0.4755033924593591,0.0,0.0,0.0,0.0,-0.022863813201125717
1666091647356596253,0.47976799687603494,0.0,0.0,0.0,0.0,-0.035255650890285456
1666091647400476692,0.48616490350104874,0.0,0.0,0.0,0.0,-0.039269908169872414
1666091647400539790,0.49895871675107634,0.0,0.0,0.0,0.0,-0.023561944901923447
1666091647444099369,0.49469411233440047,0.0,0.0,0.0,0.0,-0.018675022996339326
1666091647444117820,0.5138848322094418,0.0,0.0,0.0,0.0,-0.023736477827122886
1666091647444122918,0.5117525300011039,0.0,0.0,0.0,0.0,-0.0317649923862968
1666091647488097957,0.5160171344177797,0.0,0.0,0.0,0.0,-0.029670597283903602
1666091647488120532,0.5288109476678073,0.0,0.0,0.0,0.0,-0.041887902047863905
1666091647504947152,0.5288109476678073,0.0,0.0,0.0,0.0,-0.04642575810304917
1666091647524971145,0.5373401565011591,0.0,0.0,0.0,0.0,-0.03612831551628262
1666091647568393158,0.5309432498761453,0.0,0.0,0.0,0.0,-0.024260076602721177
1666091647568491236,0.5352078542928211,0.0,0.0,0.0,0.0,-0.030543261909900768
1666091647612163320,0.5480016675428488,0.0,0.0,0.0,0.0,-0.034033920413889425
1666091647612188741,0.5543985741678626,0.0,0.0,0.0,0.0,-0.034033920413889425
1666091647656139646,0.5607954807928763,0.0,0.0,0.0,0.0,-0.02949606435870417
1666091647656162872,0.5629277830012144,0.0,0.0,0.0,0.0,-0.03316125578789226
1666091647700442607,0.5607954807928763,0.0,0.0,0.0,0.0,-0.031415926535897934
1666091647700484606,0.5650600852095522,0.0,0.0,0.0,0.0,-0.027052603405912107
1666091647744204469,0.5650600852095522,0.0,0.0,0.0,0.0,-0.010821041362364843
1666091647744233729,0.5757215962512419,0.0,0.0,0.0,0.0,-0.017627825445142728
1666091647788097672,0.5778538984595799,0.0,0.0,0.0,0.0,-0.019547687622336492
1666091647788109543,0.5757215962512419,0.0,0.0,0.0,0.0,-0.016057029118347832
