%time,field.linear.x,field.linear.y,field.linear.z,field.angular.x,field.angular.y,field.angular.z
1666091638261233792,0.0,0.0,0.0,0.0,0.0,-1.2217304763960306
1666091638362351953,0.3575460612773895,0.0,0.0,0.0,0.0,-1.3962634015954642
1666091638425300422,0.36045441031455994,0.0,0.0,0.0,0.0,-1.3962634015954642
1666091638471367232,0.3603833317756653,0.0,0.0,0.0,0.0,-1.3962634015954642
1666091638563272980,0.2092798799276352,0.0,0.0,0.0,0.0,-1.3962634015954642
1666091638649569757,0.36577874422073364,0.0,0.0,0.0,0.0,-1.3962634015954642
1666091638703150758,0.35907429456710815,0.0,0.0,0.0,0.0,-1.3962634015954642
1666091638767673211,0.359176754951477,0.0,0.0,0.0,0.0,-1.3962634015954642
1666091638899705192,0.36032944917678833,0.0,0.0,0.0,0.0,-1.3962634015954642
1666091638991646107,0.35964426398277277,0.0,0.0,0.0,0.0,-1.3962634015954642
1666091639068092582,0.35857513546943665,0.0,0.0,0.0,0.0,-1.3962634015954642
1666091639177051161,0.36000972986221313,0.0,0.0,0.0,0.0,-1.2217304763960313
1666091639204228464,0.3590146601200103,0.0,0.0,0.0,0.0,-1.2217304763960313
1666091639294594253,0.3621513545513153,0.0,0.0,0.0,0.0,-1.2217304763960313
1666091639364476373,0.2186618447303772,0.0,0.0,0.0,0.0,-1.0471975511965983
1666091639413742923,0.36682945489883423,0.0,0.0,0.0,0.0,-1.0471975511965983
1666091639455377671,0.366331934928894,0.0,0.0,0.0,0.0,-1.0471975511965983
1666091639544007213,0.3688053786754608,0.0,0.0,0.0,0.0,-1.0471975511965983
1666091639629067678,0.0,0.0,0.0,0.0,0.0,-0.8208275269162214
1666091639705021847,0.0,0.0,0.0,0.0,0.0,-0.7721444526460852
1666091639837139088,0.0,0.0,0.0,0.0,0.0,-0.650908392085422
1666091639904682730,0.0,0.0,0.0,0.0,0.0,-0.5819312179334217
1666091639925956948,0.0,0.0,0.0,0.0,0.0,-0.5824204480247469
1666091640002372626,0.0,0.0,0.0,0.0,0.0,-0.5235987755982994
1666091640135600354,0.0,0.0,0.0,0.0,0.0,-0.3490658503988664
1666091640182713249,0.0,0.0,0.0,0.0,0.0,-0.33146626470741003
1666091640222628136,0.0,0.0,0.0,0.0,0.0,-0.2803684466707605
1666091640274818441,0.0,0.0,0.0,0.0,0.0,-0.2812255322292102
1666091640350192396,0.0,0.0,0.0,0.0,0.0,-0.23532838141283563
1666091640445147890,0.0,0.0,0.0,0.0,0.0,-0.17453292519943345
1666091640502325443,0.0,0.0,0.0,0.0,0.0,-0.17453292519943345
1666091640616767160,0.0,0.0,0.0,0.0,0.0,-4.996003610813204e-16
1666091640653790722,0.0,0.0,0.0,0.0,0.0,-4.996003610813204e-16
1666091640746688575,0.0,0.0,0.0,0.0,0.0,-4.996003610813204e-16
1666091640803735707,0.0,0.0,0.0,0.0,0.0,-4.996003610813204e-16
1666091640893142357,0.0,0.0,0.0,0.0,0.0,-4.996003610813204e-16
1666091640914124216,0.0,0.0,0.0,0.0,0.0,-4.996003610813204e-16
1666091641001444021,0.0,0.0,0.0,0.0,0.0,-4.996003610813204e-16
1666091641121904578,0.0,0.0,0.0,0.0,0.0,-4.996003610813204e-16
1666091641243347285,0.0,0.0,0.0,0.0,0.0,-4.996003610813204e-16
1666091641297726563,0.0,0.0,0.0,0.0,0.0,-4.996003610813204e-16
1666091641384778761,0.0,0.0,0.0,0.0,0.0,-4.996003610813204e-16
1666091641430212947,0.0,0.0,0.0,0.0,0.0,-4.996003610813204e-16
1666091641510209494,0.0,0.0,0.0,0.0,0.0,-4.996003610813204e-16
1666091641596918766,0.0,0.0,0.0,0.0,0.0,-4.996003610813204e-16
1666091641646094971,0.0,0.0,0.0,0.0,0.0,-4.996003610813204e-16
1666091641702659711,0.0,0.0,0.0,0.0,0.0,-0.17453292519943345
1666091641765226142,0.0,0.0,0.0,0.0,0.0,-0.17453292519943345
1666091641859652135,0.0,0.0,0.0,0.0,0.0,-0.17453292519943345
1666091641986387383,0.0,0.0,0.0,0.0,0.0,-0.17453292519943345
1666091642043255255,0.0,0.0,0.0,0.0,0.0,-0.17453292519943345
1666091642106596505,0.0,0.0,0.0,0.0,0.0,-0.22245306507708912
1666091642197059274,0.0,0.0,0.0,0.0,0.0,-0.2526026529779881
1666091642242661059,0.0,0.0,0.0,0.0,0.0,-0.2754101308630144
1666091642334660123,0.0,0.0,0.0,0.0,0.0,-0.31770002585364604
1666091642364728812,0.0,0.0,0.0,0.0,0.0,-0.3490658503988664
1666091642449015030,0.0,0.0,0.0,0.0,0.0,-0.3668051192539871
1666091642542203464,0.0,0.0,0.0,0.0,0.0,-0.40224476588978925
1666091642589118728,0.0,0.0,0.0,0.0,0.0,-0.4244173042420287
1666091642642288979,0.0,0.0,0.0,0.0,0.0,-0.4484439445554112
1666091642712852575,0.0,0.0,0.0,0.0,0.0,-0.4755912778996989
1666091642802321978,0.0,0.0,0.0,0.0,0.0,-0.5025500169386921
1666091642904565957,0.0,0.0,0.0,0.0,0.0,-0.5477812162628279
1666091642924615530,0.0,0.0,0.0,0.0,0.0,-0.5351269027470408
1666091643010527417,0.0,0.0,0.0,0.0,0.0,-0.5577828273341986
1666091643052890928,0.0,0.0,0.0,0.0,0.0,-0.5598905074295115
1666091643141461163,0.0,0.0,0.0,0.0,0.0,-0.5690775955306109
1666091643236464091,0.0,0.0,0.0,0.0,0.0,-0.5605943635000805
1666091643241975719,0.0,0.0,0.0,0.0,0.0,-0.5482339193782997
1666091643348972601,0.0,0.0,0.0,0.0,0.0,-0.5485291625959098
1666091643436960394,0.0,0.0,0.0,0.0,0.0,-0.540822211076833
1666091643530179937,0.0,0.0,0.0,0.0,0.0,-0.5405479344816397
1666091643563638192,0.0,0.0,0.0,0.0,0.0,-0.5315121407100719
1666091643649095108,0.0,0.0,0.0,0.0,0.0,-0.5365861790833504
1666091643698405109,0.0,0.0,0.0,0.0,0.0,-0.5272568904188212
1666091643788019310,0.0,0.0,0.0,0.0,0.0,-0.5235987755982994
1666091643832964272,0.0,0.0,0.0,0.0,0.0,-0.499001909181951
1666091643957848633,0.0,0.0,0.0,0.0,0.0,-0.4967545583141661
1666091644001863446,0.0,0.0,0.0,0.0,0.0,-0.48341096399408023
1666091644165448889,0.0,0.0,0.0,0.0,0.0,-0.48732090915787324
1666091644209555290,0.0,0.0,0.0,0.0,0.0,-0.4679170936705142
1666091644305088576,0.0,0.0,0.0,0.0,0.0,-0.47635659155939447
1666091644372513662,0.0,0.0,0.0,0.0,0.0,-0.4776136725813628
1666091644473319145,0.0,0.0,0.0,0.0,0.0,-0.48167415013307796
1666091644524238758,0.0,0.0,0.0,0.0,0.0,-0.4798058382643802
1666091644548381500,0.0,0.0,0.0,0.0,0.0,-0.4805867123326226
1666091644673435337,0.0,0.0,0.0,0.0,0.0,-0.4886047019998942
1666091644768082682,0.0,0.0,0.0,0.0,0.0,-0.4757780323985108
1666091644805492217,0.0,0.0,0.0,0.0,0.0,-0.47049098859193234
1666091644866059687,0.34131595492362976,0.0,0.0,0.0,0.0,-0.037473712116479874
1666091644976114191,0.4338703155517578,0.0,0.0,0.0,0.0,-0.15532366931438446
1666091645068912499,0.45849457383155817,0.0,0.0,0.0,0.0,-0.15769776701927185
1666091645144307738,0.44163960218429565,0.0,0.0,0.0,0.0,-0.0573810450732708
1666091645215430797,0.5432761907577515,0.0,0.0,0.0,0.0,-0.16976608335971832
1666091645232852563,0.542210042476654,0.0,0.0,0.0,0.0,-0.16972069442272186
1666091645370974358,0.5803036093711853,0.0,0.0,0.0,0.0,-0.17302711308002472
1666091645448740593,0.6161671876907349,0.0,0.0,0.0,0.0,-0.17805886268615723
1666091645492661973,0.6484907269477844,0.0,0.0,0.0,0.0,-0.18009497225284576
1666091645541428858,0.6747236847877501,0.0,0.0,0.0,0.0,-0.18282589316368103
1666091645747839887,0.7173221707344054,0.0,0.0,0.0,0.0,-0.18363793194293976
1666091645769734749,0.7405664920806885,0.0,0.0,0.0,0.0,-0.18509870767593384
1666091645880695861,0.7528737783432007,0.0,0.0,0.0,0.0,-0.18508584797382355
1666091645970044944,0.7202094197273253,0.0,0.0,0.0,0.0,-0.17453292519943345
1666091646093069169,0.7814892530441284,0.0,0.0,0.0,0.0,-0.3490658503988664
1666091646139716373,0.7808495759963988,0.0,0.0,0.0,0.0,-0.3490658503988664
1666091646225451987,0.7497857809066771,0.0,0.0,0.0,0.0,-0.3490658503988664
1666091646316809016,0.7999999999999999,0.0,0.0,0.0,0.0,-0.3490658503988664
1666091646347500992,0.7773392796516418,0.0,0.0,0.0,0.0,-0.3490658503988664
1666091646475652946,0.7999999999999999,0.0,0.0,0.0,0.0,-0.3490658503988664
1666091646552936698,0.7981089949607849,0.0,0.0,0.0,0.0,-0.3490658503988664
1666091646673823516,0.7999999999999999,0.0,0.0,0.0,0.0,-0.3490658503988664
1666091646686709898,0.7999999999999999,0.0,0.0,0.0,0.0,-0.3490658503988664
1666091646757554385,0.7999999999999999,0.0,0.0,0.0,0.0,-0.3490658503988664
1666091646894950640,0.7999999999999999,0.0,0.0,0.0,0.0,-0.3490658503988664
1666091646944975020,0.7999999999999999,0.0,0.0,0.0,0.0,-0.3490658503988664
1666091646987669942,0.7999999999999999,0.0,0.0,0.0,0.0,-0.3490658503988664
1666091647107119275,0.7999999999999999,0.0,0.0,0.0,0.0,-0.3490658503988664
1666091647196020564,0.7999999999999999,0.0,0.0,0.0,0.0,-0.3490658503988664
1666091647265530769,0.7999999999999999,0.0,0.0,0.0,0.0,-0.3490658503988664
1666091647334198851,0.7999999999999999,0.0,0.0,0.0,0.0,-0.3490658503988664
1666091647376498512,0.7999999999999999,0.0,0.0,0.0,0.0,-0.3490658503988664
1666091647514285900,0.7999999999999999,0.0,0.0,0.0,0.0,-0.3490658503988664
1666091647593765700,0.7999999999999999,0.0,0.0,0.0,0.0,-0.3490658503988664
1666091647681191106,0.7999999999999999,0.0,0.0,0.0,0.0,-0.3490658503988664
1666091647711566979,0.7999999999999999,0.0,0.0,0.0,0.0,-0.5235987755982994
1666091647812892436,0.7999999999999999,0.0,0.0,0.0,0.0,-0.3490658503988664
1666091647845430542,0.7999999999999999,0.0,0.0,0.0,0.0,-0.3490658503988664
1666091647939834991,0.7999999999999999,0.0,0.0,0.0,0.0,-0.5235987755982994
1666091648009972826,0.7999999999999999,0.0,0.0,0.0,0.0,-0.3490658503988664
1666091648097792210,0.7999999999999999,0.0,0.0,0.0,0.0,-0.3490658503988664
1666091648229457058,0.7999999999999999,0.0,0.0,0.0,0.0,-0.5235987755982994
1666091648317817040,0.7684208154678345,0.0,0.0,0.0,0.0,-0.6981317007977323
1666091648371649839,0.7453833222389221,0.0,0.0,0.0,0.0,-0.6981317007977323
1666091648392309104,0.7455254793167114,0.0,0.0,0.0,0.0,-0.6981317007977323
1666091648479464871,0.7223145961761475,0.0,0.0,0.0,0.0,-0.6981317007977323
1666091648571452216,0.6918315887451172,0.0,0.0,0.0,0.0,-0.6981317007977323
1666091648652349946,0.6701183319091797,0.0,0.0,0.0,0.0,-0.6981317007977323
1666091648786805458,0.6495141386985779,0.0,0.0,0.0,0.0,-0.6981317007977323
1666091648831693737,0.6280816793441772,0.0,0.0,0.0,0.0,-0.6981317007977323
1666091648915326724,0.6092187762260437,0.0,0.0,0.0,0.0,-0.6981317007977323
1666091648952589711,0.5857717990875244,0.0,0.0,0.0,0.0,-0.8726646259971653
1666091649035712000,0.5650289654731749,0.0,0.0,0.0,0.0,-0.8726646259971653
1666091649124506376,0.5459127426147461,0.0,0.0,0.0,0.0,-0.8726646259971653
1666091649215887678,0.5279016494750977,0.0,0.0,0.0,0.0,-0.8726646259971653
1666091649304982212,0.49059066176414484,0.0,0.0,0.0,0.0,-0.8726646259971653
1666091649311037157,0.49137249588966364,0.0,0.0,0.0,0.0,-0.8726646259971653
1666091649416352261,0.47476893663406367,0.0,0.0,0.0,0.0,-0.6981317007977323
1666091649461807373,0.46030730009078974,0.0,0.0,0.0,0.0,-0.6981317007977323
1666091649548078453,0.3651479184627533,0.0,0.0,0.0,0.0,-0.6981317007977323
1666091649634546978,0.3553600609302521,0.0,0.0,0.0,0.0,-0.6981317007977323
1666091649710524326,0.4319671094417572,0.0,0.0,0.0,0.0,-0.5235987755982994
1666091649805215841,0.4268712103366852,0.0,0.0,0.0,0.0,-0.5235987755982994
1666091649844170591,0.42355212569236755,0.0,0.0,0.0,0.0,-0.5235987755982994
1666091649932493046,0.4205594360828399,0.0,0.0,0.0,0.0,-0.3490658503988664
1666091649988717202,0.42073825001716614,0.0,0.0,0.0,0.0,-0.3490658503988664
1666091650095008981,0.4153672158718109,0.0,0.0,0.0,0.0,-0.17453292519943345
1666091650143444693,0.4151539802551269,0.0,0.0,0.0,0.0,-0.17453292519943345
1666091650187525477,0.4129003882408142,0.0,0.0,0.0,0.0,-0.08403856307268143
1666091650275742326,0.4082684814929962,0.0,0.0,0.0,0.0,-0.07070934772491455
1666091650356506086,0.40323856472969055,0.0,0.0,0.0,0.0,-4.996003610813204e-16
1666091650490493995,0.40549802780151367,0.0,0.0,0.0,0.0,-0.041676148772239685
1666091650541664866,0.4056401848793029,0.0,0.0,0.0,0.0,-0.041798319667577744
1666091650568407839,0.4005767107009887,0.0,0.0,0.0,0.0,-0.0340665802359581
1666091650660443982,0.3937773108482361,0.0,0.0,0.0,0.0,-0.027368895709514618
1666091650708094831,0.3826044499874115,0.0,0.0,0.0,0.0,-0.02269667387008667
1666091650795492954,0.3712801039218902,0.0,0.0,0.0,0.0,-0.017796149477362633
1666091650830055481,0.36252501606941223,0.0,0.0,0.0,0.0,-0.013347475789487362
1666091650915115069,0.0,0.0,0.0,0.0,0.0,0.269102570022552
1666091651001817274,0.0,0.0,0.0,0.0,0.0,0.28878397295659575
1666091651049274410,0.0,0.0,0.0,0.0,0.0,0.30308577515910917
1666091651126268507,0.0,0.0,0.0,0.0,0.0,0.32412472714574475
1666091651169609953,0.0,0.0,0.0,0.0,0.0,0.3490658503988654
1666091651260840179,0.0,0.0,0.0,0.0,0.0,0.3609611745116924
1666091651349814598,0.0,0.0,0.0,0.0,0.0,0.37315702767057646
1666091651407368379,0.0,0.0,0.0,0.0,0.0,0.3816128687040924
1666091651471124302,0.0,0.0,0.0,0.0,0.0,0.3911914593495654
1666091651557888192,0.0,0.0,0.0,0.0,0.0,0.4006907365672384
1666091651645077106,0.0,0.0,0.0,0.0,0.0,0.40292000079333157
1666091651690342597,0.0,0.0,0.0,0.0,0.0,0.396945229590772
1666091651737237918,0.0,0.0,0.0,0.0,0.0,0.398191190196531
1666091651809880390,0.0,0.0,0.0,0.0,0.0,0.40157537172522323
1666091651857358475,0.0,0.0,0.0,0.0,0.0,0.39464086031416534
1666091651945779029,0.0,0.0,0.0,0.0,0.0,0.39762562341171037
1666091651989519684,0.0,0.0,0.0,0.0,0.0,0.38525664323085185
1666091652067783863,0.0,0.0,0.0,0.0,0.0,0.38600269941322385
1666091652179774427,0.424380898475647,0.0,0.0,0.0,0.0,0.13671478629112244
1666091652204487636,0.424380898475647,0.0,0.0,0.0,0.0,0.1368858367204666
1666091652290356035,0.43093669414520264,0.0,0.0,0.0,0.0,0.1374746710062027
1666091652370911175,0.4472053349018097,0.0,0.0,0.0,0.0,0.14050723612308502
1666091652427341030,0.3955909311771392,0.0,0.0,0.0,0.0,0.02752120979130268
1666091652457048920,0.39516448974609375,0.0,0.0,0.0,0.0,0.027399035170674324
1666091652593489753,0.4023337960243225,0.0,0.0,0.0,0.0,0.031105883419513702
1666091652650250897,0.4068698585033417,0.0,0.0,0.0,0.0,0.03396439552307129
1666091652754191274,0.41917601227760315,0.0,0.0,0.0,0.0,0.03752660006284714
1666091652887661260,0.4380027949810028,0.0,0.0,0.0,0.0,0.04288291931152344
1666091652932425081,0.43793171644210815,0.0,0.0,0.0,0.0,0.042453572154045105
1666091652975350109,0.4456799328327179,0.0,0.0,0.0,0.0,0.04355859383940697
1666091653054741761,0.4505248963832855,0.0,0.0,0.0,0.0,0.04247882217168808
1666091653142225544,0.4566012322902679,0.0,0.0,0.0,0.0,0.04207305237650871
1666091653231268021,0.5163496136665344,0.0,0.0,0.0,0.0,0.14933432638645172
1666091653275000324,0.45594796538352966,0.0,0.0,0.0,0.0,0.042948104441165924
1666091653443201602,0.4602327048778534,0.0,0.0,0.0,0.0,0.046067655086517334
1666091653492797450,0.46343371272087097,0.0,0.0,0.0,0.0,0.04949105530977249
1666091653613117595,0.47217315435409546,0.0,0.0,0.0,0.0,0.05541931837797165
1666091653654808168,0.48478785157203674,0.0,0.0,0.0,0.0,0.06891027837991714
1666091653721344456,0.5552165508270264,0.0,0.0,0.0,0.0,0.17744246125221252
1666091653744079753,0.5542925596237183,0.0,0.0,0.0,0.0,0.1773272454738617
1666091653874319557,0.5574346780776978,0.0,0.0,0.0,0.0,0.18480421602725983
1666091653956271745,0.4862807095050812,0.0,0.0,0.0,0.0,0.09520744532346725
1666091654047877288,0.47633400559425354,0.0,0.0,0.0,0.0,0.10128580033779144
1666091654096248784,0.46384450793266296,0.0,0.0,0.0,0.0,0.10308834165334702
1666091654218506665,0.4501574635505676,0.0,0.0,0.0,0.0,0.1128532662987709
1666091654255730923,0.43593877553939814,0.0,0.0,0.0,0.0,0.11641734093427658
1666091654313835479,0.4169272780418396,0.0,0.0,0.0,0.0,0.11968430131673813
1666091654359629988,0.41792237758636475,0.0,0.0,0.0,0.0,0.11967732012271881
1666091654448394304,0.3956221640110016,0.0,0.0,0.0,0.0,0.12052962929010391
1666091654514064926,0.3842866122722626,0.0,0.0,0.0,0.0,0.12351959198713303
1666091654555436855,0.367997258901596,0.0,0.0,0.0,0.0,0.8726646259971643
1666091654653212649,0.35180792212486267,0.0,0.0,0.0,0.0,0.8726646259971643
1666091654732094661,0.3343147933483124,0.0,0.0,0.0,0.0,0.8726646259971643
1666091654815740220,0.43184003233909607,0.0,0.0,0.0,0.0,0.8726646259971643
1666091654946686631,0.3131508231163025,0.0,0.0,0.0,0.0,0.8726646259971643
1666091655038699804,0.27983495593070984,0.0,0.0,0.0,0.0,0.8726646259971643
1666091655055202762,0.2831755578517913,0.0,0.0,0.0,0.0,0.8726646259971643
1666091655111829020,0.28141704201698303,0.0,0.0,0.0,0.0,0.8726646259971643
1666091655205597669,0.0,0.0,0.0,0.0,0.0,0.7253086005415782
1666091655248964465,0.0,0.0,0.0,0.0,0.0,0.6763729277805327
1666091655308245589,0.0,0.0,0.0,0.0,0.0,0.6272819771864948
1666091655457321805,0.0,0.0,0.0,0.0,0.0,0.628766115991173
1666091655548059672,0.0,0.0,0.0,0.0,0.0,0.5139789602108805
1666091655592217877,0.0,0.0,0.0,0.0,0.0,0.4453314538661242
1666091655667414515,0.0,0.0,0.0,0.0,0.0,0.3806419171376512
1666091655800842823,0.0,0.0,0.0,0.0,0.0,0.33761560099751664
1666091655894099474,0.0,0.0,0.0,0.0,0.0,0.25641777426200413
1666091655941316644,0.0,0.0,0.0,0.0,0.0,0.17453292519943245
1666091656013519466,0.0,0.0,0.0,0.0,0.0,-4.996003610813204e-16
1666091656109415807,0.0,0.0,0.0,0.0,0.0,-4.996003610813204e-16
1666091656153068084,0.0,0.0,0.0,0.0,0.0,-4.996003610813204e-16
1666091656283524474,0.43725094199180603,0.0,0.0,0.0,0.0,-0.17453292519943345
1666091656371597188,0.47359028458595276,0.0,0.0,0.0,0.0,-0.17453292519943345
1666091656420660130,0.5122948288917542,0.0,0.0,0.0,0.0,-0.3490658503988664
1666091656459075401,0.5558086633682251,0.0,0.0,0.0,0.0,-0.3490658503988664
1666091656533404521,0.5513022541999817,0.0,0.0,0.0,0.0,-0.3490658503988664
1666091656630093396,0.6251741051673889,0.0,0.0,0.0,0.0,-0.3490658503988664
1666091656718568249,0.652023434638977,0.0,0.0,0.0,0.0,-0.3490658503988664
1666091656766791351,0.6750997304916382,0.0,0.0,0.0,0.0,-0.3490658503988664
1666091656836634873,0.693497061729431,0.0,0.0,0.0,0.0,-0.3490658503988664
1666091656925310391,0.708780288696289,0.0,0.0,0.0,0.0,-0.3490658503988664
1666091657018984979,0.7423517107963562,0.0,0.0,0.0,0.0,-0.17453292519943345
1666091657081010777,0.7507469654083252,0.0,0.0,0.0,0.0,-0.17453292519943345
1666091657091480680,0.7504626512527465,0.0,0.0,0.0,0.0,-0.17453292519943345
1666091657180577864,0.7589102983474731,0.0,0.0,0.0,0.0,-0.17449073493480682
1666091657228819208,0.7209368944168091,0.0,0.0,0.0,0.0,-0.17453292519943345
1666091657296998618,0.7180811166763305,0.0,0.0,0.0,0.0,-0.09674520045518875
1666091657383660116,0.7136943340301513,0.0,0.0,0.0,0.0,-0.1005421057343483
1666091657471688026,0.7080628871917725,0.0,0.0,0.0,0.0,-0.10385057330131531
1666091657562236722,0.7486401796340941,0.0,0.0,0.0,0.0,-0.19261302053928375
1666091657682124600,0.7370130419731139,0.0,0.0,0.0,0.0,-0.19631116092205048
1666091657779494065,0.7295974493026733,0.0,0.0,0.0,0.0,-0.19753170013427734
1666091657813039019,0.7284602522850037,0.0,0.0,0.0,0.0,-0.19754217565059662
1666091657899806859,0.6724168658256531,0.0,0.0,0.0,0.0,-0.11187885701656342
1666091657930446306,0.717462956905365,0.0,0.0,0.0,0.0,-0.19933173060417175
1666091658018911569,0.6633399724960327,0.0,0.0,0.0,0.0,-0.110768161714077
1666091658065934284,0.7079912424087524,0.0,0.0,0.0,0.0,-0.19942787289619446
1666091658137431639,0.703843355178833,0.0,0.0,0.0,0.0,-0.19894474744796753
1666091658180369440,0.6429727077484131,0.0,0.0,0.0,0.0,-0.11126215755939484
1666091658314905902,0.6361643075942993,0.0,0.0,0.0,0.0,-0.1127849891781807
1666091658360276456,0.6826604604721069,0.0,0.0,0.0,0.0,-0.20228956639766693
1666091658413896446,0.6724961996078491,0.0,0.0,0.0,0.0,-0.20380976796150208
1666091658480065863,0.6591311693191527,0.0,0.0,0.0,0.0,-0.20610935986042023
1666091658618109556,0.6391881108283997,0.0,0.0,0.0,0.0,-0.21596810221672058
1666091658676497162,0.6243413090705872,0.0,0.0,0.0,0.0,-0.22187906503677368
1666091658679092657,0.6241991519927979,0.0,0.0,0.0,0.0,-0.2219523936510086
1666091658780859065,0.6085647940635681,0.0,0.0,0.0,0.0,-0.22513826191425323
1666091658829134699,0.5936899185180663,0.0,0.0,0.0,0.0,-0.3490658503988664
1666091658921046543,0.5818461179733276,0.0,0.0,0.0,0.0,-0.5235987755982994
1666091658998125899,0.5665887594223022,0.0,0.0,0.0,0.0,-0.6981317007977323
1666091659092159001,0.5465351939201355,0.0,0.0,0.0,0.0,-0.6981317007977323
1666091659184624289,0.502695620059967,0.0,0.0,0.0,0.0,-0.8726646259971653
1666091659284867325,0.48024651408195496,0.0,0.0,0.0,0.0,-1.0471975511965983
1666091659303422233,0.48102837800979614,0.0,0.0,0.0,0.0,-1.0471975511965983
1666091659395941334,0.45686182379722595,0.0,0.0,0.0,0.0,-1.0471975511965983
1666091659481959906,0.4219175279140472,0.0,0.0,0.0,0.0,-1.0471975511965983
1666091659502959632,0.4222018122673034,0.0,0.0,0.0,0.0,-1.0471975511965983
1666091659599776251,0.41118231415748596,0.0,0.0,0.0,0.0,-1.0471975511965983
1666091659644715226,0.4030027389526367,0.0,0.0,0.0,0.0,-1.0471975511965983
1666091659739931008,0.3944476842880249,0.0,0.0,0.0,0.0,-1.0471975511965983
1666091659784607834,0.3891677260398865,0.0,0.0,0.0,0.0,-1.0471975511965983
1666091659857868408,0.38675212860107416,0.0,0.0,0.0,0.0,-1.0471975511965983
1666091659944408437,0.26107743382453913,0.0,0.0,0.0,0.0,-0.8726646259971653
1666091659988129445,0.384976178407669,0.0,0.0,0.0,0.0,-0.8726646259971653
1666091660079402352,0.38783630728721613,0.0,0.0,0.0,0.0,-0.8726646259971653
1666091660131377411,0.39323166012763977,0.0,0.0,0.0,0.0,-0.8726646259971653
1666091660188210943,0.0,0.0,0.0,0.0,0.0,-0.5880537014519459
1666091660321903037,0.0,0.0,0.0,0.0,0.0,-0.5330596212477209
1666091660371706719,0.0,0.0,0.0,0.0,0.0,-0.48324711125337927
1666091660412966953,0.0,0.0,0.0,0.0,0.0,-0.48322799525882415
1666091660534219541,0.0,0.0,0.0,0.0,0.0,-0.3922991883532567
1666091660584606348,0.0,0.0,0.0,0.0,0.0,-0.3490658503988664
1666091660625027876,0.0,0.0,0.0,0.0,0.0,-0.3490658503988664
1666091660713498727,0.0,0.0,0.0,0.0,0.0,-0.2924887140914749
1666091660758052830,0.0,0.0,0.0,0.0,0.0,-0.25074867297042347
1666091660891264656,0.4225408434867859,0.0,0.0,0.0,0.0,-0.17453292519943345
1666091661030727764,0.44533094763755793,0.0,0.0,0.0,0.0,-0.17453292519943345
1666091661059918260,0.4362753927707672,0.0,0.0,0.0,0.0,-0.17453292519943345
1666091661150300595,0.4505645036697387,0.0,0.0,0.0,0.0,-0.17453292519943345
1666091661192349446,0.44971162080764765,0.0,0.0,0.0,0.0,-0.17453292519943345
1666091661208029326,0.48203685879707336,0.0,0.0,0.0,0.0,-0.08976955711841583
1666091661276591623,0.4906874597072601,0.0,0.0,0.0,0.0,-0.08876156061887741
1666091661296756248,0.49075853824615473,0.0,0.0,0.0,0.0,-0.08854515105485916
1666091661360388454,0.5088761448860168,0.0,0.0,0.0,0.0,-0.08528641611337662
1666091661461109173,0.5194200873374939,0.0,0.0,0.0,0.0,-0.08258961886167526
1666091661500449200,0.5190646648406982,0.0,0.0,0.0,0.0,-0.08295614272356033
1666091661573226270,0.5219317674636841,0.0,0.0,0.0,0.0,0.03113764338195324
1666091661664181653,0.5493161082267761,0.0,0.0,0.0,0.0,-0.07566241919994354
1666091661754768905,0.5565710067749023,0.0,0.0,0.0,0.0,0.03604641184210777
1666091661853485717,0.5829699039459229,0.0,0.0,0.0,0.0,-0.06759599596261978
1666091661988108443,0.6206001043319702,0.0,0.0,0.0,0.0,-0.06434129178524017
1666091662002233070,0.6394569277763367,0.0,0.0,0.0,0.0,0.03521709889173508
1666091662127584738,0.6676114797592163,0.0,0.0,0.0,0.0,-0.06688441336154938
1666091662142027158,0.6668297052383423,0.0,0.0,0.0,0.0,-0.06701706349849701
1666091662227790077,0.7048583626747131,0.0,0.0,0.0,0.0,-0.07250680774450302
1666091662259877070,0.7040764689445496,0.0,0.0,0.0,0.0,-0.07221009582281113
1666091662352307114,0.7115234136581421,0.0,0.0,0.0,0.0,-0.07586304843425751
1666091662443729458,0.7153803110122681,0.0,0.0,0.0,0.0,-0.07986688613891602
1666091662603113695,0.7156260013580322,0.0,0.0,0.0,0.0,-0.08540337532758713
1666091662691742427,0.7118620276451111,0.0,0.0,0.0,0.0,-0.09334053844213486
1666091662750990296,0.7203218340873718,0.0,0.0,0.0,0.0,-0.09545085579156876
1666091662858769312,0.7166769504547119,0.0,0.0,0.0,0.0,-0.09893403202295303
1666091662994817066,0.6970231533050537,0.0,0.0,0.0,0.0,-0.10568154603242874
1666091663064671090,0.6792172193527222,0.0,0.0,0.0,0.0,-4.996003610813204e-16
1666091663200565784,0.6166956424713135,0.0,0.0,0.0,0.0,-0.009545013308525085
1666091663245694200,0.6170510649681091,0.0,0.0,0.0,0.0,-0.009901060722768307
1666091663360801311,0.6153492331504822,0.0,0.0,0.0,0.0,-0.10782067477703094
1666091663404002103,0.5863266587257385,0.0,0.0,0.0,0.0,-0.10580191016197205
1666091663490428412,0.5570469498634338,0.0,0.0,0.0,0.0,-0.10409516841173172
1666091663595120540,0.5354391932487488,0.0,0.0,0.0,0.0,-0.10390960425138474
1666091663662418707,0.4800495207309723,0.0,0.0,0.0,0.0,0.006296087987720966
1666091663755808790,0.48376792669296265,0.0,0.0,0.0,0.0,-0.10338399559259415
1666091663815868911,0.45997291803359985,0.0,0.0,0.0,0.0,-0.1032291129231453
1666091663880978659,0.4329310655593872,0.0,0.0,0.0,0.0,-0.10175632685422897
1666091664060129636,0.37542954087257385,0.0,0.0,0.0,0.0,0.021630369126796722
1666091664112049494,0.0,0.0,0.0,0.0,0.0,-0.17453292519943345
1666091664217645843,0.0,0.0,0.0,0.0,0.0,-0.17453292519943345
1666091664308875482,0.0,0.0,0.0,0.0,0.0,-0.17453292519943345
1666091664401267933,0.0,0.0,0.0,0.0,0.0,-0.17453292519943345
1666091664432810703,0.0,0.0,0.0,0.0,0.0,-0.2150381196929057
1666091664518015236,0.0,0.0,0.0,0.0,0.0,-0.17453292519943345
1666091664573340536,0.0,0.0,0.0,0.0,0.0,-0.21351831516138778
1666091664726646621,0.0,0.0,0.0,0.0,0.0,-0.17453292519943345
1666091664811244265,0.0,0.0,0.0,0.0,0.0,-0.17453292519943345
1666091664816855384,0.0,0.0,0.0,0.0,0.0,-0.17453292519943345
1666091664872889378,0.0,0.0,0.0,0.0,0.0,-0.17453292519943345
1666091664983180968,0.4206685721874237,0.0,0.0,0.0,0.0,-0.17453292519943345
1666091665037716691,0.4189118444919586,0.0,0.0,0.0,0.0,-0.08787813037633896
1666091665096487573,0.4400634467601776,0.0,0.0,0.0,0.0,-0.07983504980802536
1666091665142078121,0.45361173152923584,0.0,0.0,0.0,0.0,-4.996003610813204e-16
1666091665194971322,0.4805133044719696,0.0,0.0,0.0,0.0,-0.06975012272596359
1666091665263467183,0.5040406584739685,0.0,0.0,0.0,0.0,-4.996003610813204e-16
1666091665353177703,0.52130526304245,0.0,0.0,0.0,0.0,-4.996003610813204e-16
1666091665438572831,0.5330651998519897,0.0,0.0,0.0,0.0,0.06087475270032883
1666091665498733902,0.5370027422904968,0.0,0.0,0.0,0.0,-4.996003610813204e-16
1666091665613395887,0.5534927845001221,0.0,0.0,0.0,0.0,0.17453292519943245
1666091665658037253,0.5527819991111755,0.0,0.0,0.0,0.0,0.17453292519943245
1666091665703125952,0.579760193824768,0.0,0.0,0.0,0.0,0.17453292519943245
1666091665774737811,0.5705858469009399,0.0,0.0,0.0,0.0,0.17453292519943245
1666091665871929371,0.5788437128067017,0.0,0.0,0.0,0.0,0.3490658503988654
1666091665919570282,0.5788437128067017,0.0,0.0,0.0,0.0,0.3490658503988654
1666091665964000226,0.5788552165031432,0.0,0.0,0.0,0.0,0.3490658503988654
1666091666084078374,0.6197608709335327,0.0,0.0,0.0,0.0,0.3490658503988654
1666091666176454394,0.5816499590873718,0.0,0.0,0.0,0.0,0.3490658503988654
1666091666257324679,0.6236695647239685,0.0,0.0,0.0,0.0,0.5235987755982984
1666091666441741298,0.5736187100410461,0.0,0.0,0.0,0.0,0.5235987755982984
1666091666504465756,0.5761470198631287,0.0,0.0,0.0,0.0,0.5235987755982984
1666091666517561805,0.5756494998931885,0.0,0.0,0.0,0.0,0.5235987755982984
1666091666559858281,0.6332083344459534,0.0,0.0,0.0,0.0,0.5235987755982984
1666091666697925168,0.58953458070755,0.0,0.0,0.0,0.0,0.5235987755982984
1666091666787348669,0.5892468690872192,0.0,0.0,0.0,0.0,0.5235987755982984
1666091666795040519,0.5883939862251281,0.0,0.0,0.0,0.0,0.5235987755982984
1666091666903644942,0.5736807584762573,0.0,0.0,0.0,0.0,0.5235987755982984
1666091667001342414,0.5608355402946472,0.0,0.0,0.0,0.0,0.6981317007977313
1666091667042971261,0.5492468476295471,0.0,0.0,0.0,0.0,0.6981317007977313
1666091667170417022,0.5851694941520691,0.0,0.0,0.0,0.0,0.6981317007977313
1666091667199730866,0.5860224366188048,0.0,0.0,0.0,0.0,0.6981317007977313
1666091667257258628,0.4991278350353241,0.0,0.0,0.0,0.0,0.6981317007977313
1666091667292046130,0.49884352087974543,0.0,0.0,0.0,0.0,0.6981317007977313
1666091667381060379,0.48362916707992554,0.0,0.0,0.0,0.0,0.6981317007977313
1666091667437121253,0.4474830627441406,0.0,0.0,0.0,0.0,0.6981317007977313
1666091667497541628,0.4297926127910614,0.0,0.0,0.0,0.0,0.8726646259971643
1666091667549596020,0.42908185720443726,0.0,0.0,0.0,0.0,0.8726646259971643
1666091667639120507,0.4128471612930298,0.0,0.0,0.0,0.0,0.8726646259971643
1666091667686745474,0.39842015504837036,0.0,0.0,0.0,0.0,0.8726646259971643
1666091667803402618,0.48642095923423767,0.0,0.0,0.0,0.0,0.8726646259971643
1666091667893151053,0.3593176603317261,0.0,0.0,0.0,0.0,0.8726646259971643
1666091667952681315,0.4585639238357544,0.0,0.0,0.0,0.0,1.0471975511965972
1666091667982682415,0.4600565731525421,0.0,0.0,0.0,0.0,1.0471975511965972
1666091668099619125,0.3423774540424347,0.0,0.0,0.0,0.0,0.8726646259971643
1666091668191514360,0.3355615437030792,0.0,0.0,0.0,0.0,0.8726646259971643
1666091668324747991,0.3306261897087097,0.0,0.0,0.0,0.0,0.8726646259971643
1666091668341208543,0.324919730424881,0.0,0.0,0.0,0.0,0.8726646259971643
1666091668447982719,0.33094215393066406,0.0,0.0,0.0,0.0,0.8726646259971643
1666091668533112423,0.441910833120346,0.0,0.0,0.0,0.0,0.8726646259971643
1666091668621086489,0.3400936424732208,0.0,0.0,0.0,0.0,0.8726646259971643
1666091668695171329,0.4490911662578583,0.0,0.0,0.0,0.0,0.8726646259971643
1666091668785758527,0.34972700476646423,0.0,0.0,0.0,0.0,0.8726646259971643
1666091668880994681,0.35800260305404663,0.0,0.0,0.0,0.0,0.6981317007977313
1666091669005621465,0.37026616930961603,0.0,0.0,0.0,0.0,0.6981317007977313
1666091669073127978,0.3749927580356598,0.0,0.0,0.0,0.0,0.6981317007977313
1666091669148332065,0.37747126817703247,0.0,0.0,0.0,0.0,0.6981317007977313
1666091669156977754,0.37747126817703247,0.0,0.0,0.0,0.0,0.6981317007977313
1666091669312402213,0.379146933555603,0.0,0.0,0.0,0.0,0.6981317007977313
1666091669402799833,0.3898003399372101,0.0,0.0,0.0,0.0,0.6981317007977313
1666091669448810947,0.39735138416290283,0.0,0.0,0.0,0.0,0.6981317007977313
1666091669613280470,0.39944520592689514,0.0,0.0,0.0,0.0,0.6981317007977313
1666091669698996386,0.4720766246318817,0.0,0.0,0.0,0.0,0.6981317007977313
1666091669742273198,0.47200554609298706,0.0,0.0,0.0,0.0,0.6981317007977313
1666091669818948125,0.3873805105686188,0.0,0.0,0.0,0.0,0.5235987755982984
1666091669888018920,0.38087064027786255,0.0,0.0,0.0,0.0,0.5235987755982984
1666091669997947895,0.3765140771865844,0.0,0.0,0.0,0.0,0.5235987755982984
1666091670116350732,0.4375867247581482,0.0,0.0,0.0,0.0,0.5235987755982984
1666091670164297044,0.36250635981559753,0.0,0.0,0.0,0.0,0.5235987755982984
1666091670259566153,0.42319533228874207,0.0,0.0,0.0,0.0,0.5235987755982984
1666091670320158045,0.35639292001724243,0.0,0.0,0.0,0.0,0.5235987755982984
1666091670422494189,0.3497806787490844,0.0,0.0,0.0,0.0,0.5235987755982984
1666091670512614483,0.3368421196937561,0.0,0.0,0.0,0.0,0.5235987755982984
1666091670561575228,0.33691319823265076,0.0,0.0,0.0,0.0,0.5235987755982984
1666091670600725704,0.0,0.0,0.0,0.0,0.0,0.4109273334806302
1666091670721398929,0.0,0.0,0.0,0.0,0.0,0.43128058874640557
1666091670812016950,0.0,0.0,0.0,0.0,0.0,0.436659799659766
1666091670905109113,0.0,0.0,0.0,0.0,0.0,0.44497264136889
1666091670945147219,0.0,0.0,0.0,0.0,0.0,0.4428261313839511
1666091671017777847,0.0,0.0,0.0,0.0,0.0,0.4537419057820263
1666091671111600057,0.0,0.0,0.0,0.0,0.0,0.44787079539717684
1666091671148976444,0.0,0.0,0.0,0.0,0.0,0.43591322879024746
1666091671236803710,0.0,0.0,0.0,0.0,0.0,0.43324395017033235
1666091671281473237,0.0,0.0,0.0,0.0,0.0,0.4019552710930721
1666091671400914787,0.0,0.0,0.0,0.0,0.0,0.39061566835004574
1666091671494409676,0.3651925325393677,0.0,0.0,0.0,0.0,0.3490658503988654
1666091671578999996,0.44881126284599304,0.0,0.0,0.0,0.0,0.3490658503988654
1666091671650388205,0.4191392958164215,0.0,0.0,0.0,0.0,0.3490658503988654
1666091671659541808,0.4189971387386322,0.0,0.0,0.0,0.0,0.3490658503988654
1666091671789580614,0.4372418522834777,0.0,0.0,0.0,0.0,0.3490658503988654
1666091671875855727,0.44439464807510376,0.0,0.0,0.0,0.0,0.17453292519943245
1666091671976976244,0.4899432957172394,0.0,0.0,0.0,0.0,0.08868945389986038
1666091671980660361,0.4890193045139312,0.0,0.0,0.0,0.0,0.08892332762479782
1666091672089064923,0.48114296793937683,0.0,0.0,0.0,0.0,-4.996003610813204e-16
1666091672177174492,0.48673194646835327,0.0,0.0,0.0,0.0,-4.996003610813204e-16
1666091672264206500,0.49125975370407104,0.0,0.0,0.0,0.0,-0.05666588619351387
1666091672344402949,0.48452174663543696,0.0,0.0,0.0,0.0,-4.996003610813204e-16
1666091672437618110,0.4960705637931824,0.0,0.0,0.0,0.0,-0.07235832512378693
1666091672582326844,0.48447078466415405,0.0,0.0,0.0,0.0,-0.17453292519943345
1666091672599277107,0.48354676365852356,0.0,0.0,0.0,0.0,-0.17453292519943345
1666091672693962407,0.4753306806087494,0.0,0.0,0.0,0.0,-0.17453292519943345
1666091672736909285,0.46733093261718744,0.0,0.0,0.0,0.0,-0.17453292519943345
1666091672824250514,0.4132488369941711,0.0,0.0,0.0,0.0,-0.17453292519943345
1666091672872567974,0.41339099407196045,0.0,0.0,0.0,0.0,-0.17453292519943345
1666091672903975768,0.4370732009410858,0.0,0.0,0.0,0.0,-0.3490658503988664
1666091672985244653,0.42335218191146845,0.0,0.0,0.0,0.0,-0.3490658503988664
1666091673030787346,0.3622899651527405,0.0,0.0,0.0,0.0,-0.3490658503988664
1666091673113393646,0.0,0.0,0.0,0.0,0.0,-0.2870693293439833
1666091673205434744,0.0,0.0,0.0,0.0,0.0,-0.2973731558212629
1666091673281390056,0.0,0.0,0.0,0.0,0.0,-0.30626994379986305
1666091673374019999,0.0,0.0,0.0,0.0,0.0,-0.31165958711428404
1666091673421212851,0.0,0.0,0.0,0.0,0.0,-0.3151657694283891
1666091673475723173,0.0,0.0,0.0,0.0,0.0,-0.3181713052050059
1666091673586986594,0.0,0.0,0.0,0.0,0.0,-0.32819106386839586
1666091673631129170,0.0,0.0,0.0,0.0,0.0,-0.31932566033244036
1666091673763209577,0.0,0.0,0.0,0.0,0.0,-0.3209162470500785
1666091673817048690,0.0,0.0,0.0,0.0,0.0,-0.3082990086984471
1666091673885980767,0.0,0.0,0.0,0.0,0.0,-0.2995194892888253
1666091674017036066,0.0,0.0,0.0,0.0,0.0,-0.2811304937642436
1666091674049153744,0.0,0.0,0.0,0.0,0.0,-0.2606521720226784
1666091674139583772,0.0,0.0,0.0,0.0,0.0,-0.2540007602184717
1666091674183394863,0.0,0.0,0.0,0.0,0.0,-0.2510485276823329
1666091674270455709,0.0,0.0,0.0,0.0,0.0,-0.24535741861728627
1666091674359362708,0.0,0.0,0.0,0.0,0.0,-0.23809413201835147
1666091674499934057,0.0,0.0,0.0,0.0,0.0,-0.22961296678779497
1666091674517061708,0.0,0.0,0.0,0.0,0.0,-0.22181943159808953
1666091674605119173,0.0,0.0,0.0,0.0,0.0,-0.2221082579319637
1666091674693274173,0.0,0.0,0.0,0.0,0.0,-0.21681223215012177
1666091674738494192,0.0,0.0,0.0,0.0,0.0,-0.17453292519943345
1666091674786726337,0.0,0.0,0.0,0.0,0.0,-0.17453292519943345
1666091674837295411,0.0,0.0,0.0,0.0,0.0,-0.17453292519943345
1666091674945829650,0.0,0.0,0.0,0.0,0.0,-0.17453292519943345
1666091674991700918,0.0,0.0,0.0,0.0,0.0,-0.17453292519943345
1666091675125795368,0.0,0.0,0.0,0.0,0.0,-0.17453292519943345
1666091675180224700,0.0,0.0,0.0,0.0,0.0,-0.17453292519943345
1666091675201816339,0.0,0.0,0.0,0.0,0.0,-0.17453292519943345
1666091675335236624,0.0,0.0,0.0,0.0,0.0,-0.17453292519943345
1666091675426836810,0.0,0.0,0.0,0.0,0.0,-0.17453292519943345
1666091675475809844,0.0,0.0,0.0,0.0,0.0,-0.17453292519943345
1666091675501037216,0.0,0.0,0.0,0.0,0.0,-0.17453292519943345
1666091675637365646,0.0,0.0,0.0,0.0,0.0,-0.17453292519943345
1666091675681376668,0.0,0.0,0.0,0.0,0.0,-0.17453292519943345
1666091675725235039,0.0,0.0,0.0,0.0,0.0,-0.17453292519943345
1666091675801591279,0.0,0.0,0.0,0.0,0.0,-0.17453292519943345
1666091675908309167,0.0,0.0,0.0,0.0,0.0,-0.17453292519943345
1666091675939617575,0.0,0.0,0.0,0.0,0.0,-0.17453292519943345
1666091676021810550,0.0,0.0,0.0,0.0,0.0,-0.17453292519943345
1666091676065498009,0.0,0.0,0.0,0.0,0.0,-0.17453292519943345
1666091676145298132,0.0,0.0,0.0,0.0,0.0,-0.17453292519943345
1666091676255200484,0.0,0.0,0.0,0.0,0.0,-0.21662777949818465
1666091676285930009,0.0,0.0,0.0,0.0,0.0,-0.2116702516107624
1666091676423613050,0.0,0.0,0.0,0.0,0.0,-0.23715412531698507
1666091676449849999,0.0,0.0,0.0,0.0,0.0,-0.24144613354573174
1666091676541418378,0.0,0.0,0.0,0.0,0.0,-0.256256234431866
1666091676562997256,0.0,0.0,0.0,0.0,0.0,-0.26708589968374224
1666091676754544907,0.0,0.0,0.0,0.0,0.0,-0.32323418858693936
1666091676788549492,0.0,0.0,0.0,0.0,0.0,-0.3249008580360483
1666091676841077979,0.0,0.0,0.0,0.0,0.0,-0.32673813621987013
1666091676965890183,0.0,0.0,0.0,0.0,0.0,-0.3502312058234813
1666091677009098241,0.0,0.0,0.0,0.0,0.0,-0.35636243003585083
1666091677102339473,0.0,0.0,0.0,0.0,0.0,-0.388271927500087
1666091677173536084,0.0,0.0,0.0,0.0,0.0,-0.39734917791783164
1666091677321159965,0.0,0.0,0.0,0.0,0.0,-0.41410674170227385
1666091677370112669,0.0,0.0,0.0,0.0,0.0,-0.40855798720429404
1666091677440992710,0.0,0.0,0.0,0.0,0.0,-0.41330696106371495
1666091677529993940,0.0,0.0,0.0,0.0,0.0,-0.41362271436687525
1666091677620859103,0.0,0.0,0.0,0.0,0.0,-0.40590094132644366
1666091677698726800,0.0,0.0,0.0,0.0,0.0,-0.3937232965486592
1666091677830395364,0.0,0.0,0.0,0.0,0.0,-0.38762282663427544
1666091677920495338,0.0,0.0,0.0,0.0,0.0,-0.36812138245567627
1666091677983638262,0.0,0.0,0.0,0.0,0.0,-0.3379883818249596
1666091678082733539,0.0,0.0,0.0,0.0,0.0,-0.3264732121804655
1666091678220850909,0.0,0.0,0.0,0.0,0.0,-0.3127362509116015
1666091678309389034,0.0,0.0,0.0,0.0,0.0,-0.28734689903525823
1666091678309912625,0.0,0.0,0.0,0.0,0.0,-0.27996250217879276
1666091678381407848,0.0,0.0,0.0,0.0,0.0,-0.27163140833147403
1666091678513263678,0.0,0.0,0.0,0.0,0.0,-0.26921000832577185
1666091678601764325,0.0,0.0,0.0,0.0,0.0,-0.2594275030804764
1666091678649133202,0.0,0.0,0.0,0.0,0.0,-0.252719995602017
1666091678820907047,0.0,0.0,0.0,0.0,0.0,-0.2503927020788693
1666091678858077468,0.0,0.0,0.0,0.0,0.0,-0.2340557398851479
1666091678965576284,0.0,0.0,0.0,0.0,0.0,-0.228298252002436
1666091678984699005,0.0,0.0,0.0,0.0,0.0,-0.22333095594114316
1666091679117400936,0.0,0.0,0.0,0.0,0.0,-0.221349671798424
1666091679168075840,0.0,0.0,0.0,0.0,0.0,-0.21364551605698773
