%time,field.linear.x,field.linear.y,field.linear.z,field.angular.x,field.angular.y,field.angular.z
1666091638283605029,0.0,0.0,0.0,0.0,0.0,-0.1
1666091638332684066,0.0,0.0,0.0,0.0,0.0,-0.2
1666091638383112610,0.015,0.0,0.0,0.0,0.0,-0.25018640384353386
1666091638432579030,0.03,0.0,0.0,0.0,0.0,-0.2999502929501318
1666091638482775497,0.045,0.0,0.0,0.0,0.0,-0.34972488824008474
1666091638532643513,0.06,0.0,0.0,0.0,0.0,-0.39949948353003767
1666091638582856488,0.07497645302183145,0.0,0.0,0.0,0.0,-0.4994994835300377
1666091638632701983,0.0899529060436629,0.0,0.0,0.0,0.0,-0.5994994835300377
1666091638688982999,0.1049529060436629,0.0,0.0,0.0,0.0,-0.6428292123544598
1666091638733083466,0.1199529060436629,0.0,0.0,0.0,0.0,-0.6873021034569432
1666091638782864949,0.1349529060436629,0.0,0.0,0.0,0.0,-0.7317559466696064
1666091638832746442,0.1499529060436629,0.0,0.0,0.0,0.0,-0.7762097898822697
1666091638883154649,0.16495290604366292,0.0,0.0,0.0,0.0,-0.8206636330949331
1666091638932990761,0.17995290604366293,0.0,0.0,0.0,0.0,-0.8648552048621997
1666091638982882068,0.19495290604366294,0.0,0.0,0.0,0.0,-0.9090467766294663
1666091639032915787,0.20995290604366296,0.0,0.0,0.0,0.0,-0.9534222038889343
1666091639083025513,0.22495290604366297,0.0,0.0,0.0,0.0,-0.998116850115564
1666091639132687622,0.23995290604366298,0.0,0.0,0.0,0.0,-1.0428114963421937
1666091639182590564,0.254952906043663,0.0,0.0,0.0,0.0,-1.0651657833826684
1666091639232761638,0.269952906043663,0.0,0.0,0.0,0.0,-1.087733828828812
1666091639283287407,0.284952906043663,0.0,0.0,0.0,0.0,-1.110301874274956
1666091639332839312,0.29995290604366304,0.0,0.0,0.0,0.0,-1.1319529445247738
1666091639382783250,0.2186618447303772,0.0,0.0,0.0,0.0,-1.0471975511965983
1666091639432694656,0.2336618447303772,0.0,0.0,0.0,0.0,-1.0471975511965983
1666091639482646381,0.24866184473037722,0.0,0.0,0.0,0.0,-1.0471975511965983
1666091639533989535,0.26366184473037724,0.0,0.0,0.0,0.0,-1.0471975511965983
1666091639583118508,0.27866184473037725,0.0,0.0,0.0,0.0,-1.0471975511965983
1666091639632674887,0.12866184473037723,0.0,0.0,0.0,0.0,-0.9253455492660484
1666091639682702453,0.0,0.0,0.0,0.0,0.0,-0.8208275269162214
1666091639732969990,0.0,0.0,0.0,0.0,0.0,-0.7721444526460852
1666091639782689402,0.0,0.0,0.0,0.0,0.0,-0.7721444526460852
1666091639832644610,0.0,0.0,0.0,0.0,0.0,-0.7721444526460852
1666091639882664940,0.0,0.0,0.0,0.0,0.0,-0.650908392085422
1666091639932679057,0.0,0.0,0.0,0.0,0.0,-0.5824204480247469
1666091639982576505,0.0,0.0,0.0,0.0,0.0,-0.5824204480247469
1666091640033747939,0.0,0.0,0.0,0.0,0.0,-0.5235987755982994
1666091640082631428,0.0,0.0,0.0,0.0,0.0,-0.5235987755982994
1666091640132614948,0.0,0.0,0.0,0.0,0.0,-0.5235987755982994
1666091640182728976,0.0,0.0,0.0,0.0,0.0,-0.3490658503988664
1666091640233045112,0.0,0.0,0.0,0.0,0.0,-0.2803684466707605
1666091640282618241,0.0,0.0,0.0,0.0,0.0,-0.2812255322292102
1666091640332620610,0.0,0.0,0.0,0.0,0.0,-0.2812255322292102
1666091640382724644,0.0,0.0,0.0,0.0,0.0,-0.23532838141283563
1666091640432819856,0.0,0.0,0.0,0.0,0.0,-0.23532838141283563
1666091640482675111,0.0,0.0,0.0,0.0,0.0,-0.17453292519943345
1666091640532656230,0.0,0.0,0.0,0.0,0.0,-0.17453292519943345
1666091640582611475,0.0,0.0,0.0,0.0,0.0,-0.17453292519943345
1666091640632863786,0.0,0.0,0.0,0.0,0.0,-4.996003610813204e-16
1666091640683839473,0.0,0.0,0.0,0.0,0.0,-4.996003610813204e-16
1666091640732744617,0.0,0.0,0.0,0.0,0.0,-4.996003610813204e-16
1666091640782628507,0.0,0.0,0.0,0.0,0.0,-4.996003610813204e-16
1666091640833886987,0.0,0.0,0.0,0.0,0.0,-4.996003610813204e-16
1666091640883552124,0.0,0.0,0.0,0.0,0.0,-4.996003610813204e-16
1666091640932789678,0.0,0.0,0.0,0.0,0.0,-4.996003610813204e-16
1666091640982684374,0.0,0.0,0.0,0.0,0.0,-4.996003610813204e-16
1666091641034349610,0.0,0.0,0.0,0.0,0.0,-4.996003610813204e-16
1666091641082739997,0.0,0.0,0.0,0.0,0.0,-4.996003610813204e-16
1666091641133940363,0.0,0.0,0.0,0.0,0.0,-4.996003610813204e-16
1666091641182980557,0.0,0.0,0.0,0.0,0.0,-4.996003610813204e-16
1666091641232624389,0.0,0.0,0.0,0.0,0.0,-4.996003610813204e-16
1666091641283050132,0.0,0.0,0.0,0.0,0.0,-4.996003610813204e-16
1666091641332680105,0.0,0.0,0.0,0.0,0.0,-4.996003610813204e-16
1666091641382680124,0.0,0.0,0.0,0.0,0.0,-4.996003610813204e-16
1666091641432803317,0.0,0.0,0.0,0.0,0.0,-4.996003610813204e-16
1666091641482696874,0.0,0.0,0.0,0.0,0.0,-4.996003610813204e-16
1666091641532758190,0.0,0.0,0.0,0.0,0.0,-4.996003610813204e-16
1666091641582819747,0.0,0.0,0.0,0.0,0.0,-4.996003610813204e-16
1666091641632730329,0.0,0.0,0.0,0.0,0.0,-4.996003610813204e-16
1666091641682813934,0.0,0.0,0.0,0.0,0.0,-4.996003610813204e-16
1666091641733300447,0.0,0.0,0.0,0.0,0.0,-0.1000000000000005
1666091641782680311,0.0,0.0,0.0,0.0,0.0,-0.17453292519943345
1666091641832828250,0.0,0.0,0.0,0.0,0.0,-0.17453292519943345
1666091641882880695,0.0,0.0,0.0,0.0,0.0,-0.17453292519943345
1666091641932662879,0.0,0.0,0.0,0.0,0.0,-0.17453292519943345
1666091641983228567,0.0,0.0,0.0,0.0,0.0,-0.17453292519943345
1666091642032718775,0.0,0.0,0.0,0.0,0.0,-0.17453292519943345
1666091642082783622,0.0,0.0,0.0,0.0,0.0,-0.17453292519943345
1666091642132777201,0.0,0.0,0.0,0.0,0.0,-0.22245306507708912
1666091642182644324,0.0,0.0,0.0,0.0,0.0,-0.22245306507708912
1666091642232996560,0.0,0.0,0.0,0.0,0.0,-0.2526026529779881
1666091642282719367,0.0,0.0,0.0,0.0,0.0,-0.2754101308630144
1666091642333409068,0.0,0.0,0.0,0.0,0.0,-0.2754101308630144
1666091642382714958,0.0,0.0,0.0,0.0,0.0,-0.3490658503988664
1666091642432972507,0.0,0.0,0.0,0.0,0.0,-0.3490658503988664
1666091642482695981,0.0,0.0,0.0,0.0,0.0,-0.3668051192539871
1666091642532955055,0.0,0.0,0.0,0.0,0.0,-0.3668051192539871
1666091642582745075,0.0,0.0,0.0,0.0,0.0,-0.40224476588978925
1666091642632908882,0.0,0.0,0.0,0.0,0.0,-0.4244173042420287
1666091642682643153,0.0,0.0,0.0,0.0,0.0,-0.4484439445554112
1666091642733499843,0.0,0.0,0.0,0.0,0.0,-0.4755912778996989
1666091642782924744,0.0,0.0,0.0,0.0,0.0,-0.4755912778996989
1666091642832946644,0.0,0.0,0.0,0.0,0.0,-0.5025500169386921
1666091642882648049,0.0,0.0,0.0,0.0,0.0,-0.5025500169386921
1666091642933443536,0.0,0.0,0.0,0.0,0.0,-0.5351269027470408
1666091642982761119,0.0,0.0,0.0,0.0,0.0,-0.5351269027470408
1666091643032887722,0.0,0.0,0.0,0.0,0.0,-0.5577828273341986
1666091643082792637,0.0,0.0,0.0,0.0,0.0,-0.5598905074295115
1666091643133185085,0.0,0.0,0.0,0.0,0.0,-0.5598905074295115
1666091643182779127,0.0,0.0,0.0,0.0,0.0,-0.5690775955306109
1666091643232656538,0.0,0.0,0.0,0.0,0.0,-0.5690775955306109
1666091643283071622,0.0,0.0,0.0,0.0,0.0,-0.5482339193782997
1666091643332824845,0.0,0.0,0.0,0.0,0.0,-0.5482339193782997
1666091643382769677,0.0,0.0,0.0,0.0,0.0,-0.5485291625959098
1666091643433002355,0.0,0.0,0.0,0.0,0.0,-0.5485291625959098
1666091643482825768,0.0,0.0,0.0,0.0,0.0,-0.540822211076833
1666091643532796299,0.0,0.0,0.0,0.0,0.0,-0.5405479344816397
1666091643582625328,0.0,0.0,0.0,0.0,0.0,-0.5315121407100719
1666091643633289175,0.0,0.0,0.0,0.0,0.0,-0.5315121407100719
1666091643682641000,0.0,0.0,0.0,0.0,0.0,-0.5365861790833504
1666091643733083166,0.0,0.0,0.0,0.0,0.0,-0.5272568904188212
1666091643783020235,0.0,0.0,0.0,0.0,0.0,-0.5272568904188212
1666091643832688231,0.0,0.0,0.0,0.0,0.0,-0.5235987755982994
1666091643882925005,0.0,0.0,0.0,0.0,0.0,-0.499001909181951
1666091643932775452,0.0,0.0,0.0,0.0,0.0,-0.499001909181951
1666091643982878691,0.0,0.0,0.0,0.0,0.0,-0.4967545583141661
1666091644032768536,0.0,0.0,0.0,0.0,0.0,-0.48341096399408023
1666091644082653359,0.0,0.0,0.0,0.0,0.0,-0.48341096399408023
1666091644132696630,0.0,0.0,0.0,0.0,0.0,-0.48341096399408023
1666091644183129005,0.0,0.0,0.0,0.0,0.0,-0.48732090915787324
1666091644233106731,0.0,0.0,0.0,0.0,0.0,-0.4679170936705142
1666091644283435724,0.0,0.0,0.0,0.0,0.0,-0.4679170936705142
1666091644332631965,0.0,0.0,0.0,0.0,0.0,-0.47635659155939447
1666091644382588313,0.0,0.0,0.0,0.0,0.0,-0.4776136725813628
1666091644432691917,0.0,0.0,0.0,0.0,0.0,-0.4776136725813628
1666091644482771244,0.0,0.0,0.0,0.0,0.0,-0.48167415013307796
1666091644532833560,0.0,0.0,0.0,0.0,0.0,-0.4798058382643802
1666091644582723968,0.0,0.0,0.0,0.0,0.0,-0.4805867123326226
1666091644632695186,0.0,0.0,0.0,0.0,0.0,-0.4805867123326226
1666091644682702475,0.0,0.0,0.0,0.0,0.0,-0.4886047019998942
1666091644732621367,0.0,0.0,0.0,0.0,0.0,-0.4886047019998942
1666091644782614976,0.0,0.0,0.0,0.0,0.0,-0.4757780323985108
1666091644833862120,0.0,0.0,0.0,0.0,0.0,-0.47049098859193234
1666091644884164927,0.015,0.0,0.0,0.0,0.0,-0.4514609401765715
1666091644932667040,0.03,0.0,0.0,0.0,0.0,-0.4324308917612107
1666091644982610346,0.045,0.0,0.0,0.0,0.0,-0.42213895354083486
1666091645032639409,0.06,0.0,0.0,0.0,0.0,-0.411847015320459
1666091645083185478,0.075,0.0,0.0,0.0,0.0,-0.40228041397915887
1666091645132741193,0.09,0.0,0.0,0.0,0.0,-0.39271381263785876
1666091645182926789,0.105,0.0,0.0,0.0,0.0,-0.37840941835967223
1666091645232898885,0.12,0.0,0.0,0.0,0.0,-0.37126860147069557
1666091645282904446,0.135,0.0,0.0,0.0,0.0,-0.36410814032205585
1666091645332700699,0.15000000000000002,0.0,0.0,0.0,0.0,-0.35694767917341613
1666091645382900905,0.16500000000000004,0.0,0.0,0.0,0.0,-0.3505363722930662
1666091645432674984,0.18000000000000005,0.0,0.0,0.0,0.0,-0.3441250654127163
1666091645482849627,0.19500000000000006,0.0,0.0,0.0,0.0,-0.3384139685874672
1666091645532755667,0.21000000000000008,0.0,0.0,0.0,0.0,-0.33317729051688616
1666091645582931164,0.2250000000000001,0.0,0.0,0.0,0.0,-0.32832436170322327
1666091645632684672,0.2400000000000001,0.0,0.0,0.0,0.0,-0.3234714328895603
1666091645682980379,0.2550000000000001,0.0,0.0,0.0,0.0,-0.3186185040758974
1666091645734586080,0.1050000000000001,0.0,0.0,0.0,0.0,-0.13119585461948724
1666091645782708654,0.12000000000000009,0.0,0.0,0.0,0.0,-0.1324680154491114
1666091645832722969,0.1350000000000001,0.0,0.0,0.0,0.0,-0.13374017627873558
1666091645882686686,0.15000000000000008,0.0,0.0,0.0,0.0,-0.13498668503573694
1666091645933557478,0.1650000000000001,0.0,0.0,0.0,0.0,-0.1362331937927383
1666091645983081414,0.1800000000000001,0.0,0.0,0.0,0.0,-0.13726793122817765
1666091646032751538,0.19500000000000012,0.0,0.0,0.0,0.0,-0.138302668663617
1666091646082740122,0.21000000000000013,0.0,0.0,0.0,0.0,-0.13933740609905637
1666091646133005585,0.22500000000000014,0.0,0.0,0.0,0.0,-0.1448421931930216
1666091646182612483,0.24000000000000016,0.0,0.0,0.0,0.0,-0.15035331524901382
1666091646232694030,0.25500000000000017,0.0,0.0,0.0,0.0,-0.15620025751159813
1666091646282901529,0.2700000000000002,0.0,0.0,0.0,0.0,-0.16204719977418244
1666091646332904268,0.2850000000000002,0.0,0.0,0.0,0.0,-0.16734018045223953
1666091646383957336,0.3000000000000002,0.0,0.0,0.0,0.0,-0.17287677922032507
1666091646432702532,0.3150000000000002,0.0,0.0,0.0,0.0,-0.17841337798841062
1666091646482681944,0.33000000000000024,0.0,0.0,0.0,0.0,-0.18369128950625976
1666091646532697870,0.34500000000000025,0.0,0.0,0.0,0.0,-0.1889692010241089
1666091646582673321,0.36000000000000026,0.0,0.0,0.0,0.0,-0.1942691393774166
1666091646632633612,0.3750000000000003,0.0,0.0,0.0,0.0,-0.1995690777307243
1666091646682601818,0.3900000000000003,0.0,0.0,0.0,0.0,-0.20484543441312933
1666091646732907806,0.4050000000000003,0.0,0.0,0.0,0.0,-0.21012179109553436
1666091646783413332,0.4200000000000003,0.0,0.0,0.0,0.0,-0.2153981477779394
1666091646832652357,0.43500000000000033,0.0,0.0,0.0,0.0,-0.22067450446034442
1666091646882618566,0.45000000000000034,0.0,0.0,0.0,0.0,-0.22595086114274945
1666091646933711668,0.46500000000000036,0.0,0.0,0.0,0.0,-0.23122721782515449
1666091646983047361,0.48000000000000037,0.0,0.0,0.0,0.0,-0.2365035745075595
1666091647033478206,0.4950000000000004,0.0,0.0,0.0,0.0,-0.24177993118996452
1666091647082686892,0.5100000000000003,0.0,0.0,0.0,0.0,-0.24705628787236955
1666091647133044150,0.5250000000000004,0.0,0.0,0.0,0.0,-0.25233264455477455
1666091647182625961,0.5400000000000004,0.0,0.0,0.0,0.0,-0.25760900123717956
1666091647232955782,0.5550000000000004,0.0,0.0,0.0,0.0,-0.26288535791958456
1666091647283136155,0.5700000000000004,0.0,0.0,0.0,0.0,-0.26816171460198956
1666091647332700083,0.5850000000000004,0.0,0.0,0.0,0.0,-0.27343807128439457
1666091647382655314,0.6000000000000004,0.0,0.0,0.0,0.0,-0.27871442796679957
1666091647432828662,0.6150000000000004,0.0,0.0,0.0,0.0,-0.2839907846492046
1666091647483475558,0.6300000000000004,0.0,0.0,0.0,0.0,-0.2892671413316096
1666091647532669895,0.6450000000000005,0.0,0.0,0.0,0.0,-0.2945434980140146
1666091647583297077,0.6600000000000005,0.0,0.0,0.0,0.0,-0.29981985469641964
1666091647632657189,0.6750000000000005,0.0,0.0,0.0,0.0,-0.30509621137882464
1666091647682577407,0.6900000000000005,0.0,0.0,0.0,0.0,-0.3103725680612297
1666091647734381274,0.7050000000000005,0.0,0.0,0.0,0.0,-0.33944886908901206
1666091647782776681,0.7200000000000005,0.0,0.0,0.0,0.0,-0.3685251701167944
1666091647832728042,0.7350000000000005,0.0,0.0,0.0,0.0,-0.3648765476696829
1666091647882905145,0.7500000000000006,0.0,0.0,0.0,0.0,-0.36122792522257136
1666091647935248929,0.7650000000000006,0.0,0.0,0.0,0.0,-0.3575793027754598
1666091647982727339,0.7800000000000006,0.0,0.0,0.0,0.0,-0.4287305054138209
1666091648033042976,0.7950000000000006,0.0,0.0,0.0,0.0,-0.36898201415260307
1666091648083020078,0.7999999999999999,0.0,0.0,0.0,0.0,-0.3490658503988664
1666091648132719438,0.7999999999999999,0.0,0.0,0.0,0.0,-0.3490658503988664
1666091648182586190,0.7999999999999999,0.0,0.0,0.0,0.0,-0.3490658503988664
1666091648233233723,0.7999999999999999,0.0,0.0,0.0,0.0,-0.4490658503988664
1666091648282689738,0.7999999999999999,0.0,0.0,0.0,0.0,-0.5235987755982994
1666091648332807848,0.781906460058421,0.0,0.0,0.0,0.0,-0.6235987755982993
1666091648382716206,0.7453833222389221,0.0,0.0,0.0,0.0,-0.6981317007977323
1666091648433993232,0.7455254793167114,0.0,0.0,0.0,0.0,-0.6981317007977323
1666091648482693104,0.7223145961761475,0.0,0.0,0.0,0.0,-0.6981317007977323
1666091648532597889,0.7223145961761475,0.0,0.0,0.0,0.0,-0.6981317007977323
1666091648583309164,0.6918315887451172,0.0,0.0,0.0,0.0,-0.6981317007977323
1666091648632594923,0.6918315887451172,0.0,0.0,0.0,0.0,-0.6981317007977323
1666091648683634487,0.6701183319091797,0.0,0.0,0.0,0.0,-0.6981317007977323
1666091648732918975,0.6701183319091797,0.0,0.0,0.0,0.0,-0.6981317007977323
1666091648782725284,0.6701183319091797,0.0,0.0,0.0,0.0,-0.6981317007977323
1666091648833171676,0.6280816793441772,0.0,0.0,0.0,0.0,-0.6981317007977323
1666091648882734250,0.6280816793441772,0.0,0.0,0.0,0.0,-0.6981317007977323
1666091648934220449,0.6092187762260437,0.0,0.0,0.0,0.0,-0.6981317007977323
1666091648982650237,0.5957846479022749,0.0,0.0,0.0,0.0,-0.7981317007977323
1666091649032984215,0.5857717990875244,0.0,0.0,0.0,0.0,-0.8726646259971653
1666091649082915066,0.5650289654731749,0.0,0.0,0.0,0.0,-0.8726646259971653
1666091649132912248,0.5459127426147461,0.0,0.0,0.0,0.0,-0.8726646259971653
1666091649182711676,0.5459127426147461,0.0,0.0,0.0,0.0,-0.8726646259971653
1666091649233112210,0.5279016494750977,0.0,0.0,0.0,0.0,-0.8726646259971653
1666091649282893661,0.5279016494750977,0.0,0.0,0.0,0.0,-0.8726646259971653
1666091649333029100,0.49137249588966364,0.0,0.0,0.0,0.0,-0.8726646259971653
1666091649383451241,0.49137249588966364,0.0,0.0,0.0,0.0,-0.8726646259971653
1666091649433111946,0.47476893663406367,0.0,0.0,0.0,0.0,-0.6981317007977323
1666091649482912658,0.46030730009078974,0.0,0.0,0.0,0.0,-0.6981317007977323
1666091649533232425,0.46030730009078974,0.0,0.0,0.0,0.0,-0.6981317007977323
1666091649582805875,0.3651479184627533,0.0,0.0,0.0,0.0,-0.6981317007977323
1666091649632626454,0.3651479184627533,0.0,0.0,0.0,0.0,-0.6981317007977323
1666091649682717046,0.3553600609302521,0.0,0.0,0.0,0.0,-0.6981317007977323
1666091649732884549,0.3703600609302521,0.0,0.0,0.0,0.0,-0.6639573796502688
1666091649782907360,0.3853600609302521,0.0,0.0,0.0,0.0,-0.6297830585028052
1666091649832933810,0.4003600609302521,0.0,0.0,0.0,0.0,-0.5914135055912987
1666091649883645264,0.41536006093025213,0.0,0.0,0.0,0.0,-0.5475527730377817
1666091649932829868,0.4205594360828399,0.0,0.0,0.0,0.0,-0.3490658503988664
1666091649982749021,0.4205594360828399,0.0,0.0,0.0,0.0,-0.3490658503988664
1666091650032737747,0.42073825001716614,0.0,0.0,0.0,0.0,-0.3490658503988664
1666091650082736309,0.42073825001716614,0.0,0.0,0.0,0.0,-0.3490658503988664
1666091650133143066,0.4153672158718109,0.0,0.0,0.0,0.0,-0.17453292519943345
1666091650182788858,0.4151539802551269,0.0,0.0,0.0,0.0,-0.17453292519943345
1666091650232962501,0.4129003882408142,0.0,0.0,0.0,0.0,-0.08403856307268143
1666091650283024485,0.4082684814929962,0.0,0.0,0.0,0.0,-0.07070934772491455
1666091650333391754,0.4082684814929962,0.0,0.0,0.0,0.0,-0.07070934772491455
1666091650382763703,0.40323856472969055,0.0,0.0,0.0,0.0,-4.996003610813204e-16
1666091650432913661,0.40323856472969055,0.0,0.0,0.0,0.0,-4.996003610813204e-16
1666091650482768893,0.40323856472969055,0.0,0.0,0.0,0.0,-4.996003610813204e-16
1666091650533448634,0.40549802780151367,0.0,0.0,0.0,0.0,-0.041676148772239685
1666091650582668185,0.4005767107009887,0.0,0.0,0.0,0.0,-0.0340665802359581
1666091650632704844,0.4005767107009887,0.0,0.0,0.0,0.0,-0.0340665802359581
1666091650682768067,0.3937773108482361,0.0,0.0,0.0,0.0,-0.027368895709514618
1666091650732891719,0.3826044499874115,0.0,0.0,0.0,0.0,-0.02269667387008667
1666091650782968220,0.3826044499874115,0.0,0.0,0.0,0.0,-0.02269667387008667
1666091650832758471,0.36252501606941223,0.0,0.0,0.0,0.0,-0.013347475789487362
1666091650882856709,0.36252501606941223,0.0,0.0,0.0,0.0,-0.013347475789487362
1666091650933016616,0.23417488072878637,0.0,0.0,0.0,0.0,0.08665252421051264
1666091650982857350,0.10582474538816053,0.0,0.0,0.0,0.0,0.18665252421051265
1666091651032723237,0.0022085265961803713,0.0,0.0,0.0,0.0,0.2866525242105127
1666091651083100009,0.0,0.0,0.0,0.0,0.0,0.30308577515910917
1666091651135066291,0.0,0.0,0.0,0.0,0.0,0.32412472714574475
1666091651183715306,0.0,0.0,0.0,0.0,0.0,0.3490658503988654
1666091651234827034,0.0,0.0,0.0,0.0,0.0,0.3490658503988654
1666091651282791442,0.0,0.0,0.0,0.0,0.0,0.3609611745116924
1666091651332781914,0.0,0.0,0.0,0.0,0.0,0.3609611745116924
1666091651382950771,0.0,0.0,0.0,0.0,0.0,0.37315702767057646
1666091651436949649,0.0,0.0,0.0,0.0,0.0,0.3816128687040924
1666091651482720423,0.0,0.0,0.0,0.0,0.0,0.3911914593495654
1666091651533061059,0.0,0.0,0.0,0.0,0.0,0.3911914593495654
1666091651583116532,0.0,0.0,0.0,0.0,0.0,0.4006907365672384
1666091651632870048,0.0,0.0,0.0,0.0,0.0,0.4006907365672384
1666091651684027091,0.0,0.0,0.0,0.0,0.0,0.40292000079333157
1666091651732834392,0.0,0.0,0.0,0.0,0.0,0.396945229590772
1666091651783315954,0.0,0.0,0.0,0.0,0.0,0.398191190196531
1666091651832923209,0.0,0.0,0.0,0.0,0.0,0.40157537172522323
1666091651882781114,0.0,0.0,0.0,0.0,0.0,0.39464086031416534
1666091651933300254,0.0,0.0,0.0,0.0,0.0,0.39464086031416534
1666091651982881337,0.0,0.0,0.0,0.0,0.0,0.39762562341171037
1666091652036623566,0.0,0.0,0.0,0.0,0.0,0.38525664323085185
1666091652083758088,0.0,0.0,0.0,0.0,0.0,0.38600269941322385
1666091652132760729,0.0,0.0,0.0,0.0,0.0,0.38600269941322385
1666091652182571754,0.015,0.0,0.0,0.0,0.0,0.3771914670739198
1666091652232683966,0.03,0.0,0.0,0.0,0.0,0.36838650214095964
1666091652282610127,0.045,0.0,0.0,0.0,0.0,0.35958153720799946
1666091652336647248,0.06,0.0,0.0,0.0,0.0,0.35094902559775726
1666091652383426699,0.075,0.0,0.0,0.0,0.0,0.3427966925651544
1666091652432738751,0.09,0.0,0.0,0.0,0.0,0.32804539494034807
1666091652482818780,0.105,0.0,0.0,0.0,0.0,0.3132674782820327
1666091652533380625,0.12,0.0,0.0,0.0,0.0,0.29848956162371737
1666091652583046191,0.135,0.0,0.0,0.0,0.0,0.283711644965402
1666091652632884203,0.15000000000000002,0.0,0.0,0.0,0.0,0.2695380295096009
1666091652683302228,0.16500000000000004,0.0,0.0,0.0,0.0,0.25578162955521705
1666091652732832887,0.18000000000000005,0.0,0.0,0.0,0.0,0.24202522960083325
1666091652783141039,0.19500000000000006,0.0,0.0,0.0,0.0,0.22920003273489722
1666091652832767146,0.21000000000000008,0.0,0.0,0.0,0.0,0.2163748358689612
1666091652882772460,0.2250000000000001,0.0,0.0,0.0,0.0,0.20354963900302517
1666091652932821902,0.2400000000000001,0.0,0.0,0.0,0.0,0.19220120748182581
1666091652982684728,0.2550000000000001,0.0,0.0,0.0,0.0,0.1813608733085855
1666091653033203809,0.27000000000000013,0.0,0.0,0.0,0.0,0.17052053913534518
1666091653082681521,0.28500000000000014,0.0,0.0,0.0,0.0,0.15988142069277292
1666091653132939328,0.30000000000000016,0.0,0.0,0.0,0.0,0.14924230225020066
1666091653182734388,0.31500000000000017,0.0,0.0,0.0,0.0,0.13897712920784727
1666091653232761015,0.3300000000000002,0.0,0.0,0.0,0.0,0.139748712300807
1666091653282771621,0.3450000000000002,0.0,0.0,0.0,0.0,0.12822006939281683
1666091653332823338,0.3600000000000002,0.0,0.0,0.0,0.0,0.11669142648482668
1666091653382773815,0.3750000000000002,0.0,0.0,0.0,0.0,0.10516278357683653
1666091653433697579,0.39000000000000024,0.0,0.0,0.0,0.0,0.09363414066884637
1666091653482769448,0.40500000000000025,0.0,0.0,0.0,0.0,0.08347509460938118
1666091653533080431,0.42000000000000026,0.0,0.0,0.0,0.0,0.0747513533689575
1666091653582800249,0.4350000000000003,0.0,0.0,0.0,0.0,0.06602761212853381
1666091653633075329,0.4500000000000003,0.0,0.0,0.0,0.0,0.06174698518085315
1666091653682941229,0.4650000000000003,0.0,0.0,0.0,0.0,0.06483568980417433
1666091653732972771,0.4800000000000003,0.0,0.0,0.0,0.0,0.08355843586613718
1666091653782742883,0.49500000000000033,0.0,0.0,0.0,0.0,0.10249077782931314
1666091653832751326,0.5100000000000003,0.0,0.0,0.0,0.0,0.12142311979248911
1666091653883231701,0.5250000000000004,0.0,0.0,0.0,0.0,0.14146576542748845
1666091653932684184,0.5400000000000004,0.0,0.0,0.0,0.0,0.16150841106248778
1666091653982840653,0.4862807095050812,0.0,0.0,0.0,0.0,0.09520744532346725
1666091654033099013,0.4862807095050812,0.0,0.0,0.0,0.0,0.09520744532346725
1666091654082803158,0.47633400559425354,0.0,0.0,0.0,0.0,0.10128580033779144
1666091654132843124,0.46384450793266296,0.0,0.0,0.0,0.0,0.10308834165334702
1666091654182750338,0.46384450793266296,0.0,0.0,0.0,0.0,0.10308834165334702
1666091654232820066,0.4501574635505676,0.0,0.0,0.0,0.0,0.1128532662987709
1666091654283082217,0.43593877553939814,0.0,0.0,0.0,0.0,0.11641734093427658
1666091654333653268,0.4169272780418396,0.0,0.0,0.0,0.0,0.11968430131673813
1666091654382756904,0.41792237758636475,0.0,0.0,0.0,0.0,0.11967732012271881
1666091654432877605,0.41792237758636475,0.0,0.0,0.0,0.0,0.11967732012271881
1666091654482949587,0.3956221640110016,0.0,0.0,0.0,0.0,0.12052962929010391
1666091654532924172,0.3842866122722626,0.0,0.0,0.0,0.0,0.12351959198713303
1666091654583181633,0.38211221978066817,0.0,0.0,0.0,0.0,0.22351959198713303
1666091654633098173,0.37993782728907377,0.0,0.0,0.0,0.0,0.32351959198713304
1666091654682954428,0.3748153362489932,0.0,0.0,0.0,0.0,0.42351959198713307
1666091654733314797,0.36579808350568976,0.0,0.0,0.0,0.0,0.523519591987133
1666091654782642873,0.3567808307623863,0.0,0.0,0.0,0.0,0.623519591987133
1666091654833123203,0.3717808307623863,0.0,0.0,0.0,0.0,0.6733092970685428
1666091654882805788,0.38678083076238634,0.0,0.0,0.0,0.0,0.7230990021499526
1666091654932838060,0.40178083076238635,0.0,0.0,0.0,0.0,0.7728887072313625
1666091654982716792,0.3131508231163025,0.0,0.0,0.0,0.0,0.8726646259971643
1666091655034516163,0.3131508231163025,0.0,0.0,0.0,0.0,0.8726646259971643
1666091655082843170,0.2831755578517913,0.0,0.0,0.0,0.0,0.8726646259971643
1666091655132826757,0.28141704201698303,0.0,0.0,0.0,0.0,0.8726646259971643
1666091655182884549,0.28141704201698303,0.0,0.0,0.0,0.0,0.8726646259971643
1666091655232987960,0.131417042016983,0.0,0.0,0.0,0.0,0.7941213947133815
1666091655282672044,0.0,0.0,0.0,0.0,0.0,0.6763729277805327
1666091655332869034,0.0,0.0,0.0,0.0,0.0,0.6272819771864948
1666091655383107674,0.0,0.0,0.0,0.0,0.0,0.6272819771864948
1666091655432868345,0.0,0.0,0.0,0.0,0.0,0.6272819771864948
1666091655482739301,0.0,0.0,0.0,0.0,0.0,0.628766115991173
1666091655533603319,0.0,0.0,0.0,0.0,0.0,0.628766115991173
1666091655582850828,0.0,0.0,0.0,0.0,0.0,0.5139789602108805
1666091655632779885,0.0,0.0,0.0,0.0,0.0,0.4453314538661242
1666091655683296295,0.0,0.0,0.0,0.0,0.0,0.3806419171376512
1666091655732744862,0.0,0.0,0.0,0.0,0.0,0.3806419171376512
1666091655782690377,0.0,0.0,0.0,0.0,0.0,0.3806419171376512
1666091655833237376,0.0,0.0,0.0,0.0,0.0,0.33761560099751664
1666091655882834492,0.0,0.0,0.0,0.0,0.0,0.33761560099751664
1666091655932746934,0.0,0.0,0.0,0.0,0.0,0.25641777426200413
1666091655982747145,0.0,0.0,0.0,0.0,0.0,0.17453292519943245
1666091656033077284,0.0,0.0,0.0,0.0,0.0,0.07453292519943244
1666091656082725439,0.0,0.0,0.0,0.0,0.0,-4.996003610813204e-16
1666091656132685210,0.0,0.0,0.0,0.0,0.0,-4.996003610813204e-16
1666091656182825840,0.0,0.0,0.0,0.0,0.0,-4.996003610813204e-16
1666091656232710383,0.0,0.0,0.0,0.0,0.0,-4.996003610813204e-16
1666091656282930652,0.0,0.0,0.0,0.0,0.0,-4.996003610813204e-16
1666091656333497826,0.015,0.0,0.0,0.0,0.0,-0.005987394483510966
1666091656382639773,0.03,0.0,0.0,0.0,0.0,-0.011500339362012823
1666091656432901114,0.045,0.0,0.0,0.0,0.0,-0.02199906827683029
1666091656482854851,0.06,0.0,0.0,0.0,0.0,-0.031603450668234584
1666091656533307191,0.075,0.0,0.0,0.0,0.0,-0.04120783305963887
1666091656582983735,0.09,0.0,0.0,0.0,0.0,-0.05090308480234748
1666091656632985722,0.105,0.0,0.0,0.0,0.0,-0.059260068895493984
1666091656682733517,0.12,0.0,0.0,0.0,0.0,-0.06761705298864049
1666091656732720499,0.135,0.0,0.0,0.0,0.0,-0.07555228983402154
1666091656782799527,0.15000000000000002,0.0,0.0,0.0,0.0,-0.08314848582682105
1666091656832742190,0.16500000000000004,0.0,0.0,0.0,0.0,-0.09074468181962056
1666091656882662023,0.18000000000000005,0.0,0.0,0.0,0.0,-0.0980764492205762
1666091656932858649,0.19500000000000006,0.0,0.0,0.0,0.0,-0.10519630806962028
1666091656982815229,0.21000000000000008,0.0,0.0,0.0,0.0,-0.11231616691866436
1666091657032897056,0.2250000000000001,0.0,0.0,0.0,0.0,-0.11406923985012064
1666091657082704700,0.2400000000000001,0.0,0.0,0.0,0.0,-0.11579431928930542
1666091657132811588,0.2550000000000001,0.0,0.0,0.0,0.0,-0.11752035955197622
1666091657182723282,0.27000000000000013,0.0,0.0,0.0,0.0,-0.11921620826462388
1666091657232786701,0.28500000000000014,0.0,0.0,0.0,0.0,-0.12105626784789496
1666091657283065576,0.30000000000000016,0.0,0.0,0.0,0.0,-0.12289632743116603
1666091657333378464,0.31500000000000017,0.0,0.0,0.0,0.0,-0.12195807193721282
1666091657382649369,0.3300000000000002,0.0,0.0,0.0,0.0,-0.12101981644325961
1666091657432848691,0.3450000000000002,0.0,0.0,0.0,0.0,-0.12021926862852557
1666091657482755341,0.3600000000000002,0.0,0.0,0.0,0.0,-0.11954299341954652
1666091657532826918,0.3750000000000002,0.0,0.0,0.0,0.0,-0.11886671821056748
1666091657582819494,0.39000000000000024,0.0,0.0,0.0,0.0,-0.12182730595039257
1666091657632657260,0.40500000000000025,0.0,0.0,0.0,0.0,-0.12478789369021766
1666091657686370394,0.42000000000000026,0.0,0.0,0.0,0.0,-0.12801923967018783
1666091657732635796,0.4350000000000003,0.0,0.0,0.0,0.0,-0.131250585650158
1666091657782541415,0.4500000000000003,0.0,0.0,0.0,0.0,-0.1346254170331695
1666091657832710328,0.4650000000000003,0.0,0.0,0.0,0.0,-0.1380145950990411
1666091657883123298,0.4800000000000003,0.0,0.0,0.0,0.0,-0.1414037731649127
1666091657932591484,0.49500000000000033,0.0,0.0,0.0,0.0,-0.14506295172864622
1666091657983920614,0.5100000000000003,0.0,0.0,0.0,0.0,-0.14872213029237974
1666091658033115848,0.5250000000000004,0.0,0.0,0.0,0.0,-0.14500940281886157
1666091658082845861,0.5400000000000004,0.0,0.0,0.0,0.0,-0.1494701466250414
1666091658132915534,0.5550000000000004,0.0,0.0,0.0,0.0,-0.15393089043122124
1666091658183338620,0.5700000000000004,0.0,0.0,0.0,0.0,-0.14665555459743312
1666091658232656112,0.5850000000000004,0.0,0.0,0.0,0.0,-0.139380218763645
1666091658282896129,0.6000000000000004,0.0,0.0,0.0,0.0,-0.1321048829298569
1666091658333547935,0.6150000000000004,0.0,0.0,0.0,0.0,-0.12409150107484723
1666091658382814712,0.6300000000000004,0.0,0.0,0.0,0.0,-0.14142763759620391
1666091658432806816,0.6450000000000005,0.0,0.0,0.0,0.0,-0.16344682905601274
1666091658482890667,0.6591311693191527,0.0,0.0,0.0,0.0,-0.20610935986042023
1666091658532712737,0.6591311693191527,0.0,0.0,0.0,0.0,-0.20610935986042023
1666091658582873580,0.6591311693191527,0.0,0.0,0.0,0.0,-0.20610935986042023
1666091658632673575,0.6391881108283997,0.0,0.0,0.0,0.0,-0.21596810221672058
1666091658683087456,0.6241991519927979,0.0,0.0,0.0,0.0,-0.2219523936510086
1666091658733079188,0.6241991519927979,0.0,0.0,0.0,0.0,-0.2219523936510086
1666091658782654066,0.6085647940635681,0.0,0.0,0.0,0.0,-0.22513826191425323
1666091658833190068,0.5965619174423155,0.0,0.0,0.0,0.0,-0.3251382619142532
1666091658882665796,0.5936899185180663,0.0,0.0,0.0,0.0,-0.3490658503988664
1666091658932756255,0.5869039206719836,0.0,0.0,0.0,0.0,-0.4490658503988664
1666091658982726619,0.5818461179733276,0.0,0.0,0.0,0.0,-0.5235987755982994
1666091659032893080,0.5731042954584117,0.0,0.0,0.0,0.0,-0.6235987755982993
1666091659083137734,0.5665887594223022,0.0,0.0,0.0,0.0,-0.6981317007977323
1666091659133060687,0.5465351939201355,0.0,0.0,0.0,0.0,-0.6981317007977323
1666091659182635006,0.5465351939201355,0.0,0.0,0.0,0.0,-0.6981317007977323
1666091659232879532,0.5214169683417385,0.0,0.0,0.0,0.0,-0.7981317007977323
1666091659282663828,0.502695620059967,0.0,0.0,0.0,0.0,-0.8726646259971653
1666091659332839812,0.49028120482833526,0.0,0.0,0.0,0.0,-0.9726646259971653
1666091659383606282,0.48102837800979614,0.0,0.0,0.0,0.0,-1.0471975511965983
1666091659433101589,0.45686182379722595,0.0,0.0,0.0,0.0,-1.0471975511965983
1666091659482618953,0.4219175279140472,0.0,0.0,0.0,0.0,-1.0471975511965983
1666091659533016078,0.4222018122673034,0.0,0.0,0.0,0.0,-1.0471975511965983
1666091659583435101,0.4222018122673034,0.0,0.0,0.0,0.0,-1.0471975511965983
1666091659632823252,0.41118231415748596,0.0,0.0,0.0,0.0,-1.0471975511965983
1666091659682704787,0.4030027389526367,0.0,0.0,0.0,0.0,-1.0471975511965983
1666091659732783787,0.4030027389526367,0.0,0.0,0.0,0.0,-1.0471975511965983
1666091659782975183,0.3944476842880249,0.0,0.0,0.0,0.0,-1.0471975511965983
1666091659832608352,0.3891677260398865,0.0,0.0,0.0,0.0,-1.0471975511965983
1666091659883331273,0.38675212860107416,0.0,0.0,0.0,0.0,-1.0471975511965983
1666091659932764585,0.38675212860107416,0.0,0.0,0.0,0.0,-1.0471975511965983
1666091659982667882,0.26107743382453913,0.0,0.0,0.0,0.0,-0.8726646259971653
1666091660033466170,0.27607743382453914,0.0,0.0,0.0,0.0,-0.8726646259971653
1666091660082670268,0.29107743382453916,0.0,0.0,0.0,0.0,-0.8726646259971653
1666091660132614068,0.30607743382453917,0.0,0.0,0.0,0.0,-0.8726646259971653
1666091660182824099,0.3210774338245392,0.0,0.0,0.0,0.0,-0.8726646259971653
1666091660232853195,0.17107743382453916,0.0,0.0,0.0,0.0,-0.7397009412770712
1666091660284457047,0.021077433824539138,0.0,0.0,0.0,0.0,-0.6067372565569771
1666091660332599893,0.0,0.0,0.0,0.0,0.0,-0.5330596212477209
1666091660383964599,0.0,0.0,0.0,0.0,0.0,-0.48324711125337927
1666091660433109357,0.0,0.0,0.0,0.0,0.0,-0.48322799525882415
1666091660482773173,0.0,0.0,0.0,0.0,0.0,-0.48322799525882415
1666091660533433833,0.0,0.0,0.0,0.0,0.0,-0.48322799525882415
1666091660582775445,0.0,0.0,0.0,0.0,0.0,-0.3922991883532567
1666091660632805638,0.0,0.0,0.0,0.0,0.0,-0.3490658503988664
1666091660682849134,0.0,0.0,0.0,0.0,0.0,-0.3490658503988664
1666091660732758768,0.0,0.0,0.0,0.0,0.0,-0.2924887140914749
1666091660785097238,0.0,0.0,0.0,0.0,0.0,-0.25074867297042347
1666091660832674370,0.0,0.0,0.0,0.0,0.0,-0.25074867297042347
1666091660883333661,0.0,0.0,0.0,0.0,0.0,-0.25074867297042347
1666091660932688665,0.015,0.0,0.0,0.0,0.0,-0.2480430499893859
1666091660982733600,0.03,0.0,0.0,0.0,0.0,-0.24533742700834832
1666091661032681686,0.045,0.0,0.0,0.0,0.0,-0.24278026739100012
1666091661083048297,0.06,0.0,0.0,0.0,0.0,-0.24016392567417447
1666091661132684820,0.075,0.0,0.0,0.0,0.0,-0.23754758395734882
1666091661184463403,0.09,0.0,0.0,0.0,0.0,-0.23503078625114193
1666091661232660604,0.105,0.0,0.0,0.0,0.0,-0.22947284345036373
1666091661282686590,0.12,0.0,0.0,0.0,0.0,-0.2240003574014932
1666091661332945164,0.135,0.0,0.0,0.0,0.0,-0.21852016507791
1666091661383569830,0.15000000000000002,0.0,0.0,0.0,0.0,-0.21317479532965478
1666091661432718591,0.16500000000000004,0.0,0.0,0.0,0.0,-0.20782942558139955
1666091661483002564,0.18000000000000005,0.0,0.0,0.0,0.0,-0.2025289441247518
1666091661532754520,0.19500000000000006,0.0,0.0,0.0,0.0,-0.19723912124727636
1666091661582639136,0.21000000000000008,0.0,0.0,0.0,0.0,-0.1867609364687997
1666091661632627197,0.2250000000000001,0.0,0.0,0.0,0.0,-0.17628275169032306
1666091661682907680,0.2400000000000001,0.0,0.0,0.0,0.0,-0.17162894341786958
1666091661732653377,0.2550000000000001,0.0,0.0,0.0,0.0,-0.1669751351454161
1666091661782895982,0.27000000000000013,0.0,0.0,0.0,0.0,-0.1568769389116981
1666091661832637863,0.28500000000000014,0.0,0.0,0.0,0.0,-0.1467787426779801
1666091661882821514,0.30000000000000016,0.0,0.0,0.0,0.0,-0.1427926313794848
1666091661932633681,0.31500000000000017,0.0,0.0,0.0,0.0,-0.1388065200809895
1666091661982746287,0.3300000000000002,0.0,0.0,0.0,0.0,-0.1348204087824942
1666091662032767835,0.3450000000000002,0.0,0.0,0.0,0.0,-0.12657834862426473
1666091662082723521,0.3600000000000002,0.0,0.0,0.0,0.0,-0.11833628846603525
1666091662132658562,0.3750000000000002,0.0,0.0,0.0,0.0,-0.1158273504798086
1666091662183632122,0.39000000000000024,0.0,0.0,0.0,0.0,-0.11331850956479034
1666091662232616947,0.40500000000000025,0.0,0.0,0.0,0.0,-0.11137422095798982
1666091662283380301,0.42000000000000026,0.0,0.0,0.0,0.0,-0.10940996787214574
1666091662332650564,0.4350000000000003,0.0,0.0,0.0,0.0,-0.10744571478630166
1666091662383178573,0.4500000000000003,0.0,0.0,0.0,0.0,-0.1057325144861407
1666091662433012898,0.4650000000000003,0.0,0.0,0.0,0.0,-0.10401931418597973
1666091662488632115,0.4800000000000003,0.0,0.0,0.0,0.0,-0.10257236965890705
1666091662532678889,0.49500000000000033,0.0,0.0,0.0,0.0,-0.10112542513183437
1666091662583001223,0.5100000000000003,0.0,0.0,0.0,0.0,-0.09967848060476169
1666091662632756454,0.5250000000000004,0.0,0.0,0.0,0.0,-0.09863714061009445
1666091662682855028,0.5400000000000004,0.0,0.0,0.0,0.0,-0.0975958006154272
1666091662732681527,0.5550000000000004,0.0,0.0,0.0,0.0,-0.09722440424896986
1666091662783320865,0.5700000000000004,0.0,0.0,0.0,0.0,-0.09706348644275342
1666091662832747732,0.5850000000000004,0.0,0.0,0.0,0.0,-0.096902568636537
1666091662883470532,0.6000000000000004,0.0,0.0,0.0,0.0,-0.09713398309966827
1666091662932688261,0.6150000000000004,0.0,0.0,0.0,0.0,-0.09736539756279954
1666091662983002319,0.6300000000000004,0.0,0.0,0.0,0.0,-0.09759681202593082
1666091663032776945,0.6450000000000005,0.0,0.0,0.0,0.0,-0.09940620182807142
1666091663083067249,0.6600000000000005,0.0,0.0,0.0,0.0,-0.05582893121322646
1666091663132600951,0.6750000000000005,0.0,0.0,0.0,0.0,-0.012251660598381474
1666091663182784627,0.6792172193527222,0.0,0.0,0.0,0.0,-4.996003610813204e-16
1666091663232658202,0.6166956424713135,0.0,0.0,0.0,0.0,-0.009545013308525085
1666091663282794158,0.6170510649681091,0.0,0.0,0.0,0.0,-0.009901060722768307
1666091663332692836,0.6170510649681091,0.0,0.0,0.0,0.0,-0.009901060722768307
1666091663383220689,0.6153492331504822,0.0,0.0,0.0,0.0,-0.10782067477703094
1666091663433471250,0.5863266587257385,0.0,0.0,0.0,0.0,-0.10580191016197205
1666091663482676606,0.5863266587257385,0.0,0.0,0.0,0.0,-0.10580191016197205
1666091663532690873,0.5570469498634338,0.0,0.0,0.0,0.0,-0.10409516841173172
1666091663582849511,0.5570469498634338,0.0,0.0,0.0,0.0,-0.10409516841173172
1666091663632748218,0.5354391932487488,0.0,0.0,0.0,0.0,-0.10390960425138474
1666091663682761509,0.4851789286540658,0.0,0.0,0.0,0.0,-0.0039096042513847296
1666091663733576181,0.4800495207309723,0.0,0.0,0.0,0.0,0.006296087987720966
1666091663783060687,0.48343974969562065,0.0,0.0,0.0,0.0,-0.09370391201227904
1666091663832609366,0.45997291803359985,0.0,0.0,0.0,0.0,-0.1032291129231453
1666091663884474020,0.4329310655593872,0.0,0.0,0.0,0.0,-0.10175632685422897
1666091663932625037,0.4329310655593872,0.0,0.0,0.0,0.0,-0.10175632685422897
1666091663982731302,0.4329310655593872,0.0,0.0,0.0,0.0,-0.10175632685422897
1666091664033195679,0.4329310655593872,0.0,0.0,0.0,0.0,-0.10175632685422897
1666091664083191619,0.38632837129836584,0.0,0.0,0.0,0.0,-0.0017563268542289678
1666091664132604403,0.2363283712983658,0.0,0.0,0.0,0.0,-0.06884042338247766
1666091664182606666,0.08632837129836579,0.0,0.0,0.0,0.0,-0.13592451991072635
1666091664233157857,0.0,0.0,0.0,0.0,0.0,-0.17453292519943345
1666091664282777260,0.0,0.0,0.0,0.0,0.0,-0.17453292519943345
1666091664333518270,0.0,0.0,0.0,0.0,0.0,-0.17453292519943345
1666091664383149165,0.0,0.0,0.0,0.0,0.0,-0.17453292519943345
1666091664432664350,0.0,0.0,0.0,0.0,0.0,-0.17453292519943345
1666091664482671995,0.0,0.0,0.0,0.0,0.0,-0.2150381196929057
1666091664533338750,0.0,0.0,0.0,0.0,0.0,-0.17453292519943345
1666091664583278862,0.0,0.0,0.0,0.0,0.0,-0.21351831516138778
1666091664632800599,0.0,0.0,0.0,0.0,0.0,-0.21351831516138778
1666091664682769807,0.0,0.0,0.0,0.0,0.0,-0.21351831516138778
1666091664732824981,0.0,0.0,0.0,0.0,0.0,-0.17453292519943345
1666091664782913706,0.0,0.0,0.0,0.0,0.0,-0.17453292519943345
1666091664834829172,0.0,0.0,0.0,0.0,0.0,-0.17453292519943345
1666091664883083918,0.0,0.0,0.0,0.0,0.0,-0.17453292519943345
1666091664932694140,0.0,0.0,0.0,0.0,0.0,-0.17453292519943345
1666091664983086075,0.0,0.0,0.0,0.0,0.0,-0.17453292519943345
1666091665036303425,0.015,0.0,0.0,0.0,0.0,-0.17453292519943345
1666091665082763086,0.03,0.0,0.0,0.0,0.0,-0.17131484199620048
1666091665133298157,0.045,0.0,0.0,0.0,0.0,-0.16796853816525906
1666091665182757011,0.06,0.0,0.0,0.0,0.0,-0.16180246930803485
1666091665232889742,0.075,0.0,0.0,0.0,0.0,-0.15851889852906773
1666091665283513758,0.09,0.0,0.0,0.0,0.0,-0.15297680495128557
1666091665333367496,0.105,0.0,0.0,0.0,0.0,-0.14743471137350342
1666091665382968368,0.12,0.0,0.0,0.0,0.0,-0.14212245407836316
1666091665432638206,0.135,0.0,0.0,0.0,0.0,-0.1368101967832229
1666091665483009009,0.15000000000000002,0.0,0.0,0.0,0.0,-0.12936097930991491
1666091665533749951,0.16500000000000004,0.0,0.0,0.0,0.0,-0.12434702339279591
1666091665583642611,0.18000000000000005,0.0,0.0,0.0,0.0,-0.1193330674756769
1666091665632980772,0.19500000000000006,0.0,0.0,0.0,0.0,-0.10753099238063528
1666091665683771070,0.21000000000000008,0.0,0.0,0.0,0.0,-0.09570547076632313
1666091665733115939,0.2250000000000001,0.0,0.0,0.0,0.0,-0.08474275491106438
1666091665783181203,0.2400000000000001,0.0,0.0,0.0,0.0,-0.07348900931779577
1666091665832718509,0.2550000000000001,0.0,0.0,0.0,0.0,-0.06223526372452716
1666091665882906729,0.27000000000000013,0.0,0.0,0.0,0.0,-0.04318435593205938
1666091665932745679,0.28500000000000014,0.0,0.0,0.0,0.0,-0.0241334481395916
1666091665982985581,0.30000000000000016,0.0,0.0,0.0,0.0,-0.00508328614249471
1666091666032650303,0.31500000000000017,0.0,0.0,0.0,0.0,0.01396687585460218
1666091666082874587,0.3300000000000002,0.0,0.0,0.0,0.0,0.03301703785169907
1666091666132667158,0.3450000000000002,0.0,0.0,0.0,0.0,0.0493778810978355
1666091666182780972,0.3600000000000002,0.0,0.0,0.0,0.0,0.0683735300168187
1666091666232840244,0.3750000000000002,0.0,0.0,0.0,0.0,0.0873691789358019
1666091666282912290,0.39000000000000024,0.0,0.0,0.0,0.0,0.11368299002563469
1666091666332673929,0.40500000000000025,0.0,0.0,0.0,0.0,0.13999680111546747
1666091666382727590,0.42000000000000026,0.0,0.0,0.0,0.0,0.16631061220530025
1666091666432969885,0.4350000000000003,0.0,0.0,0.0,0.0,0.19262442329513302
1666091666483275198,0.4500000000000003,0.0,0.0,0.0,0.0,0.2284393236291314
1666091666532713353,0.4650000000000003,0.0,0.0,0.0,0.0,0.2636753713913679
1666091666583509322,0.4800000000000003,0.0,0.0,0.0,0.0,0.28685407461048035
1666091666632719215,0.49500000000000033,0.0,0.0,0.0,0.0,0.3100327778295928
1666091666683267612,0.5100000000000003,0.0,0.0,0.0,0.0,0.3332114810487053
1666091666733402682,0.5250000000000004,0.0,0.0,0.0,0.0,0.3691179935724183
1666091666782696137,0.5400000000000004,0.0,0.0,0.0,0.0,0.40502450609613133
1666091666832915733,0.5550000000000004,0.0,0.0,0.0,0.0,0.44177729670648597
1666091666882975906,0.5700000000000004,0.0,0.0,0.0,0.0,0.47853008731684066
1666091666932793203,0.5736807584762573,0.0,0.0,0.0,0.0,0.5235987755982984
1666091666985473872,0.5736807584762573,0.0,0.0,0.0,0.0,0.5235987755982984
1666091667036048937,0.5663209905889476,0.0,0.0,0.0,0.0,0.6235987755982983
1666091667082800935,0.5492468476295471,0.0,0.0,0.0,0.0,0.6981317007977313
1666091667132603770,0.5492468476295471,0.0,0.0,0.0,0.0,0.6981317007977313
1666091667182974299,0.5642468476295471,0.0,0.0,0.0,0.0,0.6981317007977313
1666091667233292710,0.5792468476295471,0.0,0.0,0.0,0.0,0.6981317007977313
1666091667282885383,0.4991278350353241,0.0,0.0,0.0,0.0,0.6981317007977313
1666091667332783877,0.49884352087974543,0.0,0.0,0.0,0.0,0.6981317007977313
1666091667382706868,0.48362916707992554,0.0,0.0,0.0,0.0,0.6981317007977313
1666091667432844433,0.48362916707992554,0.0,0.0,0.0,0.0,0.6981317007977313
1666091667483418458,0.4474830627441406,0.0,0.0,0.0,0.0,0.6981317007977313
1666091667532974217,0.4373471815441522,0.0,0.0,0.0,0.0,0.7981317007977313
1666091667582854180,0.42908185720443726,0.0,0.0,0.0,0.0,0.8726646259971643
1666091667632685415,0.42908185720443726,0.0,0.0,0.0,0.0,0.8726646259971643
1666091667683150362,0.4128471612930298,0.0,0.0,0.0,0.0,0.8726646259971643
1666091667732648556,0.39842015504837036,0.0,0.0,0.0,0.0,0.8726646259971643
1666091667782764748,0.39842015504837036,0.0,0.0,0.0,0.0,0.8726646259971643
1666091667833422543,0.4134201550483704,0.0,0.0,0.0,0.0,0.8726646259971643
1666091667882870979,0.4284201550483704,0.0,0.0,0.0,0.0,0.8726646259971643
1666091667934105288,0.3593176603317261,0.0,0.0,0.0,0.0,0.8726646259971643
1666091667982815574,0.3743176603317261,0.0,0.0,0.0,0.0,0.8986525367724981
1666091668032766727,0.3893176603317261,0.0,0.0,0.0,0.0,0.9246404475478319
1666091668083763251,0.4043176603317261,0.0,0.0,0.0,0.0,0.9506283583231656
1666091668132689676,0.3423774540424347,0.0,0.0,0.0,0.0,0.8726646259971643
1666091668183904796,0.3423774540424347,0.0,0.0,0.0,0.0,0.8726646259971643
1666091668232760594,0.3355615437030792,0.0,0.0,0.0,0.0,0.8726646259971643
1666091668282731329,0.3355615437030792,0.0,0.0,0.0,0.0,0.8726646259971643
1666091668332959422,0.3306261897087097,0.0,0.0,0.0,0.0,0.8726646259971643
1666091668383554558,0.324919730424881,0.0,0.0,0.0,0.0,0.8726646259971643
1666091668432858806,0.324919730424881,0.0,0.0,0.0,0.0,0.8726646259971643
1666091668484709732,0.33094215393066406,0.0,0.0,0.0,0.0,0.8726646259971643
1666091668533090153,0.33094215393066406,0.0,0.0,0.0,0.0,0.8726646259971643
1666091668583455154,0.3459421539306641,0.0,0.0,0.0,0.0,0.8726646259971643
1666091668633286538,0.3400936424732208,0.0,0.0,0.0,0.0,0.8726646259971643
1666091668683246185,0.3400936424732208,0.0,0.0,0.0,0.0,0.8726646259971643
1666091668733294013,0.35509364247322084,0.0,0.0,0.0,0.0,0.8726646259971643
1666091668782957353,0.37009364247322085,0.0,0.0,0.0,0.0,0.8726646259971643
1666091668833324161,0.34972700476646423,0.0,0.0,0.0,0.0,0.8726646259971643
1666091668882724519,0.35800260305404663,0.0,0.0,0.0,0.0,0.6981317007977313
1666091668932693957,0.35800260305404663,0.0,0.0,0.0,0.0,0.6981317007977313
1666091668982781626,0.35800260305404663,0.0,0.0,0.0,0.0,0.6981317007977313
1666091669033030560,0.37026616930961603,0.0,0.0,0.0,0.0,0.6981317007977313
1666091669083294295,0.3749927580356598,0.0,0.0,0.0,0.0,0.6981317007977313
1666091669132664501,0.3749927580356598,0.0,0.0,0.0,0.0,0.6981317007977313
1666091669184312222,0.37747126817703247,0.0,0.0,0.0,0.0,0.6981317007977313
1666091669232729569,0.37747126817703247,0.0,0.0,0.0,0.0,0.6981317007977313
1666091669282735962,0.37747126817703247,0.0,0.0,0.0,0.0,0.6981317007977313
1666091669333036944,0.379146933555603,0.0,0.0,0.0,0.0,0.6981317007977313
1666091669382840303,0.379146933555603,0.0,0.0,0.0,0.0,0.6981317007977313
1666091669433258987,0.3898003399372101,0.0,0.0,0.0,0.0,0.6981317007977313
1666091669483248013,0.39735138416290283,0.0,0.0,0.0,0.0,0.6981317007977313
1666091669532689883,0.39735138416290283,0.0,0.0,0.0,0.0,0.6981317007977313
1666091669582664395,0.39735138416290283,0.0,0.0,0.0,0.0,0.6981317007977313
1666091669632742048,0.39944520592689514,0.0,0.0,0.0,0.0,0.6981317007977313
1666091669685367176,0.39944520592689514,0.0,0.0,0.0,0.0,0.6981317007977313
1666091669732954632,0.41444520592689515,0.0,0.0,0.0,0.0,0.6981317007977313
1666091669782764800,0.42944520592689517,0.0,0.0,0.0,0.0,0.6981317007977313
1666091669833104323,0.3873805105686188,0.0,0.0,0.0,0.0,0.5235987755982984
1666091669882894952,0.3873805105686188,0.0,0.0,0.0,0.0,0.5235987755982984
1666091669932742551,0.38087064027786255,0.0,0.0,0.0,0.0,0.5235987755982984
1666091669983570988,0.38087064027786255,0.0,0.0,0.0,0.0,0.5235987755982984
1666091670032639871,0.3765140771865844,0.0,0.0,0.0,0.0,0.5235987755982984
1666091670082817565,0.3765140771865844,0.0,0.0,0.0,0.0,0.5235987755982984
1666091670132709762,0.39151407718658443,0.0,0.0,0.0,0.0,0.5235987755982984
1666091670183717958,0.36250635981559753,0.0,0.0,0.0,0.0,0.5235987755982984
1666091670232938623,0.36250635981559753,0.0,0.0,0.0,0.0,0.5235987755982984
1666091670282740968,0.37750635981559755,0.0,0.0,0.0,0.0,0.5235987755982984
1666091670333338262,0.35639292001724243,0.0,0.0,0.0,0.0,0.5235987755982984
1666091670382944956,0.35639292001724243,0.0,0.0,0.0,0.0,0.5235987755982984
1666091670432859877,0.3497806787490844,0.0,0.0,0.0,0.0,0.5235987755982984
1666091670483587866,0.3497806787490844,0.0,0.0,0.0,0.0,0.5235987755982984
1666091670532835019,0.3368421196937561,0.0,0.0,0.0,0.0,0.5235987755982984
1666091670583136291,0.33691319823265076,0.0,0.0,0.0,0.0,0.5235987755982984
1666091670632879402,0.18691319823265073,0.0,0.0,0.0,0.0,0.4734353613826888
1666091670682855410,0.03691319823265071,0.0,0.0,0.0,0.0,0.4232719471670793
1666091670732964618,0.0,0.0,0.0,0.0,0.0,0.43128058874640557
1666091670784739186,0.0,0.0,0.0,0.0,0.0,0.43128058874640557
1666091670833959224,0.0,0.0,0.0,0.0,0.0,0.436659799659766
1666091670883420219,0.0,0.0,0.0,0.0,0.0,0.436659799659766
1666091670933154911,0.0,0.0,0.0,0.0,0.0,0.44497264136889
1666091670982947773,0.0,0.0,0.0,0.0,0.0,0.4428261313839511
1666091671033176575,0.0,0.0,0.0,0.0,0.0,0.4537419057820263
1666091671082796721,0.0,0.0,0.0,0.0,0.0,0.4537419057820263
1666091671132801701,0.0,0.0,0.0,0.0,0.0,0.44787079539717684
1666091671183634354,0.0,0.0,0.0,0.0,0.0,0.43591322879024746
1666091671232629115,0.0,0.0,0.0,0.0,0.0,0.43591322879024746
1666091671282677696,0.0,0.0,0.0,0.0,0.0,0.4019552710930721
1666091671332626411,0.0,0.0,0.0,0.0,0.0,0.4019552710930721
1666091671383138426,0.0,0.0,0.0,0.0,0.0,0.4019552710930721
1666091671433777191,0.0,0.0,0.0,0.0,0.0,0.39061566835004574
1666091671483591528,0.0,0.0,0.0,0.0,0.0,0.39061566835004574
1666091671533288258,0.015,0.0,0.0,0.0,0.0,0.3889090418072357
1666091671582827790,0.03,0.0,0.0,0.0,0.0,0.3875313738619529
1666091671632905552,0.045,0.0,0.0,0.0,0.0,0.38615370591667014
1666091671682717889,0.06,0.0,0.0,0.0,0.0,0.3846662137004373
1666091671732649582,0.075,0.0,0.0,0.0,0.0,0.38317872148420445
1666091671783100583,0.09,0.0,0.0,0.0,0.0,0.3816912292679716
1666091671832900269,0.105,0.0,0.0,0.0,0.0,0.38028189257707906
1666091671882800691,0.12,0.0,0.0,0.0,0.0,0.37118854202435686
1666091671933368126,0.135,0.0,0.0,0.0,0.0,0.36209519147163466
1666091671982679306,0.15000000000000002,0.0,0.0,0.0,0.0,0.35052074367894004
1666091672032888543,0.16500000000000004,0.0,0.0,0.0,0.0,0.3389462958862454
1666091672082887239,0.18000000000000005,0.0,0.0,0.0,0.0,0.3273718480935508
1666091672139398766,0.19500000000000006,0.0,0.0,0.0,0.0,0.31106538158362446
1666091672183068726,0.21000000000000008,0.0,0.0,0.0,0.0,0.29507131312372564
1666091672232611223,0.2250000000000001,0.0,0.0,0.0,0.0,0.27907724466382683
1666091672282890851,0.2400000000000001,0.0,0.0,0.0,0.0,0.2601628316036486
1666091672332626451,0.2550000000000001,0.0,0.0,0.0,0.0,0.24124841854347043
1666091672382727843,0.27000000000000013,0.0,0.0,0.0,0.0,0.22548204201837407
1666091672432988976,0.28500000000000014,0.0,0.0,0.0,0.0,0.20971566549327772
1666091672482715135,0.30000000000000016,0.0,0.0,0.0,0.0,0.1896697160097589
1666091672532605374,0.31500000000000017,0.0,0.0,0.0,0.0,0.16962376652624006
1666091672582600548,0.3300000000000002,0.0,0.0,0.0,0.0,0.1391621717084931
1666091672633052750,0.3450000000000002,0.0,0.0,0.0,0.0,0.10851726365895963
1666091672682773585,0.3600000000000002,0.0,0.0,0.0,0.0,0.07787235560942614
1666091672732846816,0.3750000000000002,0.0,0.0,0.0,0.0,0.04504432414244045
1666091672782669483,0.39000000000000024,0.0,0.0,0.0,0.0,0.00937200234554137
1666091672832782443,0.4026417694754186,0.0,0.0,0.0,0.0,-0.09062799765445864
1666091672882747934,0.41339099407196045,0.0,0.0,0.0,0.0,-0.17453292519943345
1666091672933280051,0.42695989910352655,0.0,0.0,0.0,0.0,-0.27453292519943345
1666091672982659744,0.4370732009410858,0.0,0.0,0.0,0.0,-0.3490658503988664
1666091673032705544,0.3622899651527405,0.0,0.0,0.0,0.0,-0.3490658503988664
1666091673082620271,0.3622899651527405,0.0,0.0,0.0,0.0,-0.3490658503988664
1666091673132680080,0.21228996515274046,0.0,0.0,0.0,0.0,-0.3233972449923881
1666091673182613667,0.062289965152740434,0.0,0.0,0.0,0.0,-0.29772863958590984
1666091673232926919,0.0,0.0,0.0,0.0,0.0,-0.2973731558212629
1666091673283059097,0.0,0.0,0.0,0.0,0.0,-0.30626994379986305
1666091673332822432,0.0,0.0,0.0,0.0,0.0,-0.30626994379986305
1666091673382936498,0.0,0.0,0.0,0.0,0.0,-0.31165958711428404
1666091673432813489,0.0,0.0,0.0,0.0,0.0,-0.3151657694283891
1666091673482679202,0.0,0.0,0.0,0.0,0.0,-0.3181713052050059
1666091673532698908,0.0,0.0,0.0,0.0,0.0,-0.3181713052050059
1666091673583266046,0.0,0.0,0.0,0.0,0.0,-0.3181713052050059
1666091673633089677,0.0,0.0,0.0,0.0,0.0,-0.31932566033244036
1666091673682639437,0.0,0.0,0.0,0.0,0.0,-0.31932566033244036
1666091673733438259,0.0,0.0,0.0,0.0,0.0,-0.31932566033244036
1666091673783192435,0.0,0.0,0.0,0.0,0.0,-0.3209162470500785
1666091673833331032,0.0,0.0,0.0,0.0,0.0,-0.3082990086984471
1666091673883213504,0.0,0.0,0.0,0.0,0.0,-0.3082990086984471
1666091673932977700,0.0,0.0,0.0,0.0,0.0,-0.2995194892888253
1666091673982748947,0.0,0.0,0.0,0.0,0.0,-0.2995194892888253
1666091674033875759,0.0,0.0,0.0,0.0,0.0,-0.2811304937642436
1666091674082788048,0.0,0.0,0.0,0.0,0.0,-0.2606521720226784
1666091674132830762,0.0,0.0,0.0,0.0,0.0,-0.2606521720226784
1666091674183469904,0.0,0.0,0.0,0.0,0.0,-0.2540007602184717
1666091674232606769,0.0,0.0,0.0,0.0,0.0,-0.2510485276823329
1666091674282813078,0.0,0.0,0.0,0.0,0.0,-0.24535741861728627
1666091674332738570,0.0,0.0,0.0,0.0,0.0,-0.24535741861728627
1666091674382849686,0.0,0.0,0.0,0.0,0.0,-0.23809413201835147
1666091674432655627,0.0,0.0,0.0,0.0,0.0,-0.23809413201835147
1666091674482698169,0.0,0.0,0.0,0.0,0.0,-0.23809413201835147
1666091674532963736,0.0,0.0,0.0,0.0,0.0,-0.22181943159808953
1666091674582919442,0.0,0.0,0.0,0.0,0.0,-0.22181943159808953
1666091674633132112,0.0,0.0,0.0,0.0,0.0,-0.2221082579319637
1666091674683228226,0.0,0.0,0.0,0.0,0.0,-0.2221082579319637
1666091674732707492,0.0,0.0,0.0,0.0,0.0,-0.21681223215012177
1666091674783002969,0.0,0.0,0.0,0.0,0.0,-0.17453292519943345
1666091674832766571,0.0,0.0,0.0,0.0,0.0,-0.17453292519943345
1666091674882682822,0.0,0.0,0.0,0.0,0.0,-0.17453292519943345
1666091674932910733,0.0,0.0,0.0,0.0,0.0,-0.17453292519943345
1666091674982860110,0.0,0.0,0.0,0.0,0.0,-0.17453292519943345
1666091675032913108,0.0,0.0,0.0,0.0,0.0,-0.17453292519943345
1666091675082666377,0.0,0.0,0.0,0.0,0.0,-0.17453292519943345
1666091675133054531,0.0,0.0,0.0,0.0,0.0,-0.17453292519943345
1666091675182593592,0.0,0.0,0.0,0.0,0.0,-0.17453292519943345
1666091675233268740,0.0,0.0,0.0,0.0,0.0,-0.17453292519943345
1666091675282769256,0.0,0.0,0.0,0.0,0.0,-0.17453292519943345
1666091675333146280,0.0,0.0,0.0,0.0,0.0,-0.17453292519943345
1666091675382830153,0.0,0.0,0.0,0.0,0.0,-0.17453292519943345
1666091675433593832,0.0,0.0,0.0,0.0,0.0,-0.17453292519943345
1666091675482747630,0.0,0.0,0.0,0.0,0.0,-0.17453292519943345
1666091675532811337,0.0,0.0,0.0,0.0,0.0,-0.17453292519943345
1666091675582762319,0.0,0.0,0.0,0.0,0.0,-0.17453292519943345
1666091675632938189,0.0,0.0,0.0,0.0,0.0,-0.17453292519943345
1666091675682689910,0.0,0.0,0.0,0.0,0.0,-0.17453292519943345
1666091675733708045,0.0,0.0,0.0,0.0,0.0,-0.17453292519943345
1666091675782652160,0.0,0.0,0.0,0.0,0.0,-0.17453292519943345
1666091675832847997,0.0,0.0,0.0,0.0,0.0,-0.17453292519943345
1666091675882790906,0.0,0.0,0.0,0.0,0.0,-0.17453292519943345
1666091675934571436,0.0,0.0,0.0,0.0,0.0,-0.17453292519943345
1666091675982637379,0.0,0.0,0.0,0.0,0.0,-0.17453292519943345
1666091676032811968,0.0,0.0,0.0,0.0,0.0,-0.17453292519943345
1666091676082791477,0.0,0.0,0.0,0.0,0.0,-0.17453292519943345
1666091676132697359,0.0,0.0,0.0,0.0,0.0,-0.17453292519943345
1666091676183449402,0.0,0.0,0.0,0.0,0.0,-0.17453292519943345
1666091676232890692,0.0,0.0,0.0,0.0,0.0,-0.17453292519943345
1666091676283439319,0.0,0.0,0.0,0.0,0.0,-0.21662777949818465
1666091676332922275,0.0,0.0,0.0,0.0,0.0,-0.2116702516107624
1666091676382654735,0.0,0.0,0.0,0.0,0.0,-0.2116702516107624
1666091676432652271,0.0,0.0,0.0,0.0,0.0,-0.23715412531698507
1666091676482935408,0.0,0.0,0.0,0.0,0.0,-0.24144613354573174
1666091676532911863,0.0,0.0,0.0,0.0,0.0,-0.24144613354573174
1666091676582814609,0.0,0.0,0.0,0.0,0.0,-0.26708589968374224
1666091676632614190,0.0,0.0,0.0,0.0,0.0,-0.26708589968374224
1666091676682925728,0.0,0.0,0.0,0.0,0.0,0.0
1666091676783187069,0.0,0.0,0.0,0.0,0.0,-0.1
1666091676833119818,0.0,0.0,0.0,0.0,0.0,-0.2
1666091676883207021,0.0,0.0,0.0,0.0,0.0,-0.30000000000000004
1666091676932674875,0.0,0.0,0.0,0.0,0.0,-0.32673813621987013
1666091676982851313,0.0,0.0,0.0,0.0,0.0,-0.3502312058234813
1666091677033307317,0.0,0.0,0.0,0.0,0.0,-0.35636243003585083
1666091677082782242,0.0,0.0,0.0,0.0,0.0,-0.35636243003585083
1666091677133140543,0.0,0.0,0.0,0.0,0.0,-0.388271927500087
1666091677182594413,0.0,0.0,0.0,0.0,0.0,-0.39734917791783164
1666091677232926893,0.0,0.0,0.0,0.0,0.0,-0.39734917791783164
1666091677282753010,0.0,0.0,0.0,0.0,0.0,-0.39734917791783164
1666091677332815314,0.0,0.0,0.0,0.0,0.0,-0.41410674170227385
1666091677382665729,0.0,0.0,0.0,0.0,0.0,-0.40855798720429404
1666091677433561672,0.0,0.0,0.0,0.0,0.0,-0.40855798720429404
1666091677482700410,0.0,0.0,0.0,0.0,0.0,-0.41330696106371495
1666091677532625905,0.0,0.0,0.0,0.0,0.0,-0.41362271436687525
1666091677582891391,0.0,0.0,0.0,0.0,0.0,-0.41362271436687525
1666091677632672513,0.0,0.0,0.0,0.0,0.0,-0.40590094132644366
1666091677682654571,0.0,0.0,0.0,0.0,0.0,-0.40590094132644366
1666091677733644308,0.0,0.0,0.0,0.0,0.0,-0.3937232965486592
1666091677783045521,0.0,0.0,0.0,0.0,0.0,-0.3937232965486592
1666091677832914518,0.0,0.0,0.0,0.0,0.0,-0.38762282663427544
1666091677882727790,0.0,0.0,0.0,0.0,0.0,-0.38762282663427544
1666091677933861019,0.0,0.0,0.0,0.0,0.0,-0.36812138245567627
1666091677982679540,0.0,0.0,0.0,0.0,0.0,-0.36812138245567627
1666091678033367657,0.0,0.0,0.0,0.0,0.0,-0.3379883818249596
1666091678085013824,0.0,0.0,0.0,0.0,0.0,-0.3264732121804655
1666091678132840872,0.0,0.0,0.0,0.0,0.0,-0.3264732121804655
1666091678183137403,0.0,0.0,0.0,0.0,0.0,-0.3264732121804655
1666091678233487173,0.0,0.0,0.0,0.0,0.0,-0.3127362509116015
1666091678282790626,0.0,0.0,0.0,0.0,0.0,-0.3127362509116015
1666091678332848677,0.0,0.0,0.0,0.0,0.0,-0.27996250217879276
1666091678382679792,0.0,0.0,0.0,0.0,0.0,-0.27163140833147403
1666091678434759148,0.0,0.0,0.0,0.0,0.0,-0.27163140833147403
1666091678482727927,0.0,0.0,0.0,0.0,0.0,-0.27163140833147403
1666091678533591124,0.0,0.0,0.0,0.0,0.0,-0.26921000832577185
1666091678583006207,0.0,0.0,0.0,0.0,0.0,-0.26921000832577185
1666091678632731753,0.0,0.0,0.0,0.0,0.0,-0.2594275030804764
1666091678682947779,0.0,0.0,0.0,0.0,0.0,-0.252719995602017
1666091678732738668,0.0,0.0,0.0,0.0,0.0,-0.252719995602017
1666091678783162547,0.0,0.0,0.0,0.0,0.0,-0.252719995602017
1666091678832866793,0.0,0.0,0.0,0.0,0.0,-0.2503927020788693
1666091678885069714,0.0,0.0,0.0,0.0,0.0,-0.2340557398851479
1666091678932612009,0.0,0.0,0.0,0.0,0.0,-0.2340557398851479
1666091678982628827,0.0,0.0,0.0,0.0,0.0,-0.228298252002436
1666091679033322444,0.0,0.0,0.0,0.0,0.0,-0.22333095594114316
1666091679083505559,0.0,0.0,0.0,0.0,0.0,-0.22333095594114316
1666091679132835218,0.0,0.0,0.0,0.0,0.0,-0.221349671798424
1666091679186016877,0.0,0.0,0.0,0.0,0.0,-0.21364551605698773
