%time,field.x,field.y,field.z
1663844283304617504,8.529208833351732e-05,0.0,0.0
1663844283324888083,8.529208833351732e-05,0.0,0.0
1663844283344679535,8.529208833351732e-05,0.0,0.0
1663844283364649475,8.529208833351732e-05,0.0,0.0
1663844283384536845,8.529208833351732e-05,0.0,0.0
1663844283404626120,8.529208833351732e-05,0.0,0.0
1663844283424585126,8.529208833351732e-05,0.0,0.0
1663844283445470209,8.529208833351732e-05,0.0,0.0
1663844283464646128,8.529208833351732e-05,0.0,0.0
1663844283505506632,8.529208833351732e-05,0.0,0.0
1663844283505537268,8.529208833351732e-05,0.0,0.0
1663844283549653053,8.529208833351732e-05,0.0,0.0
1663844283549672794,8.529208833351732e-05,0.0,0.0
1663844283594026682,8.529208833351732e-05,0.0,0.0
1663844283594139728,8.529208833351732e-05,0.0,0.0
1663844283637587217,8.529208833351732e-05,0.0,0.0
1663844283637617141,8.529208833351732e-05,0.0,0.0
1663844283681686624,8.529208833351732e-05,0.0,0.0
1663844283681718279,8.529208833351732e-05,0.0,0.0
1663844283729596602,8.529208833351732e-05,0.0,0.0
1663844283729636745,8.529208833351732e-05,0.0,0.0
1663844283729652850,8.529208833351732e-05,0.0,0.0
1663844283773535283,8.529208833351732e-05,0.0,0.0
1663844283773549237,8.529208833351732e-05,0.0,0.0
1663844283784377071,8.529208833351732e-05,0.0,0.0
1663844283804260542,8.529208833351732e-05,0.0,0.0
1663844283845763405,8.529208833351732e-05,0.0,0.0
1663844283845780589,8.529208833351732e-05,0.0,0.0
1663844283889672342,8.529208833351732e-05,0.0,0.0
1663844283889721659,8.529208833351732e-05,0.0,0.0
1663844283933534464,8.529208833351732e-05,0.0,0.0
1663844283933542032,8.529208833351732e-05,0.0,0.0
1663844283977554959,8.529208833351732e-05,0.0,0.0
1663844283977566502,8.529208833351732e-05,0.0,0.0
1663844284021563363,8.529208833351732e-05,0.0,0.0
1663844284021580513,8.529208833351732e-05,0.0,0.0
1663844284065538595,8.529208833351732e-05,0.0,0.0
1663844284065554195,8.529208833351732e-05,0.0,0.0
1663844284065561843,8.529208833351732e-05,0.0,0.0
1663844284109523575,8.529208833351732e-05,0.0,0.0
1663844284109560292,8.529208833351732e-05,0.0,0.0
1663844284125202242,8.529208833351732e-05,0.0,0.0
1663844284144198057,8.529208833351732e-05,0.0,0.0
1663844284185633491,8.529208833351732e-05,0.0,0.0
1663844284185653269,8.529208833351732e-05,0.0,0.0
1663844284229613660,8.529208833351732e-05,0.0,0.0
1663844284229661600,8.529208833351732e-05,0.0,0.0
1663844284273584654,8.529208833351732e-05,0.0,0.0
1663844284273595541,8.529208833351732e-05,0.0,0.0
1663844284317606232,8.529208833351732e-05,0.0,0.0
1663844284317618429,8.529208833351732e-05,0.0,0.0
1663844284365568976,8.529208833351732e-05,0.0,0.0
1663844284365585729,8.529208833351732e-05,0.0,0.0
1663844284365602030,8.529208833351732e-05,0.0,0.0
1663844284413591425,8.529208833351732e-05,0.0,0.0
1663844284413604311,8.529208833351732e-05,0.0,0.0
1663844284425176085,8.529208833351732e-05,0.0,0.0
1663844284445032745,8.529208833351732e-05,0.0,0.0
1663844284485563182,8.529208833351732e-05,0.0,0.0
1663844284485595463,8.529208833351732e-05,0.0,0.0
1663844284529634225,8.529208833351732e-05,0.0,0.0
1663844284529648627,8.529208833351732e-05,0.0,0.0
1663844284573653566,8.529208833351732e-05,0.0,0.0
1663844284573684244,8.529208833351732e-05,0.0,0.0
1663844284617612142,8.529208833351732e-05,0.0,0.0
1663844284617623433,8.529208833351732e-05,0.0,0.0
1663844284661610611,8.529208833351732e-05,0.0,0.0
1663844284661637500,8.529208833351732e-05,0.0,0.0
1663844284705529467,8.529208833351732e-05,0.0,0.0
1663844284705562457,8.529208833351732e-05,0.0,0.0
1663844284705595925,8.529208833351732e-05,0.0,0.0
1663844284749674575,8.529208833351732e-05,0.0,0.0
1663844284749708350,8.529208833351732e-05,0.0,0.0
1663844284765128868,8.529208833351732e-05,0.0,0.0
1663844284784951449,8.529208833351732e-05,0.0,0.0
1663844284825588205,8.529208833351732e-05,0.0,0.0
1663844284869586645,8.529208833351732e-05,0.0,0.0
1663844284869600181,8.529208833351732e-05,0.0,0.0
1663844284869608275,8.529208833351732e-05,0.0,0.0
1663844284917534495,8.529208833351732e-05,0.0,0.0
1663844284917543357,8.529208833351732e-05,0.0,0.0
1663844284925086565,8.529208833351732e-05,0.0,0.0
1663844284944794135,8.529208833351732e-05,0.0,0.0
1663844284985600733,8.529208833351732e-05,0.0,0.0
1663844285029574555,8.529208833351732e-05,0.0,0.0
1663844285029605438,8.529208833351732e-05,0.0,0.0
1663844285029619346,8.529208833351732e-05,0.0,0.0
1663844285073511876,8.529208833351732e-05,0.0,0.0
1663844285073527417,8.529208833351732e-05,0.0,0.0
1663844285084843205,8.529208833351732e-05,0.0,0.0
1663844285104967139,8.529208833351732e-05,0.0,0.0
1663844285145565228,8.529208833351732e-05,0.0,0.0
1663844285145579391,8.529208833351732e-05,0.0,0.0
1663844285189506122,8.529208833351732e-05,0.0,0.0
1663844285189560066,8.529208833351732e-05,0.0,0.0
1663844285237566372,8.529208833351732e-05,0.0,0.0
1663844285237579190,8.529208833351732e-05,0.0,0.0
1663844285281607801,8.529208833351732e-05,0.0,0.0
1663844285281634019,8.529208833351732e-05,0.0,0.0
1663844285329571063,8.529208833351732e-05,0.0,0.0
1663844285329588790,8.529208833351732e-05,0.0,0.0
1663844285329609862,8.529208833351732e-05,0.0,0.0
1663844285373517456,8.529208833351732e-05,0.0,0.0
1663844285373531232,8.529208833351732e-05,0.0,0.0
1663844285384658134,8.529208833351732e-05,0.0,0.0
1663844285405027104,8.529208833351732e-05,0.0,0.0
1663844285445550309,8.529208833351732e-05,0.0,0.0
1663844285493587218,8.529208833351732e-05,0.0,0.0
1663844285493626013,8.529208833351732e-05,0.0,0.0
1663844285493638757,8.529208833351732e-05,0.0,0.0
1663844285541660695,8.529208833351732e-05,0.0,0.0
1663844285541689064,8.529208833351732e-05,0.0,0.0
1663844285544998190,8.529208833351732e-05,0.0,0.0
1663844285564731878,8.529208833351732e-05,0.0,0.0
1663844285605746842,8.529208833351732e-05,0.0,0.0
1663844285649497581,8.529208833351732e-05,0.0,0.0
1663844285649527777,8.529208833351732e-05,0.0,0.0
1663844285649538019,8.529208833351732e-05,0.0,0.0
1663844285693727412,8.529208833351732e-05,0.0,0.0
1663844285693755973,8.529208833351732e-05,0.0,0.0
1663844285706195937,8.529208833351732e-05,0.0,0.0
1663844285725848510,8.529208833351732e-05,0.0,0.0
1663844285773734425,8.529208833351732e-05,0.0,0.0
1663844285773769312,8.529208833351732e-05,0.0,0.0
1663844285817569718,8.529208833351732e-05,0.0,0.0
1663844285817604857,8.529208833351732e-05,0.0,0.0
1663844285861665629,8.529208833351732e-05,0.0,0.0
1663844285861696256,8.529208833351732e-05,0.0,0.0
1663844285905699574,8.529208833351732e-05,0.0,0.0
1663844285905726828,8.529208833351732e-05,0.0,0.0
1663844285949519123,8.529208833351732e-05,0.0,0.0
1663844285949537190,8.529208833351732e-05,0.0,0.0
1663844285949583772,8.529208833351732e-05,0.0,0.0
1663844285993556312,8.529208833351732e-05,0.0,0.0
1663844285993582748,8.529208833351732e-05,0.0,0.0
1663844286006327519,8.529208833351732e-05,0.0,0.0
1663844286025760986,8.529208833351732e-05,0.0,0.0
1663844286070127277,8.529208833351732e-05,0.0,0.0
1663844286070188891,8.529208833351732e-05,0.0,0.0
1663844286113525962,8.529208833351732e-05,0.0,0.0
1663844286113538665,8.529208833351732e-05,0.0,0.0
1663844286157634135,8.529208833351732e-05,0.0,0.0
1663844286157654568,8.529208833351732e-05,0.0,0.0
1663844286205680753,8.529208833351732e-05,0.0,0.0
1663844286205705371,8.529208833351732e-05,0.0,0.0
1663844286249522146,8.529208833351732e-05,0.0,0.0
1663844286249540267,8.529208833351732e-05,0.0,0.0
1663844286249549795,8.529208833351732e-05,0.0,0.0
1663844286297568255,8.529208833351732e-05,0.0,0.0
1663844286297593510,8.529208833351732e-05,0.0,0.0
1663844286305873934,8.529208833351732e-05,0.0,0.0
1663844286325471607,8.529208833351732e-05,0.0,0.0
1663844286369533992,8.529208833351732e-05,0.0,0.0
1663844286369563564,8.529208833351732e-05,0.0,0.0
1663844286413536421,8.529208833351732e-05,0.0,0.0
1663844286413557073,8.529208833351732e-05,0.0,0.0
1663844286457783375,8.529208833351732e-05,0.0,0.0
1663844286457846656,8.529208833351732e-05,0.0,0.0
1663844286501563271,8.529208833351732e-05,0.0,0.0
1663844286501586083,8.529208833351732e-05,0.0,0.0
1663844286545705000,8.529208833351732e-05,0.0,0.0
1663844286545737989,8.529208833351732e-05,0.0,0.0
1663844286589553997,8.529208833351732e-05,0.0,0.0
1663844286589568128,8.529208833351732e-05,0.0,0.0
1663844286589579680,8.529208833351732e-05,0.0,0.0
1663844286637598715,8.529208833351732e-05,0.0,0.0
1663844286637614750,8.529208833351732e-05,0.0,0.0
1663844286645190258,8.529208833351732e-05,0.0,0.0
1663844286666367366,8.529208833351732e-05,0.0,0.0
1663844286709594125,8.529208833351732e-05,0.0,0.0
1663844286709618126,8.529208833351732e-05,0.0,0.0
1663844286753587076,8.529208833351732e-05,0.0,0.0
1663844286753604182,8.529208833351732e-05,0.0,0.0
1663844286797598540,8.529208833351732e-05,0.0,0.0
1663844286797621508,8.529208833351732e-05,0.0,0.0
1663844286841579555,8.529208833351732e-05,0.0,0.0
1663844286841603400,8.529208833351732e-05,0.0,0.0
1663844286885592543,8.529208833351732e-05,0.0,0.0
1663844286885616197,8.529208833351732e-05,0.0,0.0
1663844286929559973,8.529208833351732e-05,0.0,0.0
1663844286929590136,8.529208833351732e-05,0.0,0.0
1663844286929604180,8.529208833351732e-05,0.0,0.0
1663844286973586233,8.529208833351732e-05,0.0,0.0
1663844286973606519,8.529208833351732e-05,0.0,0.0
1663844286986440152,8.529208833351732e-05,0.0,0.0
1663844287006237499,8.529208833351732e-05,0.0,0.0
1663844287049560826,8.529208833351732e-05,0.0,0.0
1663844287049591806,8.529208833351732e-05,0.0,0.0
1663844287093779698,8.529208833351732e-05,0.0,0.0
1663844287093843633,8.529208833351732e-05,0.0,0.0
1663844287137510728,8.529208833351732e-05,0.0,0.0
1663844287137527075,8.529208833351732e-05,0.0,0.0
1663844287181503616,8.529208833351732e-05,0.0,0.0
1663844287181520998,8.529208833351732e-05,0.0,0.0
1663844287225985568,8.529208833351732e-05,0.0,0.0
1663844287226078587,8.529208833351732e-05,0.0,0.0
1663844287269496799,8.529208833351732e-05,0.0,0.0
1663844287269509160,8.529208833351732e-05,0.0,0.0
1663844287269534212,8.529208833351732e-05,0.0,0.0
1663844287313583608,8.529208833351732e-05,0.0,0.0
1663844287313603833,8.529208833351732e-05,0.0,0.0
1663844287326473059,8.529208833351732e-05,0.0,0.0
1663844287346034309,8.529208833351732e-05,0.0,0.0
1663844287389565760,8.529208833351732e-05,0.0,0.0
1663844287389594207,8.529208833351732e-05,0.0,0.0
1663844287433874507,8.529208833351732e-05,0.0,0.0
1663844287435080493,8.529208833351732e-05,0.0,0.0
1663844287481623404,8.529208833351732e-05,0.0,0.0
1663844287481649002,8.529208833351732e-05,0.0,0.0
1663844287525733051,8.529208833351732e-05,0.0,0.0
1663844287525777718,8.529208833351732e-05,0.0,0.0
1663844287569841334,8.529208833351732e-05,0.0,0.0
1663844287569884018,8.529208833351732e-05,0.0,0.0
1663844287569897233,8.529208833351732e-05,0.0,0.0
1663844287613509938,8.529208833351732e-05,0.0,0.0
1663844287613527080,8.529208833351732e-05,0.0,0.0
1663844287626498038,8.529208833351732e-05,0.0,0.0
1663844287645843969,8.529208833351732e-05,0.0,0.0
1663844287689537345,8.529208833351732e-05,0.0,0.0
1663844287689557724,8.529208833351732e-05,0.0,0.0
1663844287733556409,8.529208833351732e-05,0.0,0.0
1663844287733590460,8.529208833351732e-05,0.0,0.0
1663844287777555068,8.529208833351732e-05,0.0,0.0
1663844287777573558,8.529208833351732e-05,0.0,0.0
1663844287821557240,8.529208833351732e-05,0.0,0.0
1663844287821574246,8.529208833351732e-05,0.0,0.0
1663844287865649731,8.529208833351732e-05,0.0,0.0
1663844287865672633,8.529208833351732e-05,0.0,0.0
1663844287909600579,8.529208833351732e-05,0.0,0.0
1663844287909617212,8.529208833351732e-05,0.0,0.0
1663844287909623090,8.529208833351732e-05,0.0,0.0
1663844287953548778,8.529208833351732e-05,0.0,0.0
1663844287953573338,8.529208833351732e-05,0.0,0.0
1663844287969478913,8.529208833351732e-05,0.0,0.0
1663844287985974041,8.529208833351732e-05,0.0,0.0
1663844288033752425,8.529208833351732e-05,0.0,0.0
1663844288033795774,8.529208833351732e-05,0.0,0.0
1663844288081520327,8.529208833351732e-05,0.0,0.0
1663844288081555500,8.529208833351732e-05,0.0,0.0
1663844288125635684,8.529208833351732e-05,0.0,0.0
1663844288125666013,8.529208833351732e-05,0.0,0.0
1663844288169773311,8.529208833351732e-05,0.0,0.0
1663844288169819915,8.529208833351732e-05,0.0,0.0
1663844288169857225,8.529208833351732e-05,0.0,0.0
1663844288213630038,8.529208833351732e-05,0.0,0.0
1663844288213645993,8.529208833351732e-05,0.0,0.0
1663844288228382186,8.529208833351732e-05,0.0,0.0
1663844288246755910,8.529208833351732e-05,0.0,0.0
1663844288293570526,8.529208833351732e-05,0.0,0.0
1663844288293590638,8.529208833351732e-05,0.0,0.0
1663844288337575351,8.529208833351732e-05,0.0,0.0
1663844288337599428,8.529208833351732e-05,0.0,0.0
1663844288381549563,8.529208833351732e-05,0.0,0.0
1663844288381564448,8.529208833351732e-05,0.0,0.0
1663844288425627635,8.529208833351732e-05,0.0,0.0
1663844288425657011,8.529208833351732e-05,0.0,0.0
1663844288469520666,8.529208833351732e-05,0.0,0.0
1663844288469544229,8.529208833351732e-05,0.0,0.0
1663844288469554493,8.529208833351732e-05,0.0,0.0
1663844288513555971,8.529208833351732e-05,0.0,0.0
1663844288513576336,8.529208833351732e-05,0.0,0.0
1663844288526957471,8.529208833351732e-05,0.0,0.0
1663844288546485427,8.529208833351732e-05,0.0,0.0
1663844288589522501,8.529208833351732e-05,0.0,0.0
1663844288589538897,8.529208833351732e-05,0.0,0.0
1663844288633952936,8.529208833351732e-05,0.0,0.0
1663844288634017278,8.529208833351732e-05,0.0,0.0
1663844288677532474,8.529208833351732e-05,0.0,0.0
1663844288677546552,8.529208833351732e-05,0.0,0.0
1663844288721694991,8.529208833351732e-05,0.0,0.0
1663844288721717504,8.529208833351732e-05,0.0,0.0
1663844288765747818,8.529208833351732e-05,0.0,0.0
1663844288765790567,8.529208833351732e-05,0.0,0.0
1663844288809533479,8.529208833351732e-05,0.0,0.0
1663844288809548393,8.529208833351732e-05,0.0,0.0
1663844288809557887,8.529208833351732e-05,0.0,0.0
1663844288853515420,8.529208833351732e-05,0.0,0.0
1663844288853530151,8.529208833351732e-05,0.0,0.0
1663844288866667771,8.529208833351732e-05,0.0,0.0
1663844288886416707,8.529208833351732e-05,0.0,0.0
1663844288929594883,8.529208833351732e-05,0.0,0.0
1663844288929628653,8.529208833351732e-05,0.0,0.0
1663844288977557736,8.529208833351732e-05,0.0,0.0
1663844288977579400,8.529208833351732e-05,0.0,0.0
1663844289021603583,8.529208833351732e-05,0.0,0.0
1663844289021636664,8.529208833351732e-05,0.0,0.0
1663844289069576255,8.529208833351732e-05,0.0,0.0
1663844289069622117,8.529208833351732e-05,0.0,0.0
1663844289069649464,8.529208833351732e-05,0.0,0.0
1663844289113565454,8.529208833351732e-05,0.0,0.0
1663844289113583777,8.529208833351732e-05,0.0,0.0
1663844289127670756,8.529208833351732e-05,0.0,0.0
1663844289147139559,8.529208833351732e-05,0.0,0.0
1663844289193530926,8.529208833351732e-05,0.0,0.0
1663844289193552851,8.529208833351732e-05,0.0,0.0
1663844289237648427,8.529208833351732e-05,0.0,0.0
1663844289237696133,8.529208833351732e-05,0.0,0.0
1663844289281504015,8.529208833351732e-05,0.0,0.0
1663844289281520235,8.529208833351732e-05,0.0,0.0
1663844289325580023,8.529208833351732e-05,0.0,0.0
1663844289325617122,8.529208833351732e-05,0.0,0.0
1663844289369505703,8.529208833351732e-05,0.0,0.0
1663844289369521506,8.529208833351732e-05,0.0,0.0
1663844289369545742,8.529208833351732e-05,0.0,0.0
1663844289413565715,8.529208833351732e-05,0.0,0.0
1663844289413579036,8.529208833351732e-05,0.0,0.0
1663844289427497634,8.529208833351732e-05,0.0,0.0
1663844289447183414,8.529208833351732e-05,0.0,0.0
1663844289489565816,8.529208833351732e-05,0.0,0.0
1663844289489577963,8.529208833351732e-05,0.0,0.0
1663844289537596917,8.529208833351732e-05,0.0,0.0
1663844289537622667,8.529208833351732e-05,0.0,0.0
1663844289581585574,8.529208833351732e-05,0.0,0.0
1663844289581605112,8.529208833351732e-05,0.0,0.0
1663844289625569493,8.529208833351732e-05,0.0,0.0
1663844289625587504,8.529208833351732e-05,0.0,0.0
1663844289669590355,8.529208833351732e-05,0.0,0.0
1663844289669615021,8.529208833351732e-05,0.0,0.0
1663844289669623127,8.529208833351732e-05,0.0,0.0
1663844289713651961,8.529208833351732e-05,0.0,0.0
1663844289713692096,8.529208833351732e-05,0.0,0.0
1663844289727674482,8.529208833351732e-05,0.0,0.0
1663844289747355023,8.529208833351732e-05,0.0,0.0
1663844289789525702,8.529208833351732e-05,0.0,0.0
1663844289789534520,8.529208833351732e-05,0.0,0.0
1663844289833624091,8.529208833351732e-05,0.0,0.0
1663844289833651242,8.529208833351732e-05,0.0,0.0
1663844289877636810,8.529208833351732e-05,0.0,0.0
1663844289877684610,8.529208833351732e-05,0.0,0.0
1663844289921572742,8.529208833351732e-05,0.0,0.0
1663844289921599859,8.529208833351732e-05,0.0,0.0
1663844289965646665,8.529208833351732e-05,0.0,0.0
1663844289965680456,8.529208833351732e-05,0.0,0.0
1663844290009552768,8.529208833351732e-05,0.0,0.0
1663844290009574508,8.529208833351732e-05,0.0,0.0
1663844290009581836,8.529208833351732e-05,0.0,0.0
1663844290053595664,8.529208833351732e-05,0.0,0.0
1663844290053642536,8.529208833351732e-05,0.0,0.0
1663844290067330959,8.529208833351732e-05,0.0,0.0
1663844290087310162,8.529208833351732e-05,0.0,0.0
1663844290133635599,8.529208833351732e-05,0.0,0.0
1663844290133682488,8.529208833351732e-05,0.0,0.0
1663844290181651625,8.529208833351732e-05,0.0,0.0
1663844290181697640,8.529208833351732e-05,0.0,0.0
1663844290225549551,8.529208833351732e-05,0.0,0.0
1663844290225569624,8.529208833351732e-05,0.0,0.0
1663844290273666263,8.529208833351732e-05,0.0,0.0
1663844290273726190,8.529208833351732e-05,0.0,0.0
1663844290273751579,8.529208833351732e-05,0.0,0.0
1663844290317691118,8.529208833351732e-05,0.0,0.0
1663844290317731191,8.529208833351732e-05,0.0,0.0
1663844290327486524,8.529208833351732e-05,0.0,0.0
1663844290348877138,8.529208833351732e-05,0.0,0.0
1663844290389599464,8.529208833351732e-05,0.0,0.0
1663844290389624510,8.529208833351732e-05,0.0,0.0
1663844290437807959,8.529208833351732e-05,0.0,0.0
1663844290437845951,8.529208833351732e-05,0.0,0.0
1663844290481669234,8.529208833351732e-05,0.0,0.0
1663844290481720941,8.529208833351732e-05,0.0,0.0
1663844290525520115,8.529208833351732e-05,0.0,0.0
1663844290525533245,8.529208833351732e-05,0.0,0.0
1663844290569896073,8.529208833351732e-05,0.0,0.0
1663844290569966639,8.529208833351732e-05,0.0,0.0
1663844290613885610,8.529208833351732e-05,0.0,0.0
1663844290613917281,8.529208833351732e-05,0.0,0.0
1663844290614154771,8.529208833351732e-05,0.0,0.0
1663844290657613579,8.529208833351732e-05,0.0,0.0
1663844290657660019,8.529208833351732e-05,0.0,0.0
1663844290669871790,8.529208833351732e-05,0.0,0.0
1663844290688012012,8.529208833351732e-05,0.0,0.0
1663844290729685362,8.529208833351732e-05,0.0,0.0
1663844290729729002,8.529208833351732e-05,0.0,0.0
1663844290773564463,8.529208833351732e-05,0.0,0.0
1663844290773589275,8.529208833351732e-05,0.0,0.0
1663844290817618824,8.529208833351732e-05,0.0,0.0
1663844290817655047,8.529208833351732e-05,0.0,0.0
1663844290865629080,8.529208833351732e-05,0.0,0.0
1663844290865666184,8.529208833351732e-05,0.0,0.0
1663844290909542574,8.529208833351732e-05,0.0,0.0
1663844290909553383,0.000127938132500276,0.0,0.0
1663844290909611014,0.0008102748391684146,0.0,0.0
1663844290953668372,0.001492611545836553,0.0,0.0
1663844290953709379,0.001620549678336829,0.0,0.0
1663844290969298369,0.0018337798991706223,0.0,0.0
1663844290987832034,0.0022175942966714502,0.0,0.0
1663844291029824954,0.0030278691234986734,-1.4141963717757324e-07,0.0
1663844291029909349,0.0035396216457053405,-2.3073730276340898e-07,0.0
1663844291073594155,0.003923436037360341,-2.9772555195278577e-07,0.0
1663844291073618628,0.0043925425231946865,-2.9772555195278577e-07,0.0
1663844291117574831,0.005032233185696067,-2.9772555195278577e-07,0.0
1663844291117595212,0.006183676360661068,-4.986902995209162e-07,0.0
1663844291161623096,0.007079243274522735,-6.549962142961288e-07,0.0
1663844291161666002,0.007974810188384402,-4.986902995209162e-07,0.0
1663844291205912459,0.008998315232797737,-3.2005496834924474e-07,0.0
1663844291206026852,0.010192404451279962,-1.1164708198229468e-07,0.0
1663844291253631747,0.011770308061417186,1.6374905357403216e-07,0.0
1663844291253659950,0.013262919584519965,4.242589115327197e-07,0.0
1663844291253680044,0.0146702390205883,6.69882491893768e-07,0.0
1663844291297821589,0.016290788674242745,9.527217662489146e-07,0.0
1663844291297866176,0.01803927637855588,1.5630591384562527e-06,0.0
1663844291308189353,0.02025687054012376,2.337145561743608e-06,0.0
1663844291328148342,0.022389172456170323,3.4536163362204787e-06,0.0
1663844291369770825,0.024564120178653337,4.9720165355470126e-06,0.0
1663844291369825096,0.026824359968684704,6.549961840729489e-06,0.0
1663844291414056670,0.029084599758716072,8.127907145911965e-06,0.0
1663844291414076857,0.031856591574058804,1.0546926960778403e-05,0.0
1663844291457719668,0.03450064486263273,1.331577410193327e-05,0.0
1663844291457772440,0.037187343640019924,1.659819751230636e-05,0.0
1663844291505636456,0.04017256450378347,2.024533463494313e-05,0.0
1663844291505663759,0.04302984593792299,2.4733545507714885e-05,0.0
1663844291549610348,0.04631358528703466,3.103788022949367e-05,0.0
1663844291549638223,0.049639969436451686,3.800465308727595e-05,0.0
1663844291549652722,0.052966353585868715,4.497142594505822e-05,0.0
1663844291597625155,0.056548614693990536,5.1848882005180537e-05,0.0
1663844291597675849,0.060088229836539477,5.864446358839663e-05,0.0
1663844291609393204,0.06388372198650853,6.526885378980268e-05,0.0
1663844291629367877,0.06759392217805131,7.174438129005354e-05,0.0
1663844291673685720,0.07134677040653768,7.698434932842757e-05,0.0
1663844291673746594,0.07514226550475132,8.162142367006576e-05,0.0
1663844291717674553,0.0790656986399834,8.641480388838837e-05,0.0
1663844291717706421,0.08341559275989535,9.09700040238367e-05,0.0
1663844291761639799,0.08763754881745695,9.539122768471302e-05,0.0
1663844291761696919,0.09194479763822028,9.915001232012087e-05,0.0
1663844291805707704,0.09637998379969913,0.00010379453010528388,0.0
1663844291805753486,0.10077252307066549,0.00010916103187144942,0.0
1663844291849551146,0.10567681209941245,0.00011686467739934123,0.0
1663844291849565488,0.11045316024357486,0.00012603461881283766,0.0
1663844291849572410,0.11522950489583218,0.00013687181966055386,0.0
1663844291893763964,0.12013378533446632,0.0001488552612629599,0.0
1663844291893847374,0.1252086471989835,0.00016214124890950686,0.0
1663844291909086220,0.13066731391477732,0.0001792902125801062,0.0
1663844291928189976,0.136083334796854,0.00019630519997202895,0.0
1663844291973837028,0.1413287693880271,0.00021369978355267188,0.0
1663844291973912213,0.14648890607233203,0.00023261275699145264,0.0
1663844292017577863,0.15186226434320277,0.00025418291540864004,0.0
1663844292017611764,0.15736355167192573,0.0002781869619893388,0.0
1663844292065631857,0.16286483028649834,0.00030411131860831885,0.0
1663844292065671418,0.16828080365383613,0.0003324695479992232,0.0
1663844292109687419,0.17369675590355682,0.0003646088328706738,0.0
1663844292109739805,0.1791553418069626,0.00039890659095852406,0.0
1663844292109760038,0.18431539361027394,0.0004340304918984389,0.0
1663844292153564927,0.18926220182347742,0.00047029313954907563,0.0
1663844292153588404,0.19437957622393431,0.000509592526330481,0.0
1663844292168401559,0.19915577923650835,0.0005479391656617413,0.0
1663844292188566034,0.20401727158859265,0.0005869705664096311,0.0
1663844292229623963,0.2088787837110668,0.0006234564904803584,0.0
1663844292229645577,0.2136550242612942,0.0006568014816010875,0.0
1663844292273595062,0.2184739156147998,0.0006896031411565451,0.0
1663844292273625020,0.22286637145894667,0.0007172021183678621,0.0
1663844292317641033,0.22725884550039804,0.0007417345764334198,0.0
1663844292317685305,0.23165133559831544,0.0007632005033963961,0.0
1663844292365571461,0.23617176973689166,0.000783713723628078,0.0
1663844292365618262,0.24073485969707553,0.0008020312391093403,0.0
1663844292412350841,0.24508473924140153,0.0008141784259029607,0.0
1663844292412448347,0.249349332680917,0.0008238544980884216,0.0
1663844292412467256,0.2537418671349235,0.000832287569209762,0.0
1663844292453764919,0.25809175939976,0.0008383611685269683,0.0
1663844292453816419,0.26252694556123884,0.0008430056863121313,0.0
1663844292468240650,0.2662371499910053,0.0008462434512951064,0.0
1663844292488866362,0.2698194168280361,0.000848744345741056,0.0
1663844292529533746,0.2734869761236362,0.0008506646754731562,0.0
1663844292529548740,0.27736776608370345,0.0008513420011038488,0.0
1663844292573597433,0.2812485560437707,0.0008506646754731562,0.0
1663844292573640914,0.28470288541082833,0.0008494588870061129,0.0
1663844292617625886,0.28811456847650285,0.0008476725337669499,0.0
1663844292617671901,0.29156889758049825,0.0008458638511122974,0.0
1663844292661482577,0.29532174855262583,0.0008432438664546362,0.0
1663844292661494440,0.299245183122034,0.0008398200230243641,0.0
1663844292705702641,0.3029553861955687,0.000835287152600516,0.0
1663844292705738827,0.30649500349457737,0.0008297271301760375,0.0
1663844292749683022,0.3099919737900545,0.0008236237594286747,0.0
1663844292749734182,0.31365952800238417,0.0008172226632790014,0.0
1663844292749757630,0.3173697270072246,0.0008100995837881608,0.0
1663844292797534994,0.32078140175883696,0.0008023587260397923,0.0
1663844292797570011,0.3241077818044869,0.0007936502635487785,0.0
1663844292809399001,0.3273062226459031,0.0007847185085534696,0.0
1663844292828395949,0.3305473077361698,0.0007751019872863361,0.0
1663844292873581710,0.33387368453933824,0.0007652323996700674,0.0
1663844292873602861,0.3371147679018408,0.0007550502024906492,0.0
1663844292921714368,0.34022791376319195,0.0007452699341472606,0.0
1663844292921741572,0.34329841542765516,0.0007361595455783972,0.0
1663844292965623526,0.3465395021469569,0.0007271087005164842,0.0
1663844292965665205,0.3498658806220297,0.0007178196753213629,0.0
1663844293010028982,0.35319225909710256,0.0007085306501262417,0.0
1663844293010079708,0.356390696625888,0.0006984824292255,0.0
1663844293053670634,0.3595464883209563,0.0006885681846034349,0.0
1663844293053721290,0.3627022800160246,0.0006786539399813698,0.0
1663844293053745771,0.36585807497955525,0.000669841275052665,0.0
1663844293097736446,0.369099165993587,0.0006624874601917149,0.0
1663844293097795918,0.3722976153601611,0.0006574633435430899,0.0
1663844293108663264,0.375453421426859,0.0006547093825230885,0.0
1663844293128813470,0.3786092286471334,0.0006541585902519758,0.0
1663844293169603647,0.38180768074175964,0.0006569497669614371,0.0
1663844293169631213,0.38496348411677944,0.0006619068953880805,0.0
1663844293213633051,0.3880766385130287,0.0006684270802421588,0.0
1663844293213644951,0.39106185392068954,0.0006752003307719815,0.0
1663844293261852267,0.3941750044762337,0.0006833505584879305,0.0
1663844293261887506,0.39737344371004957,0.0006928405465804966,0.0
1663844293305889321,0.4008704039390215,0.0007032162668950355,0.0
1663844293305940083,0.40432472462502905,0.0007110538853652588,0.0
1663844293349622325,0.40773640187085936,0.0007176038435177562,0.0
1663844293349646404,0.4109774962910577,0.0007232606261616535,0.0
1663844293349665460,0.41409065177787785,0.0007292374629758074,0.0
1663844293393703858,0.4146876950867476,0.0007304879093861786,0.0
1663844293393740444,0.4149862168457577,0.0007310610307245221,0.0
1663844293408991739,0.41669205546867283,0.0007343360098007708,0.0
1663844293428576626,0.4189522890621303,0.0007398588133218797,0.0
1663844293469638142,0.4206154746518764,0.0007456644498244309,0.0
1663844293469680117,0.42168161716593805,0.0007499442431611745,0.0
1663844293513677666,0.42279040614051777,0.0007542017081140529,0.0
1663844293513694449,0.42441094493393583,0.0007601413196072237,0.0
1663844293557565081,0.4262873582736831,0.0007670187644940531,0.0
1663844293557593059,0.4283770017069538,0.0007743130257408483,0.0
1663844293605732312,0.430722524990659,0.0007808629794040749,0.0
1663844293605809392,0.4328548217104167,0.0007857010154968053,0.0
1663844293649925557,0.4352429957824979,0.0007902859862035536,0.0
1663844293649989096,0.43741794072236784,0.0007940819850830109,0.0
1663844293650101085,0.43972082486257535,0.0007972974200156495,0.0
1663844293693588479,0.4421516475659257,0.0008002672316726537,0.0
1663844293693613590,0.4444545317061332,0.0008034826666052923,0.0
1663844293709042373,0.44688535385413003,0.0008068767368119665,0.0
1663844293728724774,0.4492308833896177,0.0008105610890209583,0.0
1663844293769710782,0.45153376553055313,0.000814982310773894,0.0
1663844293769770853,0.45426310533184305,0.000821174996972589,0.0
1663844293814013777,0.45703508739440374,0.000828915851301857,0.0
1663844293814027100,0.4600629415883206,0.0008384281670878926,0.0
1663844293857625397,0.4630055024565397,0.0008481861042184971,0.0
1663844293857670556,0.4658627700081548,0.0008581598900049312,0.0
1663844293901662954,0.4689332625531449,0.0008699497929513637,0.0
1663844293901716277,0.47221698149645475,0.0008831315564285338,0.0
1663844293945568007,0.47575657706915164,0.0008967226945473379,0.0
1663844293945590338,0.47921088118226546,0.0009099863353620745,0.0
1663844293993711848,0.4825798915267003,0.000923510482306184,0.0
1663844293993750335,0.48624741641251557,0.0009395131800266498,0.0
1663844293993765867,0.49004287821295234,0.0009560741113885273,0.0
1663844294037686946,0.49413686253624906,0.0009732230531188534,0.0
1663844294037732901,0.4983161350805502,0.0009914586854049656,0.0
1663844294050563904,0.5023674642928324,0.0010105502658608037,0.0
1663844294071928822,0.5066320177859561,0.001031390971650101,0.0
1663844294113866821,0.5109392204221719,0.0010516883361347288,0.0
1663844294113924400,0.5157581658694017,0.0010752383336766348,0.0
1663844294161636567,0.5205344573429594,0.001100247165895385,0.0
1663844294161664058,0.5252680989589417,0.0011258588816733027,0.0
1663844294205642300,0.5303002487041238,0.001154842304058712,0.0
1663844294205687283,0.5353750386074054,0.0011849570670484962,0.0
1663844294249589064,0.5408336184415842,0.001220207527574299,0.0
1663844294249613797,0.5462921856384755,0.0012573633897256138,0.0
1663844294249622293,0.551836029437571,0.0012970349811508854,0.0
1663844294297539401,0.5574225038940983,0.0013389617886356685,0.0
1663844294297558143,0.5629663109622646,0.0013834712807165956,0.0
1663844294309941051,0.5688938943271377,0.0014341658813717517,0.0
1663844294328328429,0.5748214596351282,0.0014869295958244663,0.0
1663844294371464377,0.5806637082033006,0.0015419931217464224,0.0
1663844294413652170,0.5865911833174373,0.001604067765088161,0.0
1663844294413705715,0.5926039234970603,0.0016691344149512447,0.0
1663844294413736165,0.5987872019832728,0.0017392844937344437,0.0
1663844294457541156,0.6049704299886681,0.0018137512977979254,0.0
1663844294457563110,0.6109830474476967,0.001889312054551131,0.0
1663844294469154535,0.6174646908153545,0.0019741614141219367,0.0
1663844294489598085,0.6239036619769913,0.002060700184392712,0.0
1663844294529611129,0.6306410801548052,0.002154778402379088,0.0
1663844294529635622,0.6372931480895303,0.0022523097997383095,0.0
1663844294573697493,0.6440304463009268,0.0023546192545852774,0.0
1663844294573731436,0.6509809128855895,0.002462592527466296,0.0
1663844294617582285,0.6577607597963911,0.002571466083782255,0.0
1663844294617600773,0.6648816285781275,0.0026920317302928662,0.0
1663844294662034669,0.672130329709111,0.00281982380552102,0.0
1663844294662116930,0.6793362778142006,0.0029531525886373677,0.0
1663844294709643958,0.6866699455422788,0.0030990880256612898,0.0
1663844294709675815,0.6943018569952593,0.0032616190092021415,0.0
1663844294709692061,0.702189344477684,0.003440611139672744,0.0
1663844294753660988,0.7098633409773049,0.003628159574418613,0.0
1663844294753694446,0.7176222257372145,0.0038326882378316297,0.0
1663844294768682386,0.7256789861099369,0.004064770440909374,0.0
1663844294788583175,0.7337351112834998,0.004317944373892299,0.0
1663844294829535259,0.7422594313935712,0.004606682982252087,0.0
1663844294829561065,0.7506121170187503,0.004921721072431952,0.0
1663844294877637860,0.7588359987832659,0.005256339336515616,0.0
1663844294877673578,0.7672718143783752,0.005626130145094231,0.0
1663844294925658083,0.7757489560217211,0.006025901996817261,0.0
1663844294925724008,0.7846933138978239,0.006475873493384118,0.0
1663844294969611135,0.7935510435332399,0.006949389216406967,0.0
1663844294969647969,0.802407066326007,0.007453821301097522,0.0
1663844294969662574,0.8115590588073722,0.008010374610394931,0.0
1663844295013524942,0.8204102407856441,0.008593614716690411,0.0
1663844295013541134,0.8297276510748981,0.009235347348690429,0.0
1663844295035843393,0.8390005799244106,0.009901665921031312,0.0
1663844295050485958,0.8482289638381891,0.010592312152283864,0.0
1663844295093974370,0.8576254553688655,0.011321931954854635,0.0
1663844295094069823,0.8670200045602969,0.012076149186260201,0.0
1663844295137951091,0.8767526892605472,0.01288145221428975,0.0
1663844295137995625,0.8865680688259736,0.013721201405699872,0.0
1663844295181658604,0.8962097926533938,0.01458848756460672,0.0
1663844295181679757,0.9063163213616132,0.015524262813014701,0.0
1663844295225833500,0.9163354576496074,0.01647840768117585,0.0
1663844295225907094,0.9266495160576548,0.0174842578816394,0.0
1663844295274138613,0.9370885712687514,0.01852621411245227,0.0
1663844295274188494,0.9473127431258014,0.01957376274973783,0.0
1663844295274251032,0.958042494580554,0.020707185531254977,0.0
1663844295317527554,0.9685960057413201,0.021883491620333068,0.0
1663844295317547785,0.9794412598043684,0.02313641217336756,0.0
1663844295329085949,0.9903237412397017,0.02443792239673269,0.0
1663844295349498949,1.0009895223823515,0.025755074678199607,0.0
1663844295393569269,1.012031150062647,0.027159747136018337,0.0
1663844295393593520,1.0229827345849745,0.028595717368282092,0.0
1663844295437720568,1.034183089995576,0.03010210331982929,0.0
1663844295437774105,1.0455053999672324,0.031661120417995944,0.0
1663844295481628322,1.0566088635121087,0.03324533183655248,0.0
1663844295481676892,1.0676648142865965,0.03486019137055978,0.0
1663844295525740328,1.0788415903328776,0.03653256608039269,0.0
1663844295525779638,1.0901395267500709,0.03825937531123,0.0
1663844295569916723,1.1015580793833066,0.04004338959032076,0.0
1663844295569965386,1.1130551990139985,0.041876698280616555,0.0
1663844295613661708,1.1242939462905133,0.04370503100247831,0.0
1663844295613683105,1.135821391001571,0.04561752145482084,0.0
1663844295613691323,1.1472118806389273,0.04757271888916152,0.0
1663844295657693267,1.1586367822225279,0.049579014229116425,0.0
1663844295657754046,1.1701378453485443,0.05164423776863625,0.0
1663844295669654316,1.181421166660236,0.05371511475034619,0.0
1663844295689462819,1.1927383687804671,0.055837160632477165,0.0
1663844295729678282,1.2038379140398265,0.0579625441259305,0.0
1663844295777577695,1.2150129245535213,0.06014689320655235,0.0
1663844295777609060,1.2261345341477712,0.06238132417908482,0.0
1663844295777617935,1.2372912505621347,0.06465726788152346,0.0
1663844295821721745,1.2483154864364383,0.06694228406036878,0.0
1663844295821769894,1.2592899509504114,0.06925696700682794,0.0
1663844295829117176,1.270464753984114,0.07165467728219331,0.0
1663844295849267299,1.2816727849087974,0.074100472467321,0.0
1663844295889680552,1.2929979871635504,0.076609135672102,0.0
1663844295933684535,1.3042740870008136,0.07914204381217461,0.0
1663844295933725029,1.3149146548591526,0.08158492351784208,0.0
1663844295933733503,1.3255059611536362,0.08405154641225923,0.0
1663844295977585420,1.336049264487801,0.08653610706222026,0.0
1663844295977627326,1.3462952173846472,0.08898081716135646,0.0
1663844295990405362,1.356698801158662,0.09149963108376995,0.0
1663844296009677678,1.3672177690270748,0.09408528415462956,0.0
1663844296053704556,1.3774775923542182,0.09665285745351218,0.0
1663844296053723217,1.3880167926806977,0.09933338986427774,0.0
1663844296097773317,1.3982505655385047,0.10200290301167778,0.0
1663844296097801477,1.408595767030637,0.1047516818325128,0.0
1663844296145646846,1.4188455726341205,0.1075268897393941,0.0
1663844296145695834,1.4289994758348767,0.11032946141963365,0.0
1663844296189645606,1.4394264206915293,0.11326427108567236,0.0
1663844296189671762,1.4497579442748025,0.1162228852821746,0.0
1663844296233697881,1.4601174066522344,0.1192384702557746,0.0
1663844296233742844,1.4704136274869666,0.12231769321585818,0.0
1663844296233815372,1.480693584483603,0.1254507846066063,0.0
1663844296277603067,1.4910390119286576,0.1286611456141345,0.0
1663844296277635845,1.5006376641568477,0.1316875890365534,0.0
1663844296289396460,1.510345409622463,0.13479319503298062,0.0
1663844296309648710,1.5202423174460475,0.13800698572892126,0.0
1663844296353853516,1.5300441018130477,0.14123723284453385,0.0
1663844296353884947,1.5401570242126605,0.14461312061391826,0.0
1663844296398112935,1.5496918784898666,0.1478349272964006,0.0
1663844296398303216,1.5591778993847638,0.151067927651224,0.0
1663844296441672426,1.5686537167146062,0.15433071321637745,0.0
1663844296441728822,1.578162397655212,0.15762896595936135,0.0
1663844296489959848,1.5879069069840492,0.16102808513133807,0.0
1663844296490027260,1.5974430905403572,0.16437695443478045,0.0
1663844296538173185,1.6068924074402409,0.16771571076585412,0.0
1663844296538221455,1.6163347109456656,0.17107425036278595,0.0
1663844296538304364,1.625646011954831,0.17441918375943868,0.0
1663844296581751809,1.635109510237407,0.17784492231375462,0.0
1663844296581797897,1.6444450118220157,0.18124830366745642,0.0
1663844296591170309,1.6536932932112187,0.18464184843126688,0.0
1663844296609596103,1.6626932559984662,0.1879692501441258,0.0
1663844296649721271,1.671485243649356,0.19124420223039226,0.0
1663844296693687189,1.6806297438148698,0.194672289330271,0.0
1663844296693741645,1.6896032959387985,0.19807027323395748,0.0
1663844296693764247,1.6986488113614833,0.2015189939219298,0.0
1663844296738033776,1.7074470079104203,0.20489806711270978,0.0
1663844296738133710,1.7161579628455024,0.20826633363842287,0.0
1663844296750294719,1.725021420918358,0.21171314397362717,0.0
1663844296770784043,1.733598470454816,0.21507272616268094,0.0
1663844296817715606,1.7422868947814851,0.21849869142651748,0.0
1663844296817740412,1.7510461916216868,0.22197735740755178,0.0
1663844296865743229,1.7596733445174724,0.22544195302619296,0.0
1663844296865777256,1.7682123328618373,0.2288971301983012,0.0
1663844296909773691,1.776978564426942,0.23247277836068242,0.0
1663844296909849667,1.7855776240262766,0.23600652479967038,0.0
1663844296953645780,1.7942862398974653,0.2396101906763099,0.0
1663844296953663864,1.8028273192418276,0.2431724968829879,0.0
1663844296953667695,1.811397731277708,0.24677516636868924,0.0
1663844297001764443,1.8204285915898173,0.25060295984767156,0.0
1663844297001817856,1.829364949790504,0.25443493420399144,0.0
1663844297010595763,1.8383695461305856,0.25832410964960417,0.0
1663844297029608467,1.847363246748283,0.2622384154748811,0.0
1663844297077607657,1.8560739266593693,0.2660548858314724,0.0
1663844297077630153,1.864306388360812,0.26968755054456933,0.0
1663844297125663983,1.872567641839452,0.27336051574115094,0.0
1663844297125717052,1.88074140584633,0.27702024170403233,0.0
1663844297169641193,1.889099945352637,0.2807889994949449,0.0
1663844297169666991,1.8972110962790527,0.28448375439380114,0.0
1663844297169671549,1.9054308078175373,0.2882487676205696,0.0
1663844297213500247,1.9137187525922839,0.29206956249535265,0.0
1663844297213517666,1.9218419388021641,0.2958402199928107,0.0
1663844297229350753,1.930188394758481,0.2997375580850375,0.0
1663844297249712241,1.9386018061770711,0.30369302243066204,0.0
1663844297293577220,1.9470440766466965,0.3076872713696943,0.0
1663844297293595277,1.95547094810492,0.31171390677606636,0.0
1663844297341756337,1.9638893677216442,0.31575818253644955,0.0
1663844297341799083,1.9721079836400615,0.3197259091462295,0.0
1663844297385723239,1.9803971080836034,0.32374374279078655,0.0
1663844297385753767,1.98852583525233,0.32770136543450124,0.0
1663844297429540773,1.9966100220943728,0.3316530235278139,0.0
1663844297429558956,2.0048021424918456,0.33567517039953876,0.0
1663844297473629657,2.0129851158487306,0.3397158942338201,0.0
1663844297473661218,2.0212677304414863,0.34384364875470685,0.0
1663844297473694421,2.029424439500661,0.3479371313048589,0.0
1663844297517646198,2.037417438020275,0.35197643654573535,0.0
1663844297517672470,2.0454392692382037,0.3560531880091634,0.0
1663844297529960593,2.0536051828504696,0.3602229089641033,0.0
1663844297549417278,2.0617630761288557,0.36440829965357485,0.0
1663844297589662256,2.0701016998347677,0.3687084988015145,0.0
1663844297637898137,2.078506262019366,0.3730668712178403,0.0
1663844297637935753,2.08704905556287,0.3775291394500421,0.0
1663844297637982994,2.0956957602310453,0.3820687608905134,0.0
1663844297681537124,2.1042551375637375,0.3865911588520232,0.0
1663844297681553366,2.1121610560871917,0.3907983508447935,0.0
1663844297689156306,2.120052979589811,0.39503173667558367,0.0
1663844297710753285,2.1281183889460955,0.39939268724634364,0.0
1663844297757686758,2.136432205564318,0.4039217631866144,0.0
1663844297757723198,2.144685646189141,0.40847227041052925,0.0
1663844297805658729,2.1526249620303606,0.41288579366381556,0.0
1663844297805676506,2.1605085342897,0.41731165751231,0.0
1663844297849927022,2.1681887637332053,0.421664003180994,0.0
1663844297849989380,2.175963289446564,0.4261093110551294,0.0
1663844297893739379,2.1840876332537946,0.4308017939504262,0.0
1663844297893774897,2.192335403925536,0.4356214019920248,0.0
1663844297893787470,2.2006355189896283,0.44052030485142857,0.0
1663844297937691356,2.2089813531810583,0.4455092503319515,0.0
1663844297937724397,2.2172723218249164,0.4505067359589683,0.0
1663844297950429102,2.2255822424975737,0.45555527473495244,0.0
1663844297970460130,2.2341636108029195,0.4608139439957873,0.0
1663844298018142266,2.242687528382783,0.46608459033228206,0.0
1663844298018218234,2.250431247661049,0.4709140120164827,0.0
1663844298061712291,2.2580111391722273,0.47568363011883524,0.0
1663844298061762989,2.2658238459890883,0.48064363758562434,0.0
1663844298105715806,2.2735343823457623,0.48560512396144584,0.0
1663844298105752160,2.281370681662413,0.4906863018061125,0.0
1663844298149743949,2.289051640380901,0.4956934558011421,0.0
1663844298149778581,2.296611605912676,0.5006518732434326,0.0
1663844298197656095,2.304048339796103,0.5055648125124249,0.0
1663844298197704530,2.3117190518736583,0.5106650818640485,0.0
1663844298197744524,2.319696371542366,0.5159973706065891,0.0
1663844298245865799,2.3275470674505234,0.521288745606702,0.0
1663844298245953566,2.335276151140722,0.5265315712359951,0.0
1663844298250740000,2.342881260349211,0.5317291557868051,0.0
1663844298270305931,2.350259204944433,0.5368055664984556,0.0
1663844298313547735,2.3579385336277556,0.5421210030979049,0.0
1663844298313567002,2.365602057314103,0.5474592012937449,0.0
1663844298357837368,2.373178939748034,0.5527724784801166,0.0
1663844298357892859,2.3808097114558837,0.5581573905882151,0.0
1663844298401527679,2.3882084979658798,0.5634271042154863,0.0
1663844298401549840,2.3956272066930517,0.5687422959228282,0.0
1663844298445529541,2.403236712651321,0.5742304447083298,0.0
1663844298445555753,2.4107599193140574,0.5796923629975147,0.0
1663844298489756423,2.4182314985165765,0.5851527261811607,0.0
1663844298489800142,2.425548478563712,0.5905354510044979,0.0
1663844298533567388,2.432880888414713,0.5959690748267146,0.0
1663844298533588990,2.4404305570582454,0.6016107856944598,0.0
1663844298533601583,2.447976634028252,0.6073281975212319,0.0
1663844298577780700,2.455292467059059,0.6129256217771918,0.0
1663844298577892806,2.4626126253436,0.61858736572814,0.0
1663844298591319082,2.469865479447306,0.6242661577287524,0.0
1663844298610073243,2.4771199349102857,0.6300118463569736,0.0
1663844298657636156,2.484474287901672,0.6359059018555637,0.0
1663844298657686468,2.4918587273213046,0.6418985177246076,0.0
1663844298705612936,2.4991206418552347,0.6479060958925776,0.0
1663844298705638001,2.5063446665666755,0.6539591831305802,0.0
1663844298749623649,2.513595546577499,0.6601127292273267,0.0
1663844298749643450,2.5207116637021203,0.6662270758882061,0.0
1663844298793697190,2.5279500766616803,0.6725259892990615,0.0
1663844298793722198,2.5350506017139303,0.678788147043525,0.0
1663844298793735466,2.5420809297403477,0.6850651595481602,0.0
1663844298841676113,2.549230969467306,0.6915279833277445,0.0
1663844298841716083,2.5561976737476617,0.6979386858714794,0.0
1663844298851382901,2.5630950040754805,0.7043615538049908,0.0
1663844298870937384,2.5701403188962564,0.7110007226326251,0.0
1663844298913689703,2.576958666291062,0.7175073759156977,0.0
1663844298913730745,2.5837666635123666,0.7240863765593281,0.0
1663844298957649587,2.590563669388419,0.730737850201842,0.0
1663844298957684638,2.5973490407674285,0.7374619172729824,0.0
1663844299001820749,2.6042136424217097,0.7443481186559301,0.0
1663844299001872953,2.610982009435502,0.7512694069473019,0.0
1663844299045657317,2.6177660042598574,0.7582944392365202,0.0
1663844299045687289,2.6243597768723497,0.7652064943189847,0.0
1663844299089565261,2.6308515058474145,0.7720977591193302,0.0
1663844299089587313,2.63732885427798,0.7790609012121785,0.0
1663844299133716993,2.643993121562402,0.7863158578819076,0.0
1663844299133768599,2.6506689768414637,0.7936757186664591,0.0
1663844299133776472,2.6571012678065324,0.8009104029433556,0.0
1663844299177699169,2.6634585757429883,0.8081544208273835,0.0
1663844299177775052,2.669741049516391,0.8154071069240707,0.0
1663844299190257487,2.6760861146666794,0.8228309746949859,0.0
1663844299210838379,2.682491772040339,0.8304271676945245,0.0
1663844299253714945,2.6887663991542583,0.8379662323232326,0.0
1663844299253755704,2.694990887664891,0.8455467457409088,0.0
1663844299297692902,2.7012441475345694,0.8532688785730496,0.0
1663844299297722339,2.707365915572227,0.8609870915016348,0.0
1663844299341958047,2.7135428536383683,0.8688790063415053,0.0
1663844299342013978,2.7196933766136935,0.8768454705206026,0.0
1663844299385843802,2.7256087133686835,0.8846160853943756,0.0
1663844299385887942,2.7315492003765875,0.8925280712399298,0.0
1663844299429640069,2.7374103221816695,0.9004460322087563,0.0
1663844299429682618,2.7434673528835622,0.9087492501022179,0.0
1663844299473782602,2.7494896981575354,0.9171302303913097,0.0
1663844299473806717,2.7552480035515097,0.9253325960685055,0.0
1663844299473813018,2.7609930708765678,0.9336481191345359,0.0
1663844299518260083,2.766698081425201,0.9420427872331314,0.0
1663844299518297283,2.7721056992171063,0.9501236408498691,0.0
1663844299530404732,2.7776929457943047,0.9585971450559919,0.0
1663844299550520560,2.7832441271760886,0.9671452147735806,0.0
1663844299598004390,2.7886250159131785,0.9755493778376706,0.0
1663844299598080017,2.7939353100973388,0.9839983242859814,0.0
1663844299645687902,2.7992267685386865,0.9925093378141228,0.0
1663844299645800166,2.804722306750435,1.0014457020776508,0.0
1663844299693657152,2.810150388323154,1.0103733278847384,0.0
1663844299693706016,2.815600707928345,1.0194370149684033,0.0
1663844299693809002,2.821053463898371,1.0285986343680193,0.0
1663844299737721275,2.826507878766044,1.0378583933263716,0.0
1663844299737790271,2.8319830109672344,1.0472542926929207,0.0
1663844299750646872,2.8373467202803426,1.0566160679458791,0.0
1663844299770762440,2.842752021324843,1.0661504820165086,0.0
1663844299813660643,2.848093137331553,1.0756721323675325,0.0
1663844299813712268,2.853430700942309,1.0852934300227768,0.0
1663844299858304114,2.8588100436163346,1.095086513869956,0.0
1663844299858387985,2.864122822437972,1.104867363921786,0.0
1663844299901660200,2.8694298085799645,1.1147482812172493,0.0
1663844299901678337,2.8747536743034825,1.1247652336228402,0.0
1663844299945701421,2.8798545753385847,1.1345140675274552,0.0
1663844299945743525,2.884966531985986,1.1444013596632785,0.0
1663844299990110031,2.8900107086798257,1.1542755377605718,0.0
1663844299990152571,2.895015207347277,1.1641698848690587,0.0
1663844300033658877,2.9000372328061554,1.174198637972085,0.0
1663844300033704803,2.9050568437712854,1.184323886893349,0.0
1663844300033760641,2.910032227360708,1.1944709415446708,0.0
1663844300082086447,2.914910214906007,1.2045705388643164,0.0
1663844300082193437,2.9198229864919005,1.214842681592688,0.0
1663844300091355999,2.924656210093926,1.225058214352737,0.0
1663844300111029509,2.9294628843622217,1.235333367111525,0.0
1663844300157717235,2.934167421007121,1.2455149172620612,0.0
1663844300157789143,2.938878843305144,1.2558340926975124,0.0
1663844300205853163,2.9434574816221137,1.26597937326073,0.0
1663844300205885079,2.9480265551632656,1.276222429224974,0.0
1663844300253662589,2.9524573715286855,1.286340091029638,0.0
1663844300253707626,2.9567914400731263,1.2963603303210107,0.0
1663844300253817816,2.9611152639719425,1.3064778152239749,0.0
1663844300298162690,2.965311962293254,1.3164176309507543,0.0
1663844300298260213,2.9695473309629445,1.3265724626136368,0.0
1663844300310704928,2.973346877897383,1.335799995518035,0.0
1663844300330383339,2.976882730603529,1.3444903409462203,0.0
1663844300377683610,2.9805714255523283,1.3536708875250485,0.0
1663844300377703091,2.9842147888827544,1.3629153722655554,0.0
1663844300421622633,2.987870718695092,1.3722923473425246,0.0
1663844300421654975,2.9914526906008074,1.381560792289851,0.0
1663844300469676456,2.9949108818376757,1.390602691261578,0.0
1663844300469703590,2.99844315621618,1.3999358021107922,0.0
1663844300513593583,3.001979321395179,1.409358594701828,0.0
1663844300513624991,3.005550322353438,1.4189504773606767,0.0
1663844300513657355,3.009132038353206,1.4286748203188098,0.0
1663844300561599553,3.012572292748854,1.4381784181703794,0.0
1663844300561627792,3.0159090992298694,1.4474926346387456,0.0
1663844300571394694,3.0191041463996724,1.4564951907374883,0.0
1663844300590911338,3.022270895484982,1.4655077399306395,0.0
1663844300637681382,3.025516508340421,1.474854124424332,0.0
1663844300637704257,3.0286772903783965,1.4840493396076155,0.0
1663844300685716044,3.0317589588017175,1.4930913339925387,0.0
1663844300685764363,3.034758841971897,1.5020259352207777,0.0
1663844300733579298,3.037732202480838,1.5109693979409016,0.0
1663844300733606153,3.0407472818655705,1.520123656818976,0.0
1663844300733624552,3.0437219659675327,1.52924627633445,0.0
1663844300777720933,3.0466449482567057,1.5382960036802504,0.0
1663844300777755587,3.0494937758067397,1.5471903916220617,0.0
1663844300791521393,3.052269225510742,1.5559291327731435,0.0
1663844300812323738,3.055114558210728,1.5649588701702424,0.0
1663844300853927351,3.057942613439851,1.5740387101532582,0.0
1663844300853986373,3.0607122915656877,1.5830027070910089,0.0
1663844300897519799,3.0634272213673546,1.5918496962991435,0.0
1663844300897535208,3.0660599777063164,1.600498833622212,0.0
1663844300941813883,3.0686099976919077,1.6089502379550837,0.0
1663844300941860953,3.071176016825311,1.6175304219840272,0.0
1663844300985729539,3.0737346879538703,1.6261572916735132,0.0
1663844300985778597,3.0763428811897797,1.6350363338471368,0.0
1663844301029590285,3.078906644316812,1.6438839148648121,0.0
1663844301029607276,3.081497431559956,1.652901241490897,0.0
1663844301077654552,3.084054501486982,1.661883855178325,0.0
1663844301077695278,3.0865780392751447,1.670831645236193,0.0
1663844301077754546,3.089169890114829,1.6801146118163264,0.0
1663844301121625858,3.091771511729705,1.6895276468961744,0.0
1663844301121661106,3.0943884750416815,1.6991133705255477,0.0
1663844301130707144,3.0969066889356407,1.708504915879894,0.0
1663844301152158984,3.0994297941096707,1.7180275623082062,0.0
1663844301197538380,3.101944556549524,1.7276406036763716,0.0
1663844301197556032,3.104334750899616,1.736889458399907,0.0
1663844301241771279,3.106357188814314,1.7448237984344404,0.0
1663844301241797329,3.10822984648089,1.7522681620711378,0.0
1663844301289689235,3.1102126655476074,1.7602564428128276,0.0
1663844301289713401,3.112280483612247,1.7687069177621262,0.0
1663844301337927831,3.114244572757137,1.7768753755859696,0.0
1663844301337986459,3.116108378955405,1.7847170256870486,0.0
1663844301338002627,3.1179378097116786,1.7925229714134894,0.0
1663844301381722732,3.1196920513865307,1.8001274819758628,0.0
1663844301381761726,3.121488582144634,1.8080285584046876,0.0
1663844301390945829,3.123377080245011,1.8164772132392297,0.0
1663844301411002665,3.125195104936566,1.8247667569055408,0.0
1663844301457646701,3.126954359377744,1.832938147849715,0.0
1663844301457698885,3.128618668758644,1.8409116994297978,0.0
1663844301505482131,3.130208226871691,1.8486829627852146,0.0
1663844301505497483,3.131791711080749,1.8565859892695507,0.0
1663844301556638057,3.133358483367361,1.864579278649868,0.0
1663844301556695569,3.1348903635456615,1.8725793282518968,0.0
1663844301556710754,3.1363311138498338,1.880292799632122,0.0
1663844301597572723,3.1376986475518676,1.8878029487864696,0.0
1663844301597587068,3.1390231025532205,1.8954074054374046,0.0
1663844301611627628,3.1402832303591377,1.9028498286234612,0.0
1663844301632167353,3.1415191156274815,1.9103395419541287,0.0
1663844301673751390,3.142700744550913,1.9177084620755864,0.0
1663844301673807325,3.14383707260796,1.9249981935108358,0.0
1663844301717659161,3.144923680201577,1.9321661278603055,0.0
1663844301717697007,3.1460201361402804,1.939591312942696,0.0
1663844301761749805,3.1471123447036735,1.9471895020128378,0.0
1663844301761802654,3.148158907731361,1.954751062339637,0.0
1663844301805842707,3.149156272698244,1.9621471757643993,0.0
1663844301805914535,3.150127814335045,1.9695467255829409,0.0
1663844301849655565,3.151107281358647,1.97720326438035,0.0
1663844301849703704,3.152083803862387,1.9850321149197248,0.0
1663844301897678420,3.1530394977320144,1.9929064960612213,0.0
1663844301897739207,3.153991238820972,2.0009960967568787,0.0
1663844301897814140,3.154907090859579,2.0090469194814404,0.0
1663844301945656301,3.155796553164659,2.017315193611614,0.0
1663844301945687072,3.156645553674132,2.0255448491281864,0.0
1663844301951508058,3.1574653740307825,2.0339060239243385,0.0
1663844301971643814,3.158237465100566,2.042228912937854,0.0
1663844302017609806,3.1589616072297235,2.050556110805571,0.0
1663844302017637451,3.1596554782372084,2.0591426216892006,0.0
1663844302061616645,3.1602922174076604,2.0676907945506984,0.0
1663844302061665130,3.1608383967879723,2.076159763558748,0.0
1663844302105560639,3.161335553409903,2.0848880552535425,0.0
1663844302105573052,3.1617465648107506,2.093321962985144,0.0
1663844302153751462,3.162003788930995,2.099671015141275,0.0
1663844302153801812,3.162216706770946,2.1061923850206097,0.0
1663844302153837655,3.162395100801389,2.1134400173561185,0.0
1663844302197615061,3.16251683531902,2.120859430424707,0.0
1663844302197639369,3.1625793569539065,2.128322226262346,0.0
1663844302214530583,3.1625468454350485,2.1354866879159387,0.0
1663844302232261989,3.162461638624242,2.1422668735612262,0.0
1663844302273899153,3.162317958815013,2.1493020038016044,0.0
1663844302273953495,3.162099073713581,2.156633856828637,0.0
1663844302317571658,3.161793512174767,2.164176019457061,0.0
1663844302317596822,3.1614191400096003,2.1714161744542118,0.0
1663844302361640556,3.1609744340056563,2.178524166072938,0.0
1663844302361679018,3.1604578614944914,2.1855417763661484,0.0
1663844302405530565,3.1598269087387574,2.1924215634224606,0.0
1663844302405551424,3.1590879603659974,2.1995478894806095,0.0
1663844302449655436,3.158280429482322,2.2065809243888888,0.0
1663844302449700608,3.1574133486235354,2.213434955473185,0.0
1663844302493667104,3.156487236966972,2.2201090825032477,0.0
1663844302493725129,3.155459340482382,2.226897717480569,0.0
1663844302493744749,3.1543071892975187,2.23392579374147,0.0
1663844302537572636,3.152957420282363,2.2413091339570497,0.0
1663844302537604462,3.151591179471637,2.248298747274604,0.0
1663844302551522510,3.1501247279717965,2.2553551617080303,0.0
1663844302571329774,3.148533833326489,2.262603027863159,0.0
1663844302617544266,3.1468792162121098,2.2697928587412877,0.0
1663844302617563648,3.1452552865553915,2.276551815498229,0.0
1663844302661906472,3.1435665513872895,2.28329487248332,0.0
1663844302661990033,3.141772544196727,2.2901871033617827,0.0
1663844302709713946,3.1399429634654745,2.2968933152820847,0.0
1663844302709742492,3.1380621513517215,2.303629627313686,0.0
1663844302757879310,3.136156610424495,2.3103146522012112,0.0
1663844302757930276,3.1342268402609146,2.316948320751563,0.0
1663844302757963191,3.132215041876138,2.323735687944236,0.0
1663844302805657302,3.130110940791815,2.33071801772312,0.0
1663844302805724042,3.1279289538810895,2.3378549753235642,0.0
1663844302812107694,3.1256159772496814,2.345308570687521,0.0
1663844302834166965,3.123343981212917,2.3524621448391043,0.0
1663844302877705605,3.121015881955977,2.3596873211014473,0.0
1663844302877757041,3.1186165105961194,2.367023870636757,0.0
1663844302921555116,3.1161742890502997,2.374391209275156,0.0
1663844302921585509,3.113584325400295,2.3821138732460434,0.0
1663844302965930552,3.110967420401316,2.389827449507539,0.0
1663844302965993092,3.108366455410792,2.3974112867087327,0.0
1663844303009647148,3.1056950550651354,2.405061002500327,0.0
1663844303009683419,3.102944887356964,2.4128186296012077,0.0
1663844303054984928,3.1000743479759905,2.420804977429662,0.0
1663844303055035946,3.0971835888086265,2.428738655103547,0.0
1663844303055962862,3.094282315717118,2.436577610429343,0.0
1663844303097541840,3.091293616704059,2.4445204956849738,0.0
1663844303097770195,3.088274468006411,2.452406208787686,0.0
1663844303112052006,3.085195854073316,2.4603146779332117,0.0
1663844303131909017,3.082071004825981,2.468159105712102,0.0
1663844303177695446,3.0789211145638484,2.475947529219174,0.0
1663844303177740968,3.075779075804089,2.4836010006027167,0.0
1663844303225599557,3.0725996727952625,2.491239025759392,0.0
1663844303225643237,3.0693166579352127,2.4990185850930233,0.0
1663844303269790622,3.0659480974559026,2.5069008117034723,0.0
1663844303269847334,3.0625465496318034,2.5147688590115154,0.0
1663844303313560759,3.0600679541377005,2.5204340525870452,0.0
1663844303313583827,3.0579187726840704,2.5252657314791804,0.0
1663844303313602493,3.055139198950888,2.531450563525968,0.0
1663844303357671542,3.051946792920346,2.5384784000168605,0.0
1663844303357710067,3.0489408642564406,2.5450288089754802,0.0
1663844303371729143,3.0461260893637703,2.551103824277211,0.0
1663844303391807790,3.0433474316498677,2.5570545382460663,0.0
1663844303437908293,3.040410232485854,2.5633077320213378,0.0
1663844303437936297,3.0373725802233404,2.569702132296673,0.0
1663844303481659194,3.034227346684176,2.576281469383208,0.0
1663844303481755766,3.0310325535035996,2.582931636477698,0.0
1663844303525579559,3.0279131991225543,2.589381457872908,0.0
1663844303525600501,3.0247747214947904,2.595821995580637,0.0
1663844303569663652,3.0216547384073777,2.602176631029144,0.0
1663844303569717660,3.018534823075756,2.60848375634185,0.0
1663844303617626619,3.0151869668744835,2.615201452970076,0.0
1663844303617666856,3.011883154761589,2.6217504074683395,0.0
1663844303617729205,3.00861676803517,2.628174906079992,0.0
1663844303661807105,3.0052901874885087,2.6346644386040428,0.0
1663844303661835585,3.0019986219167514,2.641028098232863,0.0
1663844303671800606,2.998448166021141,2.6478339530377273,0.0
1663844303691775800,2.9947734732474975,2.654815437835928,0.0
1663844303733660370,2.99101321257544,2.66189640141826,0.0
1663844303777719546,2.987187992158555,2.6690393854068453,0.0
1663844303777759952,2.983451011872531,2.6759392680518177,0.0
1663844303778025714,2.979568567801313,2.683051311325927,0.0
1663844303821666951,2.9754993884980436,2.6904500618822467,0.0
1663844303821721570,2.9713023203651123,2.698021773226183,0.0
1663844303832067929,2.967060693461517,2.705617495682136,0.0
1663844303851866933,2.962753406543286,2.713274192070875,0.0
1663844303893537254,2.9582735266892835,2.7211762550943925,0.0
1663844303893571678,2.9537338703709692,2.729093326685329,0.0
1663844303937854258,2.948997297756303,2.737290701600518,0.0
1663844303937915974,2.9442951253952807,2.7453601210564953,0.0
1663844303981724799,2.9395662197291776,2.7534139031786022,0.0
