%time,field.linear.x,field.linear.y,field.linear.z,field.angular.x,field.angular.y,field.angular.z
1663844290773241325,0.43591034412384033,0.0,0.0,0.0,0.0,-0.02738765813410282
1663844290848329327,0.40567970275878906,0.0,0.0,0.0,0.0,-0.029557624831795692
1663844290941564364,0.4098154306411743,0.0,0.0,0.0,0.0,-0.02902114950120449
1663844291024678367,0.41770267486572266,0.0,0.0,0.0,0.0,-0.029182327911257744
1663844291170196543,0.42305320501327515,0.0,0.0,0.0,0.0,-0.02888372167944908
1663844291324480634,0.42529547214508057,0.0,0.0,0.0,0.0,-0.028695574030280113
1663844291359870443,0.4250445365905761,0.0,0.0,0.0,0.0,-0.0290549136698246
1663844291561000510,0.4055124819278717,0.0,0.0,0.0,0.0,-0.030523043125867844
1663844291588988670,0.4033091366291046,0.0,0.0,0.0,0.0,-0.030631253495812416
1663844291676493033,0.36549076437950134,0.0,0.0,0.0,0.0,-0.03292172774672508
1663844291781939410,0.3647634088993072,0.0,0.0,0.0,0.0,0.058158472180366516
1663844291794955080,0.36398157477378845,0.0,0.0,0.0,0.0,0.05864367261528969
1663844291884160007,0.35087794065475464,0.0,0.0,0.0,0.0,0.05824855715036392
1663844292017531642,0.3251919448375702,0.0,0.0,0.0,0.0,-0.03525136783719063
1663844292097072775,0.3031830191612243,0.0,0.0,0.0,0.0,-0.03648003190755844
1663844292184746888,0.2817203402519226,0.0,0.0,0.0,0.0,-0.03890370950102806
1663844292393710652,0.24639847874641418,0.0,0.0,0.0,0.0,-0.04249076545238495
1663844292464843806,0.23303274810314178,0.0,0.0,0.0,0.0,-0.042826101183891296
1663844292479102497,0.23395675420761108,0.0,0.0,0.0,0.0,-0.04275279864668846
1663844292691881018,0.20937159657478333,0.0,0.0,0.0,0.0,-0.04444209486246109
1663844292796928619,0.205470934510231,0.0,0.0,0.0,0.0,-0.044583603739738464
1663844292829258868,0.20603953301906586,0.0,0.0,0.0,0.0,-0.04442652314901352
1663844292870536961,0.2088751494884491,0.0,0.0,0.0,0.0,0.05930398777127266
1663844292995023066,0.20880192518234253,0.0,0.0,0.0,0.0,0.05963867902755737
1663844293126594887,0.20058491826057434,0.0,0.0,0.0,0.0,-0.042505938559770584
1663844293170638683,0.20957432687282562,0.0,0.0,0.0,0.0,-0.04127848148345947
1663844293336956120,0.22660295665264124,0.0,0.0,0.0,0.0,-0.03968197852373123
1663844293430601550,0.2716643214225769,0.0,0.0,0.0,0.0,0.06302256137132645
1663844293476648554,0.28394773602485657,0.0,0.0,0.0,0.0,-0.03203556314110756
1663844293600935874,0.30443319678306574,0.0,0.0,0.0,0.0,-0.028251158073544502
1663844293736408633,0.33399757742881775,0.0,0.0,0.0,0.0,-0.022859131917357445
1663844293789838239,0.36091670393943787,0.0,0.0,0.0,0.0,-0.017314421012997627
1663844293899782089,0.3895672857761383,0.0,0.0,0.0,0.0,-0.01219925656914711
1663844294040547946,0.42319899797439575,0.0,0.0,0.0,0.0,-0.005241831298917532
1663844294111116272,0.4664324820041656,0.0,0.0,0.0,0.0,0.0027786309365183115
1663844294283080872,0.5424367189407348,0.0,0.0,0.0,0.0,0.020611124113202095
1663844294326859576,0.5750613808631896,0.0,0.0,0.0,0.0,0.17453292519943245
1663844294373205001,0.5744926929473876,0.0,0.0,0.0,0.0,0.17453292519943245
1663844294470581305,0.6032014489173889,0.0,0.0,0.0,0.0,0.17453292519943245
1663844294581233634,0.6228384375572205,0.0,0.0,0.0,0.0,0.8726646259971643
1663844294664353452,0.6417539119720458,0.0,0.0,0.0,0.0,0.8726646259971643
1663844294770435028,0.687271773815155,0.0,0.0,0.0,0.0,0.17453292519943245
1663844294879516506,0.6712881326675414,0.0,0.0,0.0,0.0,0.08239544183015823
1663844295014448470,0.7187004685401915,0.0,0.0,0.0,0.0,0.16292539238929749
1663844295052478621,0.6897135376930236,0.0,0.0,0.0,0.0,0.3490658503988654
1663844295142150536,0.687377393245697,0.0,0.0,0.0,0.0,0.3490658503988654
1663844295228561332,0.6807623505592345,0.0,0.0,0.0,0.0,0.3490658503988654
1663844295353661006,0.673593759536743,0.0,0.0,0.0,0.0,0.3490658503988654
1663844295441712652,0.6638756394386292,0.0,0.0,0.0,0.0,0.3490658503988654
1663844295527833145,0.6546949744224548,0.0,0.0,0.0,0.0,0.3490658503988654
1663844295660271779,0.6439180970191954,0.0,0.0,0.0,0.0,0.3490658503988654
1663844295732721183,0.6864866018295288,0.0,0.0,0.0,0.0,0.3490658503988654
1663844295823963556,0.6332551836967468,0.0,0.0,0.0,0.0,0.3490658503988654
1663844295893525671,0.6215326189994812,0.0,0.0,0.0,0.0,0.3490658503988654
1663844296013484135,0.6087246537208556,0.0,0.0,0.0,0.0,0.3490658503988654
1663844296192897170,0.5817146301269531,0.0,0.0,0.0,0.0,0.14446625113487244
1663844296270940152,0.5676419138908386,0.0,0.0,0.0,0.0,0.1442853957414627
1663844296280112232,0.5687791109085082,0.0,0.0,0.0,0.0,0.144023597240448
1663844296357835122,0.5538417100906372,0.0,0.0,0.0,0.0,0.14153534173965454
1663844296542584956,0.5439667105674743,0.0,0.0,0.0,0.0,0.1420573592185974
1663844296695940994,0.5212253928184509,0.0,0.0,0.0,0.0,0.1409219354391098
1663844296885609635,0.5727220177650452,0.0,0.0,0.0,0.0,0.20872357487678528
1663844296913347315,0.5727930665016174,0.0,0.0,0.0,0.0,0.20927509665489197
1663844297003676011,0.5079283118247986,0.0,0.0,0.0,0.0,0.14193855226039886
1663844297120628925,0.5078380703926086,0.0,0.0,0.0,0.0,0.14508499205112457
1663844297327380521,0.5090728998184204,0.0,0.0,0.0,0.0,0.15464887022972107
1663844297483560872,0.5083196163177489,0.0,0.0,0.0,0.0,0.1581295132637024
1663844297490201504,0.570846915245056,0.0,0.0,0.0,0.0,0.3490658503988654
1663844297601604420,0.504380464553833,0.0,0.0,0.0,0.0,0.3490658503988654
1663844297623625383,0.5035985708236694,0.0,0.0,0.0,0.0,0.3490658503988654
1663844297800358188,0.5706395506858825,0.0,0.0,0.0,0.0,0.3490658503988654
1663844297925721593,0.5035640001296996,0.0,0.0,0.0,0.0,0.18568900227546692
1663844298020624702,0.5051068663597107,0.0,0.0,0.0,0.0,0.19437044858932495
1663844298091332676,0.5076863765716553,0.0,0.0,0.0,0.0,0.2022518813610077
1663844298227581787,0.509614109992981,0.0,0.0,0.0,0.0,0.209580659866333
1663844298359573870,0.5079529285430908,0.0,0.0,0.0,0.0,0.5235987755982984
1663844298489417746,0.5126879215240479,0.0,0.0,0.0,0.0,0.5235987755982984
1663844298585020064,0.5163835287094116,0.0,0.0,0.0,0.0,0.5235987755982984
1663844298660053926,0.5222297310829161,0.0,0.0,0.0,0.0,0.5235987755982984
1663844298871807319,0.5266443490982056,0.0,0.0,0.0,0.0,0.5235987755982984
1663844298965048162,0.5330482721328735,0.0,0.0,0.0,0.0,0.5235987755982984
1663844299003945679,0.5329061150550842,0.0,0.0,0.0,0.0,0.5235987755982984
1663844299135377114,0.5330812335014343,0.0,0.0,0.0,0.0,0.5235987755982984
1663844299190924905,0.5332022309303284,0.0,0.0,0.0,0.0,0.5235987755982984
1663844299348173473,0.6135455965995789,0.0,0.0,0.0,0.0,0.5235987755982984
1663844299432479148,0.5443817377090454,0.0,0.0,0.0,0.0,0.3490658503988654
1663844299551805526,0.6213560700416565,0.0,0.0,0.0,0.0,0.3490658503988654
1663844299694914169,0.6203330755233765,0.0,0.0,0.0,0.0,0.3490658503988654
1663844299862098031,0.6158129572868347,0.0,0.0,0.0,0.0,0.3490658503988654
1663844299939557807,0.6131539940834044,0.0,0.0,0.0,0.0,0.3490658503988654
1663844300035669343,0.6124862432479858,0.0,0.0,0.0,0.0,0.3490658503988654
1663844300160876237,0.6058405637741089,0.0,0.0,0.0,0.0,0.3490658503988654
1663844300256448107,0.5277615785598755,0.0,0.0,0.0,0.0,0.27012887597084045
1663844300468314133,0.5172308087348938,0.0,0.0,0.0,0.0,0.2704254686832428
1663844300576809393,0.5065643787384033,0.0,0.0,0.0,0.0,0.26999136805534363
1663844300600486482,0.5072751641273499,0.0,0.0,0.0,0.0,0.2710176110267639
1663844300682255026,0.4966810941696167,0.0,0.0,0.0,0.0,0.2685338854789734
1663844300860058026,0.47195121645927424,0.0,0.0,0.0,0.0,0.2681673467159271
1663844300902744473,0.5427886843681335,0.0,0.0,0.0,0.0,0.3490658503988654
1663844300940166838,0.5433573126792908,0.0,0.0,0.0,0.0,0.3490658503988654
1663844301073262055,0.5368110537528992,0.0,0.0,0.0,0.0,0.3490658503988654
1663844301161470543,0.43629318475723267,0.0,0.0,0.0,0.0,0.28644025325775146
1663844301241752432,0.4231885075569153,0.0,0.0,0.0,0.0,0.29326072335243225
1663844301382718042,0.4141066372394562,0.0,0.0,0.0,0.0,0.30158621072769165
1663844301548000406,0.38946640491485596,0.0,0.0,0.0,0.0,0.3130452334880829
1663844301691947499,0.3825017511844635,0.0,0.0,0.0,0.0,0.3490658503988654
1663844301719491973,0.3837811350822449,0.0,0.0,0.0,0.0,0.3490658503988654
1663844301734664988,0.47474831342697144,0.0,0.0,0.0,0.0,0.8726646259971643
1663844301934982944,0.4653240144252776,0.0,0.0,0.0,0.0,0.8726646259971643
1663844302056051204,0.3630502521991729,0.0,0.0,0.0,0.0,1.0471975511965972
1663844302106599300,0.36088311672210693,0.0,0.0,0.0,0.0,1.0471975511965972
1663844302152311020,0.3609541952610016,0.0,0.0,0.0,0.0,1.0471975511965972
1663844302245382141,0.3595805466175079,0.0,0.0,0.0,0.0,0.8726646259971643
1663844302318834512,0.35803523659706116,0.0,0.0,0.0,0.0,0.8726646259971643
1663844302406783701,0.4593990445137024,0.0,0.0,0.0,0.0,0.4553159177303314
1663844302552435591,0.3732808232307434,0.0,0.0,0.0,0.0,0.43241003155708313
1663844302665792278,0.38952627778053284,0.0,0.0,0.0,0.0,0.4383247196674347
1663844302711372065,0.3961397409439087,0.0,0.0,0.0,0.0,0.4430064558982849
1663844302814420792,0.5007104277610779,0.0,0.0,0.0,0.0,0.48403623700141907
1663844302969466346,0.5282533168792723,0.0,0.0,0.0,0.0,0.4896300137042999
1663844303015373467,0.45197775959968567,0.0,0.0,0.0,0.0,0.46300655603408813
1663844303057854248,0.45162239670753473,0.0,0.0,0.0,0.0,0.4630240499973297
1663844303228006073,0.5584273934364319,0.0,0.0,0.0,0.0,0.5070559978485107
1663844303314724115,0.6079452633857726,0.0,0.0,0.0,0.0,0.5319294333457947
1663844303397369371,0.5663853287696838,0.0,0.0,0.0,0.0,0.5026629567146301
1663844303439481717,0.5674514770507811,0.0,0.0,0.0,0.0,0.5013610124588013
1663844303623992269,0.6292916536331177,0.0,0.0,0.0,0.0,0.519240140914917
1663844303696600537,0.6620448827743529,0.0,0.0,0.0,0.0,0.5241913199424744
1663844303744199840,0.6609076857566833,0.0,0.0,0.0,0.0,0.5243902802467346
1663844303829738562,0.7600765228271484,0.0,0.0,0.0,0.0,0.6981317007977313
1663844303916671106,0.7138553857803345,0.0,0.0,0.0,0.0,0.6981317007977313
1663844304131141261,0.7361564636230469,0.0,0.0,0.0,0.0,0.6981317007977313
1663844304217580263,0.7796291708946228,0.0,0.0,0.0,0.0,0.6981317007977313
1663844304308189903,0.8009446859359741,0.0,0.0,0.0,0.0,0.6981317007977313
1663844304379307494,0.8143637776374817,0.0,0.0,0.0,0.0,0.6981317007977313
1663844304476089507,0.8238108158111571,0.0,0.0,0.0,0.0,0.6981317007977313
1663844304555320689,0.8961067795753478,0.0,0.0,0.0,0.0,0.6981317007977313
1663844304691612288,0.8338820934295653,0.0,0.0,0.0,0.0,0.6981317007977313
1663844304861391111,0.8342797756195068,0.0,0.0,0.0,0.0,0.6981317007977313
1663844304948109765,0.830163836479187,0.0,0.0,0.0,0.0,0.6981317007977313
1663844305034986459,0.8212644457817077,0.0,0.0,0.0,0.0,0.6981317007977313
1663844305115966646,0.8090503215789795,0.0,0.0,0.0,0.0,0.6981317007977313
1663844305242865877,0.7842826843261719,0.0,0.0,0.0,0.0,0.6981317007977313
1663844305407960079,0.7841911315917969,0.0,0.0,0.0,0.0,0.8726646259971643
1663844305475019265,0.6765925884246826,0.0,0.0,0.0,0.0,0.6981317007977313
1663844305575565905,0.6282793283462524,0.0,0.0,0.0,0.0,0.6981317007977313
1663844305759791807,0.5742722153663635,0.0,0.0,0.0,0.0,0.5235987755982984
1663844305877035776,0.5231040716171265,0.0,0.0,0.0,0.0,0.5235987755982984
1663844305968324237,0.4702889025211334,0.0,0.0,0.0,0.0,0.5235987755982984
1663844306136922097,0.5096745491027832,0.0,0.0,0.0,0.0,0.8726646259971643
1663844306184629311,0.37349697947502136,0.0,0.0,0.0,0.0,0.23894153535366058
1663844306255847722,0.32914429903030396,0.0,0.0,0.0,0.0,0.21623776853084564
1663844306395084669,0.39211660623550415,0.0,0.0,0.0,0.0,0.6981317007977313
1663844306453962841,0.35677534341812134,0.0,0.0,0.0,0.0,1.3962634015954631
1663844306560781934,0.21723338961601257,0.0,0.0,0.0,0.0,1.745329251994329
1663844306764975790,0.2949611842632293,0.0,0.0,0.0,0.0,1.5707963267948961
1663844306895776589,0.12708285450935364,0.0,0.0,0.0,0.0,1.5707963267948961
1663844307035393261,0.2192697525024414,0.0,0.0,0.0,0.0,1.5707963267948961
1663844307071835251,0.08407624810934067,0.0,0.0,0.0,0.0,1.2217304763960302
1663844307153054972,0.05723274499177933,0.0,0.0,0.0,0.0,1.0471975511965972
1663844307252152212,0.03297152370214462,0.0,0.0,0.0,0.0,0.025707516819238663
1663844307283109329,0.03503274917602539,0.0,0.0,0.0,0.0,0.02424842119216919
1663844307368065534,0.007711417507380247,0.0,0.0,0.0,0.0,-0.007818489335477352
1663844307502600749,0.08848968893289565,0.0,0.0,0.0,0.0,0.06675570458173752
1663844307580202044,0.0,0.0,0.0,0.0,0.0,0.576153732019943
1663844307715329881,0.0,0.0,0.0,0.0,0.0,0.4949162741831045
1663844307773527342,0.0,0.0,0.0,0.0,0.0,0.39109124515378224
1663844307924218380,0.0,0.0,0.0,0.0,0.0,0.31533059243527856
1663844307998883764,0.0,0.0,0.0,0.0,0.0,-4.996003610813204e-16
1663844308130928551,0.010454539209604263,0.0,0.0,0.0,0.0,0.06637890636920929
1663844308224815850,0.004047589376568794,0.0,0.0,0.0,0.0,-0.06180620566010475
1663844308296483040,0.022243272513151165,0.0,0.0,0.0,0.0,-0.06164199486374855
1663844308517565821,0.05459551885724068,0.0,0.0,0.0,0.0,-0.06232372671365738
1663844308596345524,0.04511700943112373,0.0,0.0,0.0,0.0,0.054718878120183945
1663844308628998680,0.04511700943112373,0.0,0.0,0.0,0.0,0.05476774647831917
1663844308728311230,0.09285462647676468,0.0,0.0,0.0,0.0,-0.06350995600223541
1663844308856549073,0.10258658230304718,0.0,0.0,0.0,0.0,-0.06464573740959167
1663844308944635944,0.11983613669872284,0.0,0.0,0.0,0.0,-0.06614921987056732
1663844309107240924,0.12906306982040405,0.0,0.0,0.0,0.0,-0.06656979024410248
1663844309152890348,0.1391495168209076,0.0,0.0,0.0,0.0,-0.06769070029258728
1663844309297467201,0.1451207995414734,0.0,0.0,0.0,0.0,-0.067142553627491
1663844309407582904,0.15729708969593048,0.0,0.0,0.0,0.0,-0.06868681311607361
1663844309501483820,0.1587410420179367,0.0,0.0,0.0,0.0,-0.06913222372531891
1663844309523157077,0.1584567427635193,0.0,0.0,0.0,0.0,-0.06918108463287354
1663844309578814776,0.15711736679077148,0.0,0.0,0.0,0.0,-0.06921815872192383
1663844309672022660,0.14833076298236847,0.0,0.0,0.0,0.0,-0.06716897338628769
1663844309797943928,0.14491483569145203,0.0,0.0,0.0,0.0,-0.06682408601045609
1663844309932012531,0.12052351981401443,0.0,0.0,0.0,0.0,-0.0640961229801178
1663844310087938353,0.11165878176689145,0.0,0.0,0.0,0.0,-0.06287596374750137
1663844310095075877,0.11222739517688751,0.0,0.0,0.0,0.0,-0.0631272941827774
1663844310193440349,0.09210691601037979,0.0,0.0,0.0,0.0,-0.0618789866566658
1663844310228724307,0.09203583747148512,0.0,0.0,0.0,0.0,-0.061920877546072006
1663844310317139209,0.08186472207307816,0.0,0.0,0.0,0.0,-0.06147850304841995
1663844310484074392,0.059857916086912155,0.0,0.0,0.0,0.0,0.055860694497823715
1663844310568708134,0.037235718220472336,0.0,0.0,0.0,0.0,0.058789242058992386
1663844310619458554,0.037235718220472336,0.0,0.0,0.0,0.0,0.05893934145569801
1663844310744457427,0.029348025098443028,0.0,0.0,0.0,0.0,0.06023891270160675
1663844310840954966,0.02551722712814808,0.0,0.0,0.0,0.0,-0.06166026368737221
1663844310888135547,0.015157509595155716,0.0,0.0,0.0,0.0,-0.0619521327316761
1663844310958907073,0.008027270436286925,0.0,0.0,0.0,0.0,-0.062480200082063675
1663844311136207755,0.0,0.0,0.0,0.0,0.0,-4.996003610813204e-16
1663844311183730244,0.0,0.0,0.0,0.0,0.0,-4.996003610813204e-16
1663844311256690217,0.0,0.0,0.0,0.0,0.0,-4.996003610813204e-16
1663844311342817720,0.0,0.0,0.0,0.0,0.0,-4.996003610813204e-16
1663844311475536151,0.0,0.0,0.0,0.0,0.0,-4.996003610813204e-16
1663844311568207779,0.0,0.0,0.0,0.0,0.0,-4.996003610813204e-16
1663844311772123389,0.0,0.0,0.0,0.0,0.0,-4.996003610813204e-16
1663844311829747828,0.0,0.0,0.0,0.0,0.0,-4.996003610813204e-16
1663844311867485227,0.0,0.0,0.0,0.0,0.0,-4.996003610813204e-16
1663844312027965484,0.0,0.0,0.0,0.0,0.0,-4.996003610813204e-16
1663844312159481152,0.0,0.0,0.0,0.0,0.0,0.243799992254191
1663844312215381994,0.0,0.0,0.0,0.0,0.0,0.3036493716538253
1663844312374990812,0.0,0.0,0.0,0.0,0.0,0.4548760310824264
1663844312446865141,0.0,0.0,0.0,0.0,0.0,0.5170464565190861
1663844312582819865,0.0,0.0,0.0,0.0,0.0,0.604145563512407
1663844312718927218,0.0,0.0,0.0,0.0,0.0,0.7053941187290015
1663844312839313053,0.0,0.0,0.0,0.0,0.0,0.7965176455766332
1663844313019964643,0.0,0.0,0.0,0.0,0.0,0.9122199256165309
1663844313138180898,0.0,0.0,0.0,0.0,0.0,1.0952908988518633
1663844313212378453,0.0,0.0,0.0,0.0,0.0,1.1993514395632512
1663844313231600173,0.0,0.0,0.0,0.0,0.0,1.1755225078810807
1663844313442961084,0.0,0.0,0.0,0.0,0.0,1.5244790660010388
1663844313524890654,0.0,0.0,0.0,0.0,0.0,1.5310515179870836
1663844313574241679,0.0,0.0,0.0,0.0,0.0,1.5107924523117326
1663844313782432899,0.0,0.0,0.0,0.0,0.0,1.5707963267948966
1663844313899516175,0.0,0.0,0.0,0.0,0.0,1.5707963267948966
1663844313960281182,0.0,0.0,0.0,0.0,0.0,1.5707963267948966
1663844314035756816,0.0,0.0,0.0,0.0,0.0,1.5707963267948966
1663844314211702676,0.0,0.0,0.0,0.0,0.0,1.5707963267948966
1663844314259235287,0.0,0.0,0.0,0.0,0.0,1.5707963267948966
1663844314378436677,0.11275269091129303,0.0,0.0,0.0,0.0,-1.5707963267948972
1663844314515912993,0.0,0.0,0.0,0.0,0.0,1.5707963267948966
1663844314610906598,0.0,0.0,0.0,0.0,0.0,1.5707963267948966
1663844314722510954,0.0,0.0,0.0,0.0,0.0,1.5707963267948966
1663844314860072621,0.0,0.0,0.0,0.0,0.0,1.5707963267948966
1663844314915605869,0.02559102326631546,0.0,0.0,0.0,0.0,2.617993877991493
1663844315076819744,0.0358467623591423,0.0,0.0,0.0,0.0,2.617993877991493
1663844315243361689,0.19345855712890625,0.0,0.0,0.0,0.0,2.2689280275926276
1663844315387092468,0.06329131126403809,0.0,0.0,0.0,0.0,2.2689280275926276
1663844315428736759,0.03918956965208053,0.0,0.0,0.0,0.0,2.094395102393195
1663844315579984131,0.17686358094215393,0.0,0.0,0.0,0.0,1.745329251994329
1663844315640008680,0.16503801941871643,0.0,0.0,0.0,0.0,1.5707963267948961
1663844315689971588,0.030992377549409863,0.0,0.0,0.0,0.0,-1.2217304763960313
1663844315699124031,0.03070807084441185,0.0,0.0,0.0,0.0,-1.2217304763960313
1663844315853017266,0.16466239094734192,0.0,0.0,0.0,0.0,-1.3962634015954642
1663844315940984621,0.035532400012016296,0.0,0.0,0.0,0.0,-1.7453292519943302
1663844315997543605,0.037208504974842065,0.0,0.0,0.0,0.0,-1.9198621771937632
1663844316148915766,0.03914972394704818,0.0,0.0,0.0,0.0,-2.094395102393196
1663844316240652292,0.040589090436697006,0.0,0.0,0.0,0.0,-2.094395102393196
1663844316299470951,0.04189617186784744,0.0,0.0,0.0,0.0,-2.268928027592629
1663844316452185279,0.043510470539331436,0.0,0.0,0.0,0.0,-2.268928027592629
1663844316584078815,0.15852031111717224,0.0,0.0,0.0,0.0,-2.094395102393196
1663844316660364314,0.1566628664731979,0.0,0.0,0.0,0.0,-2.094395102393196
1663844316711648897,0.15602317452430725,0.0,0.0,0.0,0.0,-2.094395102393196
1663844317696628186,0.8240249156951904,0.0,0.0,0.0,0.0,-0.5235987755982994
1663844317739194969,0.626135766506195,0.0,0.0,0.0,0.0,-0.5235987755982994
1663844317817469251,0.668917953968048,0.0,0.0,0.0,0.0,-0.5235987755982994
1663844317908393082,0.5768705606460571,0.0,0.0,0.0,0.0,-0.5235987755982994
1663844317996091627,0.64236980676651,0.0,0.0,0.0,0.0,-0.5235987755982994
1663844318086859384,0.6314525008201599,0.0,0.0,0.0,0.0,-0.5235987755982994
1663844318259088442,0.6196691393852234,0.0,0.0,0.0,0.0,-0.5235987755982994
1663844318303167991,0.61336350440979,0.0,0.0,0.0,0.0,-0.5235987755982994
1663844318468210285,0.6058103442192078,0.0,0.0,0.0,0.0,-0.5235987755982994
1663844318536450902,0.5982639193534851,0.0,0.0,0.0,0.0,-0.5235987755982994
1663844318561272616,0.5974109768867492,0.0,0.0,0.0,0.0,-0.5235987755982994
1663844318734309133,0.592538595199585,0.0,0.0,0.0,0.0,-0.5235987755982994
1663844318837182725,0.5847628712654113,0.0,0.0,0.0,0.0,-0.5235987755982994
1663844318944272276,0.5823394656181335,0.0,0.0,0.0,0.0,-0.5235987755982994
1663844318997392274,0.5819841027259826,0.0,0.0,0.0,0.0,-0.5235987755982994
1663844319090344239,0.5766025185585022,0.0,0.0,0.0,0.0,-0.5235987755982994
1663844319163902622,0.5724288821220398,0.0,0.0,0.0,0.0,-0.5235987755982994
1663844319339673826,0.5710737705230713,0.0,0.0,0.0,0.0,-0.5235987755982994
1663844319383817967,0.5695180296897887,0.0,0.0,0.0,0.0,-0.3490658503988664
1663844319467021777,0.5664990544319153,0.0,0.0,0.0,0.0,-0.3396708369255066
1663844319566450884,0.5655959248542786,0.0,0.0,0.0,0.0,-0.3402176797389984
1663844319617970181,0.47351896762847895,0.0,0.0,0.0,0.0,-0.2885934114456177
1663844319828244934,0.5615622401237487,0.0,0.0,0.0,0.0,-0.34700486063957214
1663844319898818467,0.5560737252235413,0.0,0.0,0.0,0.0,-0.3530750870704651
1663844320036807686,0.548213541507721,0.0,0.0,0.0,0.0,-0.3578106462955475
1663844320160240060,0.5419658422470093,0.0,0.0,0.0,0.0,-0.3640901446342468
1663844320344302359,0.44648686051368713,0.0,0.0,0.0,0.0,-0.3207836151123047
1663844320467596310,0.5368700623512268,0.0,0.0,0.0,0.0,-0.3862844407558441
1663844320603865461,0.4486228823661804,0.0,0.0,0.0,0.0,-0.3539067208766937
1663844320642228370,0.5413459539413452,0.0,0.0,0.0,0.0,-0.6981317007977323
1663844320775572540,0.5455967783927917,0.0,0.0,0.0,0.0,-0.6981317007977323
1663844320802888109,0.5448149442672728,0.0,0.0,0.0,0.0,-0.6981317007977323
1663844320891861261,0.5465925335884094,0.0,0.0,0.0,0.0,-0.6981317007977323
1663844320967100539,0.5497180819511414,0.0,0.0,0.0,0.0,-0.6981317007977323
1663844321006784309,0.5485808849334716,0.0,0.0,0.0,0.0,-0.6981317007977323
1663844321060472116,0.5509045720100403,0.0,0.0,0.0,0.0,-0.6981317007977323
1663844321172586140,0.5607747435569763,0.0,0.0,0.0,0.0,-0.6981317007977323
1663844321305278378,0.569073498249054,0.0,0.0,0.0,0.0,-0.6981317007977323
1663844321358461544,0.5779805779457092,0.0,0.0,0.0,0.0,-0.6981317007977323
1663844321604398481,0.595318615436554,0.0,0.0,0.0,0.0,-0.6981317007977323
1663844321674630435,0.5169486403465271,0.0,0.0,0.0,0.0,-0.6981317007977323
1663844321678456978,0.5184412598609923,0.0,0.0,0.0,0.0,-0.6981317007977323
1663844321813725901,0.6121400594711304,0.0,0.0,0.0,0.0,-0.6981317007977323
1663844321903176606,0.5407178997993469,0.0,0.0,0.0,0.0,-0.6981317007977323
1663844322022846700,0.6445168256759642,0.0,0.0,0.0,0.0,-0.6981317007977323
1663844322164270541,0.5886573791503906,0.0,0.0,0.0,0.0,-0.6981317007977323
1663844322208494412,0.6919049620628356,0.0,0.0,0.0,0.0,-0.6981317007977323
1663844322373309721,0.7147359251976012,0.0,0.0,0.0,0.0,-0.6981317007977323
1663844322467879485,0.7378653287887573,0.0,0.0,0.0,0.0,-0.6981317007977323
1663844322550688680,0.6853262186050415,0.0,0.0,0.0,0.0,-0.6981317007977323
1663844322671750226,0.6989615559577942,0.0,0.0,0.0,0.0,-0.6981317007977323
1663844322769406500,0.7853119969367981,0.0,0.0,0.0,0.0,-0.6981317007977323
1663844322839141436,0.791787326335907,0.0,0.0,0.0,0.0,-0.8726646259971653
1663844323020030287,0.791506826877594,0.0,0.0,0.0,0.0,-0.8726646259971653
1663844323071689389,0.7881150841712952,0.0,0.0,0.0,0.0,-0.8726646259971653
1663844323188701613,0.7791877388954163,0.0,0.0,0.0,0.0,-0.8726646259971653
1663844323281043489,0.7682871222496033,0.0,0.0,0.0,0.0,-1.0471975511965983
1663844323445145759,0.6790753602981566,0.0,0.0,0.0,0.0,-1.0471975511965983
1663844323532559977,0.7379451990127562,0.0,0.0,0.0,0.0,-1.0471975511965983
1663844323620239715,0.7202849984169005,0.0,0.0,0.0,0.0,-1.0471975511965983
1663844323712296761,0.7014734148979187,0.0,0.0,0.0,0.0,-1.0471975511965983
1663844323784457909,0.6799696683883667,0.0,0.0,0.0,0.0,-1.0471975511965983
1663844323871458530,0.6624208688735962,0.0,0.0,0.0,0.0,-1.3962634015954642
1663844323959006500,0.5667274594306946,0.0,0.0,0.0,0.0,-1.3962634015954642
1663844324051384152,0.5583999752998352,0.0,0.0,0.0,0.0,-1.2217304763960313
1663844324136663240,0.6309742331504822,0.0,0.0,0.0,0.0,-1.3962634015954642
1663844324303507654,0.6309598088264464,0.0,0.0,0.0,0.0,-1.2217304763960313
1663844324391500458,0.5505239963531494,0.0,0.0,0.0,0.0,-1.0471975511965983
1663844324524760923,0.5540955066680908,0.0,0.0,0.0,0.0,-0.8726646259971653
1663844324645176544,0.6427903771400452,0.0,0.0,0.0,0.0,-0.8726646259971653
1663844324740329559,0.6538844704627991,0.0,0.0,0.0,0.0,-0.6981317007977323
1663844324841225523,0.671601891517639,0.0,0.0,0.0,0.0,-0.6981317007977323
1663844324908251567,0.6164602637290955,0.0,0.0,0.0,0.0,-0.6981317007977323
1663844325004331640,0.7187196016311646,0.0,0.0,0.0,0.0,-0.665005087852478
1663844325059457061,0.7434622049331665,0.0,0.0,0.0,0.0,-0.6526850461959839
1663844325173513549,0.7688522934913635,0.0,0.0,0.0,0.0,-0.5235987755982994
1663844325264734135,0.7912825345993041,0.0,0.0,0.0,0.0,-0.5235987755982994
1663844325320396252,0.7438766360282898,0.0,0.0,0.0,0.0,-0.5235987755982994
1663844325430236954,0.8373236060142517,0.0,0.0,0.0,0.0,-0.5896190404891968
1663844325520734824,0.855623960494995,0.0,0.0,0.0,0.0,-0.5743721127510071
1663844325610679412,0.8814342021942139,0.0,0.0,0.0,0.0,-0.5487349033355713
1663844325771173769,0.8983824849128723,0.0,0.0,0.0,0.0,-0.8726646259971653
1663844325852601912,0.9169539213180542,0.0,0.0,0.0,0.0,-0.8726646259971653
1663844325941048449,0.8608339428901671,0.0,0.0,0.0,0.0,-1.2217304763960313
1663844325983588422,0.8602653741836547,0.0,0.0,0.0,0.0,-1.2217304763960313
1663844326120144886,0.9229954481124878,0.0,0.0,0.0,0.0,-1.0471975511965983
1663844326203940247,0.9220987558364868,0.0,0.0,0.0,0.0,-1.0471975511965983
1663844326370904429,0.9186598658561705,0.0,0.0,0.0,0.0,-1.0471975511965983
1663844326458242436,0.8472644686698914,0.0,0.0,0.0,0.0,-1.2217304763960313
1663844326619744747,0.9037753939628601,0.0,0.0,0.0,0.0,-2.094395102393196
1663844326682166847,0.8965415954589844,0.0,0.0,0.0,0.0,-1.9198621771937632
1663844326751045251,0.8860669732093811,0.0,0.0,0.0,0.0,-2.094395102393196
1663844326804994149,0.8857825994491575,0.0,0.0,0.0,0.0,-2.094395102393196
1663844326860911390,0.8106653690338135,0.0,0.0,0.0,0.0,-1.9198621771937632
1663844326968328781,0.8702055811882019,0.0,0.0,0.0,0.0,-2.094395102393196
1663844327142413411,0.8613610863685608,0.0,0.0,0.0,0.0,-1.9198621771937632
1663844327227643933,0.8636218309402466,0.0,0.0,0.0,0.0,-1.9198621771937632
1663844327264530478,0.8639772534370422,0.0,0.0,0.0,0.0,-1.9198621771937632
1663844327456052249,0.8815216422080994,0.0,0.0,0.0,0.0,-2.094395102393196
1663844327579636949,0.8920069932937622,0.0,0.0,0.0,0.0,-2.094395102393196
1663844327614997291,0.9038044214248657,0.0,0.0,0.0,0.0,-2.094395102393196
1663844327708366612,0.9085940718650818,0.0,0.0,0.0,0.0,-2.094395102393196
1663844327724009602,0.908665120601654,0.0,0.0,0.0,0.0,-2.094395102393196
1663844327918890587,0.9123661518096924,0.0,0.0,0.0,0.0,-2.094395102393196
1663844328012801032,0.9097965359687805,0.0,0.0,0.0,0.0,-2.094395102393196
1663844328082419867,0.9038523435592651,0.0,0.0,0.0,0.0,-2.094395102393196
1663844328177487892,0.8829752802848816,0.0,0.0,0.0,0.0,-2.094395102393196
1663844328319020260,0.8656638860702515,0.0,0.0,0.0,0.0,-2.094395102393196
1663844328322780296,0.8461544513702391,0.0,0.0,0.0,0.0,-2.094395102393196
1663844328448718204,0.8245213031768799,0.0,0.0,0.0,0.0,-2.094395102393196
1663844328477727237,0.82501882314682,0.0,0.0,0.0,0.0,-2.094395102393196
1663844328644340823,0.8027109503746032,0.0,0.0,0.0,0.0,-2.094395102393196
1663844328790464773,0.7786268591880798,0.0,0.0,0.0,0.0,-2.094395102393196
1663844328841735146,0.7501541376113892,0.0,0.0,0.0,0.0,-2.094395102393196
1663844329103470602,0.6948980093002319,0.0,0.0,0.0,0.0,-2.094395102393196
1663844329214733966,0.6705159544944762,0.0,0.0,0.0,0.0,-2.094395102393196
1663844329253118835,0.671653151512146,0.0,0.0,0.0,0.0,-2.094395102393196
1663844329341664896,0.6518633961677551,0.0,0.0,0.0,0.0,-2.094395102393196
1663844329504598809,0.6314069032669067,0.0,0.0,0.0,0.0,-1.9198621771937632
1663844329641595353,0.5957061052322388,0.0,0.0,0.0,0.0,-1.7453292519943302
1663844329717074223,0.5786281824111938,0.0,0.0,0.0,0.0,-1.5707963267948972
1663844329935026009,0.5626092553138733,0.0,0.0,0.0,0.0,-1.5707963267948972
1663844330066948697,0.541949987411499,0.0,0.0,0.0,0.0,-1.2217304763960313
1663844330154189345,0.43684878945350647,0.0,0.0,0.0,0.0,-1.3962634015954642
1663844330286765556,0.4941950440406798,0.0,0.0,0.0,0.0,-0.6981317007977323
1663844330342883380,0.4607325494289398,0.0,0.0,0.0,0.0,-0.6981317007977323
1663844330536610665,0.4228146374225616,0.0,0.0,0.0,0.0,-0.5235987755982994
1663844330624556977,0.3816184401512146,0.0,0.0,0.0,0.0,-0.14166951179504395
1663844330747500700,0.31326726078987116,0.0,0.0,0.0,0.0,-0.09418715536594391
1663844330822508741,0.25293388962745667,0.0,0.0,0.0,0.0,0.023130977526307106
1663844330877378335,0.25343143939971924,0.0,0.0,0.0,0.0,0.026356346905231476
1663844330963531667,0.23252691328525543,0.0,0.0,0.0,0.0,0.051655568182468414
1663844331136319712,0.18185774981975555,0.0,0.0,0.0,0.0,-0.025586528703570366
1663844331210751730,0.16415338218212128,0.0,0.0,0.0,0.0,-0.01729283109307289
1663844331336881270,0.15093685686588287,0.0,0.0,0.0,0.0,-0.011168054305016994
1663844331347103787,0.1513633131980896,0.0,0.0,0.0,0.0,-0.011433344334363937
1663844331442029097,0.1384472995996475,0.0,0.0,0.0,0.0,-0.007300456985831261
1663844331534068315,0.12739637494087216,0.0,0.0,0.0,0.0,-0.004180434159934521
1663844331651180848,0.11651135236024854,0.0,0.0,0.0,0.0,-0.0018858237890526652
1663844331744428329,0.10430385172367096,0.0,0.0,0.0,0.0,-0.0015104704070836306
1663844331833163728,0.08913224190473557,0.0,0.0,0.0,0.0,-0.0028559034690260887
1663844331951069643,0.07532457262277603,0.0,0.0,0.0,0.0,-0.005398602690547705
1663844332049735326,0.06060659885406493,0.0,0.0,0.0,0.0,-0.009258587844669819
1663844332123648727,0.14052030444145203,0.0,0.0,0.0,0.0,0.0827338919043541
1663844332350308418,0.11405325680971146,0.0,0.0,0.0,0.0,0.07429496198892593
1663844332393037711,0.0,0.0,0.0,0.0,0.0,0.6586059554550615
1663844332402419252,0.0,0.0,0.0,0.0,0.0,0.6519574621277018
1663844332603385350,0.0847654789686203,0.0,0.0,0.0,0.0,0.06546178460121155
1663844332648234695,0.08483656495809555,0.0,0.0,0.0,0.0,0.06940972059965134
1663844332778662139,0.06853383034467697,0.0,0.0,0.0,0.0,0.06856781989336014
1663844332843092307,0.0,0.0,0.0,0.0,0.0,0.5888612381684432
1663844332867519509,0.0,0.0,0.0,0.0,0.0,0.5756512730359912
1663844333030691089,0.0,0.0,0.0,0.0,0.0,0.5712291081121847
1663844333119190622,0.0,0.0,0.0,0.0,0.0,0.5283228415509724
1663844333162891512,0.0,0.0,0.0,0.0,0.0,0.4900504620037619
1663844333245482530,0.0036563961766660205,0.0,0.0,0.0,0.0,-0.03969983011484146
1663844333337290952,0.08833585679531097,0.0,0.0,0.0,0.0,0.07222902029752731
1663844333427922901,0.058661919087171555,0.0,0.0,0.0,0.0,-0.035401906818151474
1663844333547793781,0.09562837332487106,0.0,0.0,0.0,0.0,-0.02935388870537281
1663844333637008955,0.1364985108375549,0.0,0.0,0.0,0.0,-0.023964615538716316
1663844333728653418,0.21882233023643494,0.0,0.0,0.0,0.0,0.08100055158138275
1663844333938477130,0.2449878603219986,0.0,0.0,0.0,0.0,-0.015516409650444984
1663844333979359296,0.2774159610271454,0.0,0.0,0.0,0.0,-0.014448550529778004
1663844334027840918,0.276634156703949,0.0,0.0,0.0,0.0,-0.014235620386898518
1663844334112110812,0.31401586532592773,0.0,0.0,0.0,0.0,-0.012950224801898003
1663844334281015223,0.34800937771797175,0.0,0.0,0.0,0.0,-0.013573861680924892
1663844334328017168,0.379739761352539,0.0,0.0,0.0,0.0,-0.014701556414365768
1663844334405583070,0.4097039401531219,0.0,0.0,0.0,0.0,-0.016891436651349068
1663844334496798702,0.43273401260375977,0.0,0.0,0.0,0.0,-0.019344286993145943
1663844334589073787,0.4459134340286255,0.0,0.0,0.0,0.0,-0.022883526980876923
1663844334644845396,0.45532098412513733,0.0,0.0,0.0,0.0,-0.026994140818715096
1663844334753045292,0.45706814527511597,0.0,0.0,0.0,0.0,-0.030438534915447235
1663844334893556465,0.4546408951282501,0.0,0.0,0.0,0.0,-0.03465551137924194
1663844334964253973,0.4477720856666564,0.0,0.0,0.0,0.0,-0.038205284625291824
1663844335152256937,0.41830316185951233,0.0,0.0,0.0,0.0,-0.04603588581085205
1663844335280870639,0.3958771526813507,0.0,0.0,0.0,0.0,-0.04932122305035591
1663844335314732863,0.3967300355434417,0.0,0.0,0.0,0.0,-0.04909433051943779
1663844335359275287,0.36964714527130127,0.0,0.0,0.0,0.0,-0.0517512671649456
1663844335453477916,0.34086063504219055,0.0,0.0,0.0,0.0,-0.05449448898434639
1663844335626596692,0.309441864490509,0.0,0.0,0.0,0.0,-0.055945541709661484
1663844335748428638,0.24367743730545044,0.0,0.0,0.0,0.0,-0.059793729335069656
1663844335844230206,0.18704231083393097,0.0,0.0,0.0,0.0,0.04362731799483299
1663844335883663431,0.18860600888729095,0.0,0.0,0.0,0.0,0.043187495321035385
1663844336048517930,0.1640133112668991,0.0,0.0,0.0,0.0,-0.06080958619713783
1663844336142988208,0.0890151634812355,0.0,0.0,0.0,0.0,-0.061776984483003616
1663844336206634692,0.02498438209295273,0.0,0.0,0.0,0.0,0.05759478732943535
1663844336442739622,0.0,0.0,0.0,0.0,0.0,-4.996003610813204e-16
1663844336566528970,0.0,0.0,0.0,0.0,0.0,-4.996003610813204e-16
1663844336613729714,0.0,0.0,0.0,0.0,0.0,-0.21816104334890585
1663844336683626857,0.0,0.0,0.0,0.0,0.0,-0.23131039408769621
1663844336699995614,0.0,0.0,0.0,0.0,0.0,-0.22784207668523337
1663844336805437694,0.0,0.0,0.0,0.0,0.0,-0.24619899637592488
1663844336915363035,0.0,0.0,0.0,0.0,0.0,-0.25367282222496157
1663844337051944083,0.0,0.0,0.0,0.0,0.0,-0.25921291818754694
1663844337215182887,0.0,0.0,0.0,0.0,0.0,-0.26545419186521735
1663844337303121812,0.0,0.0,0.0,0.0,0.0,-0.2625281340987386
1663844337417681202,0.0,0.0,0.0,0.0,0.0,-0.2651583747748282
1663844337425078052,0.0,0.0,0.0,0.0,0.0,-0.256808322886527
1663844337511010144,0.0,0.0,0.0,0.0,0.0,-0.26870272763420533
1663844337599531369,0.0,0.0,0.0,0.0,0.0,-0.2733997015055041
1663844337815630852,0.0,0.0,0.0,0.0,0.0,-0.31162247724924386
1663844337876449279,0.0,0.0,0.0,0.0,0.0,-0.31132738139537697
1663844337907686038,0.0,0.0,0.0,0.0,0.0,-0.30845009523963124
1663844338074806789,0.0,0.0,0.0,0.0,0.0,-0.33562880027488307
1663844338163225417,0.0,0.0,0.0,0.0,0.0,-0.3456920282781243
1663844338250890468,0.0,0.0,0.0,0.0,0.0,-0.35729098338694004
1663844338328784227,0.0,0.0,0.0,0.0,0.0,-0.37054590805536386
1663844338415782451,0.0,0.0,0.0,0.0,0.0,-0.3951303467694519
1663844338503166044,0.0,0.0,0.0,0.0,0.0,-0.42276360478530267
1663844338667269968,0.0,0.0,0.0,0.0,0.0,-0.4582952185174645
1663844338759040927,0.0,0.0,0.0,0.0,0.0,-0.475583429892214
1663844338850995163,0.0,0.0,0.0,0.0,0.0,-0.4984910503787115
1663844338966671562,0.0,0.0,0.0,0.0,0.0,-0.5230073315779995
1663844339016529337,0.0,0.0,0.0,0.0,0.0,-0.5300179751447659
1663844339104611604,0.0,0.0,0.0,0.0,0.0,-0.5423397553656155
1663844339195396926,0.0,0.0,0.0,0.0,0.0,-0.5701096785672738
1663844339270754809,0.0,0.0,0.0,0.0,0.0,-0.578574673005225
1663844339452785235,0.0,0.0,0.0,0.0,0.0,-0.5961175270803237
1663844339485813850,0.0,0.0,0.0,0.0,0.0,-0.5868009714082109
1663844339615345741,0.0,0.0,0.0,0.0,0.0,-0.6380747261530222
1663844339748509612,0.0,0.0,0.0,0.0,0.0,-0.622182403296616
1663844339800815585,0.0,0.0,0.0,0.0,0.0,-0.6075183314326165
1663844339826005489,0.0,0.0,0.0,0.0,0.0,-0.5954559494970533
1663844339962060167,0.0,0.0,0.0,0.0,0.0,-0.6219370575441391
1663844340006961399,0.0,0.0,0.0,0.0,0.0,-0.8476290355247378
1663844340129071437,0.0,0.0,0.0,0.0,0.0,-0.9101549605134358
1663844340175968660,0.0,0.0,0.0,0.0,0.0,-1.0557159001971186
1663844340271382490,0.0,0.0,0.0,0.0,0.0,-1.125888087960766
1663844340327511744,0.0,0.0,0.0,0.0,0.0,-1.1691824034687994
1663844340432021285,0.0,0.0,0.0,0.0,0.0,-1.2432472984932603
1663844340519301375,0.0,0.0,0.0,0.0,0.0,-1.2957300950822024
1663844340611292186,0.0,0.0,0.0,0.0,0.0,-1.3556527317256823
1663844340664501233,0.0,0.0,0.0,0.0,0.0,-1.4002212513494965
1663844340872343808,0.0,0.0,0.0,0.0,0.0,-1.5243355452117868
1663844340926709868,0.0,0.0,0.0,0.0,0.0,-1.5174186849618512
1663844340988907213,0.0,0.0,0.0,0.0,0.0,-1.5707963267948966
1663844341078999014,0.0,0.0,0.0,0.0,0.0,-1.5707963267948966
1663844341171542475,0.0,0.0,0.0,0.0,0.0,-1.5707963267948966
1663844341247114796,0.0,0.0,0.0,0.0,0.0,-1.5707963267948966
