%time,field.linear.x,field.linear.y,field.linear.z,field.angular.x,field.angular.y,field.angular.z
1663844290764568369,0.015,0.0,0.0,0.0,0.0,0.0020160243578696366
1663844290813111684,0.03,0.0,0.0,0.0,0.0,0.0009681640628282312
1663844290863123182,0.045,0.0,0.0,0.0,0.0,-0.00025065832777973886
1663844290913085465,0.06,0.0,0.0,0.0,0.0,-0.0014694807183877087
1663844290963103949,0.075,0.0,0.0,0.0,0.0,-0.0026508895286988
1663844291013018074,0.09,0.0,0.0,0.0,0.0,-0.003832298339009891
1663844291063151114,0.105,0.0,0.0,0.0,0.0,-0.00499265030665717
1663844291113258566,0.12,0.0,0.0,0.0,0.0,-0.006153002274304448
1663844291162964177,0.135,0.0,0.0,0.0,0.0,-0.007313354241951727
1663844291212943126,0.15000000000000002,0.0,0.0,0.0,0.0,-0.008436603370693583
1663844291263164986,0.16500000000000004,0.0,0.0,0.0,0.0,-0.009559852499435438
1663844291313118338,0.18000000000000005,0.0,0.0,0.0,0.0,-0.010683101628177294
1663844291363069002,0.19500000000000006,0.0,0.0,0.0,0.0,-0.011807702014943508
1663844291413569931,0.21000000000000008,0.0,0.0,0.0,0.0,-0.012932302401709722
1663844291463193860,0.2250000000000001,0.0,0.0,0.0,0.0,-0.014056902788475937
1663844291513234935,0.2400000000000001,0.0,0.0,0.0,0.0,-0.015181503175242151
1663844291562819963,0.2550000000000001,0.0,0.0,0.0,0.0,-0.016571870213298354
1663844291613687488,0.27000000000000013,0.0,0.0,0.0,0.0,-0.01799383755820383
1663844291663022032,0.28500000000000014,0.0,0.0,0.0,0.0,-0.019415804903109304
1663844291713720119,0.30000000000000016,0.0,0.0,0.0,0.0,-0.021932725250629705
1663844291763087615,0.31500000000000017,0.0,0.0,0.0,0.0,-0.024449645598150105
1663844291813102228,0.3300000000000002,0.0,0.0,0.0,0.0,0.0009966529122152241
1663844291862794729,0.3450000000000002,0.0,0.0,0.0,0.0,0.026442951422580567
1663844291920397193,0.35087794065475464,0.0,0.0,0.0,0.0,0.05824855715036392
1663844291963034663,0.35087794065475464,0.0,0.0,0.0,0.0,0.05824855715036392
1663844292013242101,0.35087794065475464,0.0,0.0,0.0,0.0,0.05824855715036392
1663844292064617053,0.3251919448375702,0.0,0.0,0.0,0.0,-0.03525136783719063
1663844292113111151,0.3031830191612243,0.0,0.0,0.0,0.0,-0.03648003190755844
1663844292162729858,0.3031830191612243,0.0,0.0,0.0,0.0,-0.03648003190755844
1663844292213086571,0.2817203402519226,0.0,0.0,0.0,0.0,-0.03890370950102806
1663844292263053857,0.2817203402519226,0.0,0.0,0.0,0.0,-0.03890370950102806
1663844292313017540,0.2817203402519226,0.0,0.0,0.0,0.0,-0.03890370950102806
1663844292362753342,0.2817203402519226,0.0,0.0,0.0,0.0,-0.03890370950102806
1663844292413319695,0.24639847874641418,0.0,0.0,0.0,0.0,-0.04249076545238495
1663844292463170698,0.24639847874641418,0.0,0.0,0.0,0.0,-0.04249076545238495
1663844292513815053,0.23395675420761108,0.0,0.0,0.0,0.0,-0.04275279864668846
1663844292562971767,0.23395675420761108,0.0,0.0,0.0,0.0,-0.04275279864668846
1663844292613256673,0.23395675420761108,0.0,0.0,0.0,0.0,-0.04275279864668846
1663844292662765635,0.23395675420761108,0.0,0.0,0.0,0.0,-0.04275279864668846
1663844292713604225,0.20937159657478333,0.0,0.0,0.0,0.0,-0.04444209486246109
1663844292762971914,0.20937159657478333,0.0,0.0,0.0,0.0,-0.04444209486246109
1663844292812942297,0.205470934510231,0.0,0.0,0.0,0.0,-0.044583603739738464
1663844292862871366,0.20603953301906586,0.0,0.0,0.0,0.0,-0.04442652314901352
1663844292913654474,0.2088751494884491,0.0,0.0,0.0,0.0,0.05930398777127266
1663844292963099630,0.2088751494884491,0.0,0.0,0.0,0.0,0.05930398777127266
1663844293013337900,0.20880192518234253,0.0,0.0,0.0,0.0,0.05963867902755737
1663844293062876677,0.20880192518234253,0.0,0.0,0.0,0.0,0.05963867902755737
1663844293112990422,0.20880192518234253,0.0,0.0,0.0,0.0,0.05963867902755737
1663844293162820909,0.20058491826057434,0.0,0.0,0.0,0.0,-0.042505938559770584
1663844293213522646,0.20957432687282562,0.0,0.0,0.0,0.0,-0.04127848148345947
1663844293263547373,0.20957432687282562,0.0,0.0,0.0,0.0,-0.04127848148345947
1663844293313447834,0.0595743268728256,0.0,0.0,0.0,0.0,-0.011733964676893624
1663844293363353627,0.0745743268728256,0.0,0.0,0.0,0.0,-0.014243835040167263
1663844293413457523,0.0895743268728256,0.0,0.0,0.0,0.0,-0.016753705403440903
1663844293463011879,0.1045743268728256,0.0,0.0,0.0,0.0,-0.010181987915171338
1663844293513388731,0.1195743268728256,0.0,0.0,0.0,0.0,-0.012009480796857094
1663844293562925766,0.1345743268728256,0.0,0.0,0.0,0.0,-0.01383697367854285
1663844293613241803,0.14957432687282562,0.0,0.0,0.0,0.0,-0.01510987020752176
1663844293662976252,0.16457432687282564,0.0,0.0,0.0,0.0,-0.01638276673650067
1663844293714192131,0.17957432687282565,0.0,0.0,0.0,0.0,-0.017655663265479578
1663844293763167435,0.19457432687282566,0.0,0.0,0.0,0.0,-0.018161105480283022
1663844293813904743,0.20957432687282568,0.0,0.0,0.0,0.0,-0.01808475532085134
1663844293862968139,0.2245743268728257,0.0,0.0,0.0,0.0,-0.018008405161419657
1663844293913402263,0.2395743268728257,0.0,0.0,0.0,0.0,-0.01748027820701337
1663844293962989296,0.2545743268728257,0.0,0.0,0.0,0.0,-0.016952151252607083
1663844294012973425,0.26957432687282573,0.0,0.0,0.0,0.0,-0.016424024298200796
1663844294063343273,0.28457432687282574,0.0,0.0,0.0,0.0,-0.015332188632831976
1663844294113303922,0.29957432687282576,0.0,0.0,0.0,0.0,-0.013838374438224882
1663844294162925791,0.31457432687282577,0.0,0.0,0.0,0.0,-0.012344560243617788
1663844294213165836,0.3295743268728258,0.0,0.0,0.0,0.0,-0.010850746049010694
1663844294263098355,0.3445743268728258,0.0,0.0,0.0,0.0,-0.0093569318544036
1663844294313442357,0.3595743268728258,0.0,0.0,0.0,0.0,-0.007085045646943802
1663844294363252489,0.3745743268728258,0.0,0.0,0.0,0.0,0.0055573359358378205
1663844294412946155,0.38957432687282584,0.0,0.0,0.0,0.0,0.0182356800455961
1663844294462764693,0.40457432687282585,0.0,0.0,0.0,0.0,0.03091402415535438
1663844294513730053,0.41957432687282586,0.0,0.0,0.0,0.0,0.04175989199800401
1663844294563301961,0.4345743268728259,0.0,0.0,0.0,0.0,0.05260575984065365
1663844294613357033,0.4495743268728259,0.0,0.0,0.0,0.0,0.11794419820593946
1663844294663396247,0.4645743268728259,0.0,0.0,0.0,0.0,0.18328263657122526
1663844294712857798,0.4795743268728259,0.0,0.0,0.0,0.0,0.24164562368172288
1663844294762962363,0.49457432687282593,0.0,0.0,0.0,0.0,0.3000086107922205
1663844294813328470,0.5095743268728259,0.0,0.0,0.0,0.0,0.2902413029541716
1663844294863063096,0.5245743268728259,0.0,0.0,0.0,0.0,0.2804739951161227
1663844294912868585,0.5395743268728259,0.0,0.0,0.0,0.0,0.2602224701611584
1663844294962872982,0.5545743268728259,0.0,0.0,0.0,0.0,0.2399709452061941
1663844295012889620,0.5695743268728259,0.0,0.0,0.0,0.0,0.2197194202512298
1663844295062826336,0.584574326872826,0.0,0.0,0.0,0.0,0.23586898906368242
1663844295112804345,0.599574326872826,0.0,0.0,0.0,0.0,0.25201855787613503
1663844295162944421,0.614574326872826,0.0,0.0,0.0,0.0,0.26859781242812336
1663844295213038502,0.629574326872826,0.0,0.0,0.0,0.0,0.2851770669801117
1663844295262823243,0.644574326872826,0.0,0.0,0.0,0.0,0.303898863257153
1663844295313130367,0.659574326872826,0.0,0.0,0.0,0.0,0.32262065953419433
1663844295363401702,0.673593759536743,0.0,0.0,0.0,0.0,0.3490658503988654
1663844295413141657,0.673593759536743,0.0,0.0,0.0,0.0,0.3490658503988654
1663844295463162661,0.6638756394386292,0.0,0.0,0.0,0.0,0.3490658503988654
1663844295513663610,0.6638756394386292,0.0,0.0,0.0,0.0,0.3490658503988654
1663844295563074582,0.6546949744224548,0.0,0.0,0.0,0.0,0.3490658503988654
1663844295612996406,0.6546949744224548,0.0,0.0,0.0,0.0,0.3490658503988654
1663844295662923863,0.6439180970191954,0.0,0.0,0.0,0.0,0.3490658503988654
1663844295713314088,0.6439180970191954,0.0,0.0,0.0,0.0,0.3490658503988654
1663844295763207388,0.6589180970191955,0.0,0.0,0.0,0.0,0.3490658503988654
1663844295813478160,0.6739180970191955,0.0,0.0,0.0,0.0,0.3490658503988654
1663844295862893867,0.6332551836967468,0.0,0.0,0.0,0.0,0.3490658503988654
1663844295913120984,0.6215326189994812,0.0,0.0,0.0,0.0,0.3490658503988654
1663844295962994039,0.6215326189994812,0.0,0.0,0.0,0.0,0.3490658503988654
1663844296013506947,0.6087246537208556,0.0,0.0,0.0,0.0,0.3490658503988654
1663844296062979989,0.6087246537208556,0.0,0.0,0.0,0.0,0.3490658503988654
1663844296112973171,0.6087246537208556,0.0,0.0,0.0,0.0,0.3490658503988654
1663844296164409161,0.6087246537208556,0.0,0.0,0.0,0.0,0.3490658503988654
1663844296213282338,0.5817146301269531,0.0,0.0,0.0,0.0,0.14446625113487244
1663844296263290372,0.5817146301269531,0.0,0.0,0.0,0.0,0.14446625113487244
1663844296313227128,0.5687791109085082,0.0,0.0,0.0,0.0,0.144023597240448
1663844296363006865,0.5538417100906372,0.0,0.0,0.0,0.0,0.14153534173965454
1663844296412807270,0.5538417100906372,0.0,0.0,0.0,0.0,0.14153534173965454
1663844296462904939,0.5538417100906372,0.0,0.0,0.0,0.0,0.14153534173965454
1663844296513030526,0.5538417100906372,0.0,0.0,0.0,0.0,0.14153534173965454
1663844296563002905,0.5439667105674743,0.0,0.0,0.0,0.0,0.1420573592185974
1663844296612819802,0.5439667105674743,0.0,0.0,0.0,0.0,0.1420573592185974
1663844296662964620,0.5439667105674743,0.0,0.0,0.0,0.0,0.1420573592185974
1663844296713155020,0.5212253928184509,0.0,0.0,0.0,0.0,0.1409219354391098
1663844296762977190,0.5212253928184509,0.0,0.0,0.0,0.0,0.1409219354391098
1663844296812829770,0.5212253928184509,0.0,0.0,0.0,0.0,0.1409219354391098
1663844296862904638,0.5212253928184509,0.0,0.0,0.0,0.0,0.1409219354391098
1663844296913025147,0.5362253928184509,0.0,0.0,0.0,0.0,0.16067128003440825
1663844296962777163,0.551225392818451,0.0,0.0,0.0,0.0,0.18060848620245795
1663844297013102819,0.5079283118247986,0.0,0.0,0.0,0.0,0.14193855226039886
1663844297063062976,0.5079283118247986,0.0,0.0,0.0,0.0,0.14193855226039886
1663844297113115839,0.5079283118247986,0.0,0.0,0.0,0.0,0.14193855226039886
1663844297163003979,0.5078380703926086,0.0,0.0,0.0,0.0,0.14508499205112457
1663844297212809854,0.5078380703926086,0.0,0.0,0.0,0.0,0.14508499205112457
1663844297263086321,0.5078380703926086,0.0,0.0,0.0,0.0,0.14508499205112457
1663844297313047690,0.5078380703926086,0.0,0.0,0.0,0.0,0.14508499205112457
1663844297363400665,0.5090728998184204,0.0,0.0,0.0,0.0,0.15464887022972107
1663844297412959128,0.5090728998184204,0.0,0.0,0.0,0.0,0.15464887022972107
1663844297462994373,0.5090728998184204,0.0,0.0,0.0,0.0,0.15464887022972107
1663844297513207352,0.5240728998184204,0.0,0.0,0.0,0.0,0.20185730701979152
1663844297562858060,0.5390728998184204,0.0,0.0,0.0,0.0,0.24906574380986196
1663844297612958151,0.504380464553833,0.0,0.0,0.0,0.0,0.3490658503988654
1663844297662970656,0.5035985708236694,0.0,0.0,0.0,0.0,0.3490658503988654
1663844297713013501,0.5035985708236694,0.0,0.0,0.0,0.0,0.3490658503988654
1663844297762954759,0.5035985708236694,0.0,0.0,0.0,0.0,0.3490658503988654
1663844297813861999,0.5185985708236694,0.0,0.0,0.0,0.0,0.3490658503988654
1663844297863018938,0.5335985708236695,0.0,0.0,0.0,0.0,0.3490658503988654
1663844297913284867,0.5485985708236695,0.0,0.0,0.0,0.0,0.3490658503988654
1663844297962937234,0.5035640001296996,0.0,0.0,0.0,0.0,0.18568900227546692
1663844298013271783,0.5035640001296996,0.0,0.0,0.0,0.0,0.18568900227546692
1663844298062982740,0.5051068663597107,0.0,0.0,0.0,0.0,0.19437044858932495
1663844298113336896,0.5076863765716553,0.0,0.0,0.0,0.0,0.2022518813610077
1663844298162966462,0.5076863765716553,0.0,0.0,0.0,0.0,0.2022518813610077
1663844298213163146,0.5076863765716553,0.0,0.0,0.0,0.0,0.2022518813610077
1663844298263223717,0.509614109992981,0.0,0.0,0.0,0.0,0.209580659866333
1663844298313000620,0.509614109992981,0.0,0.0,0.0,0.0,0.209580659866333
1663844298362814454,0.5086883457164418,0.0,0.0,0.0,0.0,0.38458065986633305
1663844298413102992,0.5079529285430908,0.0,0.0,0.0,0.0,0.5235987755982984
1663844298463686502,0.5079529285430908,0.0,0.0,0.0,0.0,0.5235987755982984
1663844298513201935,0.5126879215240479,0.0,0.0,0.0,0.0,0.5235987755982984
1663844298563068712,0.5126879215240479,0.0,0.0,0.0,0.0,0.5235987755982984
1663844298617696658,0.5163835287094116,0.0,0.0,0.0,0.0,0.5235987755982984
1663844298663041077,0.5222297310829161,0.0,0.0,0.0,0.0,0.5235987755982984
1663844298713053416,0.5222297310829161,0.0,0.0,0.0,0.0,0.5235987755982984
1663844298762929514,0.5222297310829161,0.0,0.0,0.0,0.0,0.5235987755982984
1663844298813239145,0.5222297310829161,0.0,0.0,0.0,0.0,0.5235987755982984
1663844298862964639,0.5222297310829161,0.0,0.0,0.0,0.0,0.5235987755982984
1663844298913212219,0.5266443490982056,0.0,0.0,0.0,0.0,0.5235987755982984
1663844298962917669,0.5266443490982056,0.0,0.0,0.0,0.0,0.5235987755982984
1663844299016529107,0.5329061150550842,0.0,0.0,0.0,0.0,0.5235987755982984
1663844299062985462,0.5329061150550842,0.0,0.0,0.0,0.0,0.5235987755982984
1663844299113351814,0.5329061150550842,0.0,0.0,0.0,0.0,0.5235987755982984
1663844299163281562,0.5330812335014343,0.0,0.0,0.0,0.0,0.5235987755982984
1663844299213084590,0.5332022309303284,0.0,0.0,0.0,0.0,0.5235987755982984
1663844299262874080,0.5332022309303284,0.0,0.0,0.0,0.0,0.5235987755982984
1663844299313053793,0.5332022309303284,0.0,0.0,0.0,0.0,0.5235987755982984
1663844299363107173,0.5482022309303284,0.0,0.0,0.0,0.0,0.5235987755982984
1663844299413015588,0.5632022309303284,0.0,0.0,0.0,0.0,0.5235987755982984
1663844299463313014,0.5443817377090454,0.0,0.0,0.0,0.0,0.3490658503988654
1663844299513089129,0.5443817377090454,0.0,0.0,0.0,0.0,0.3490658503988654
1663844299563648736,0.5593817377090454,0.0,0.0,0.0,0.0,0.3490658503988654
1663844299612921380,0.5743817377090454,0.0,0.0,0.0,0.0,0.3490658503988654
1663844299663071933,0.5893817377090455,0.0,0.0,0.0,0.0,0.3490658503988654
1663844299717832802,0.6043817377090455,0.0,0.0,0.0,0.0,0.3490658503988654
1663844299763021129,0.6193817377090455,0.0,0.0,0.0,0.0,0.3490658503988654
1663844299813066349,0.6203330755233765,0.0,0.0,0.0,0.0,0.3490658503988654
1663844299863158786,0.6158129572868347,0.0,0.0,0.0,0.0,0.3490658503988654
1663844299913681540,0.6158129572868347,0.0,0.0,0.0,0.0,0.3490658503988654
1663844299963259769,0.6131539940834044,0.0,0.0,0.0,0.0,0.3490658503988654
1663844300013030009,0.6131539940834044,0.0,0.0,0.0,0.0,0.3490658503988654
1663844300063075251,0.6124862432479858,0.0,0.0,0.0,0.0,0.3490658503988654
1663844300113056427,0.6124862432479858,0.0,0.0,0.0,0.0,0.3490658503988654
1663844300163386975,0.6058405637741089,0.0,0.0,0.0,0.0,0.3490658503988654
1663844300212789885,0.6058405637741089,0.0,0.0,0.0,0.0,0.3490658503988654
1663844300263317579,0.5277615785598755,0.0,0.0,0.0,0.0,0.27012887597084045
1663844300313076195,0.5277615785598755,0.0,0.0,0.0,0.0,0.27012887597084045
1663844300362823429,0.5277615785598755,0.0,0.0,0.0,0.0,0.27012887597084045
1663844300412959135,0.5277615785598755,0.0,0.0,0.0,0.0,0.27012887597084045
1663844300463062076,0.5277615785598755,0.0,0.0,0.0,0.0,0.27012887597084045
1663844300512941608,0.5172308087348938,0.0,0.0,0.0,0.0,0.2704254686832428
1663844300562860286,0.5172308087348938,0.0,0.0,0.0,0.0,0.2704254686832428
1663844300616526606,0.5072751641273499,0.0,0.0,0.0,0.0,0.2710176110267639
1663844300662918823,0.5072751641273499,0.0,0.0,0.0,0.0,0.2710176110267639
1663844300713055957,0.4966810941696167,0.0,0.0,0.0,0.0,0.2685338854789734
1663844300763051224,0.4966810941696167,0.0,0.0,0.0,0.0,0.2685338854789734
1663844300812802511,0.4966810941696167,0.0,0.0,0.0,0.0,0.2685338854789734
1663844300862796014,0.47195121645927424,0.0,0.0,0.0,0.0,0.2681673467159271
1663844300913145774,0.48695121645927425,0.0,0.0,0.0,0.0,0.2852977946422329
1663844300962877486,0.5019512164592742,0.0,0.0,0.0,0.0,0.3022555509921583
1663844301013033317,0.5169512164592742,0.0,0.0,0.0,0.0,0.31921330734208364
1663844301063268225,0.5319512164592742,0.0,0.0,0.0,0.0,0.336171063692009
1663844301112895369,0.5368110537528992,0.0,0.0,0.0,0.0,0.3490658503988654
1663844301163069791,0.43629318475723267,0.0,0.0,0.0,0.0,0.28644025325775146
1663844301212814635,0.43629318475723267,0.0,0.0,0.0,0.0,0.28644025325775146
1663844301263151821,0.4231885075569153,0.0,0.0,0.0,0.0,0.29326072335243225
1663844301313007113,0.4231885075569153,0.0,0.0,0.0,0.0,0.29326072335243225
1663844301362926589,0.4231885075569153,0.0,0.0,0.0,0.0,0.29326072335243225
1663844301413052999,0.4141066372394562,0.0,0.0,0.0,0.0,0.30158621072769165
1663844301463175103,0.4141066372394562,0.0,0.0,0.0,0.0,0.30158621072769165
1663844301513010384,0.4141066372394562,0.0,0.0,0.0,0.0,0.30158621072769165
1663844301563406218,0.38946640491485596,0.0,0.0,0.0,0.0,0.3130452334880829
1663844301613058756,0.38946640491485596,0.0,0.0,0.0,0.0,0.3130452334880829
1663844301662878778,0.38946640491485596,0.0,0.0,0.0,0.0,0.3130452334880829
1663844301713746156,0.3825017511844635,0.0,0.0,0.0,0.0,0.3490658503988654
1663844301763096611,0.3975017511844635,0.0,0.0,0.0,0.0,0.4342070355340585
1663844301813221290,0.4125017511844635,0.0,0.0,0.0,0.0,0.5193482206692517
1663844301862888091,0.42750175118446354,0.0,0.0,0.0,0.0,0.6044894058044448
1663844301913159064,0.44250175118446355,0.0,0.0,0.0,0.0,0.689630590939638
1663844301963710838,0.45750175118446357,0.0,0.0,0.0,0.0,0.8099302517091702
1663844302013001328,0.4653240144252776,0.0,0.0,0.0,0.0,0.8726646259971643
1663844302062960647,0.3630502521991729,0.0,0.0,0.0,0.0,1.0471975511965972
1663844302113201090,0.36088311672210693,0.0,0.0,0.0,0.0,1.0471975511965972
1663844302163589762,0.3609541952610016,0.0,0.0,0.0,0.0,1.0471975511965972
1663844302213934559,0.3609541952610016,0.0,0.0,0.0,0.0,1.0471975511965972
1663844302263146211,0.3595805466175079,0.0,0.0,0.0,0.0,0.8726646259971643
1663844302313011252,0.3595805466175079,0.0,0.0,0.0,0.0,0.8726646259971643
1663844302362906883,0.35803523659706116,0.0,0.0,0.0,0.0,0.8726646259971643
1663844302413084743,0.37303523659706117,0.0,0.0,0.0,0.0,0.8109046077749728
1663844302462948157,0.3880352365970612,0.0,0.0,0.0,0.0,0.7491445895527811
1663844302513097802,0.4030352365970612,0.0,0.0,0.0,0.0,0.6873845713305895
1663844302563166694,0.3732808232307434,0.0,0.0,0.0,0.0,0.43241003155708313
1663844302612897707,0.3732808232307434,0.0,0.0,0.0,0.0,0.43241003155708313
1663844302664652005,0.3732808232307434,0.0,0.0,0.0,0.0,0.43241003155708313
1663844302712866502,0.3882808232307434,0.0,0.0,0.0,0.0,0.4393633951026583
1663844302762917978,0.3961397409439087,0.0,0.0,0.0,0.0,0.4430064558982849
1663844302813117039,0.3961397409439087,0.0,0.0,0.0,0.0,0.4430064558982849
1663844302862973135,0.4111397409439087,0.0,0.0,0.0,0.0,0.44889191706603127
1663844302913021107,0.4261397409439087,0.0,0.0,0.0,0.0,0.4547773782337776
1663844302963093649,0.44113974094390873,0.0,0.0,0.0,0.0,0.4606628394015239
1663844303013113469,0.45613974094390874,0.0,0.0,0.0,0.0,0.4656506683349158
1663844303062850819,0.45162239670753473,0.0,0.0,0.0,0.0,0.4630240499973297
1663844303112994698,0.45162239670753473,0.0,0.0,0.0,0.0,0.4630240499973297
1663844303162829468,0.45162239670753473,0.0,0.0,0.0,0.0,0.4630240499973297
1663844303214143477,0.3016223967075347,0.0,0.0,0.0,0.0,0.30923715190295376
1663844303264528611,0.3166223967075347,0.0,0.0,0.0,0.0,0.32079176620944966
1663844303312908488,0.33162239670753474,0.0,0.0,0.0,0.0,0.33234638051594556
1663844303363076742,0.34662239670753475,0.0,0.0,0.0,0.0,0.34318061160379026
1663844303413607816,0.36162239670753477,0.0,0.0,0.0,0.0,0.35406613790349434
1663844303462969404,0.3766223967075348,0.0,0.0,0.0,0.0,0.3648003991392979
1663844303513103715,0.3916223967075348,0.0,0.0,0.0,0.0,0.37553466037510147
1663844303563002163,0.4066223967075348,0.0,0.0,0.0,0.0,0.38626892161090504
1663844303613562075,0.4216223967075348,0.0,0.0,0.0,0.0,0.3970031828467086
1663844303662928483,0.43662239670753483,0.0,0.0,0.0,0.0,0.40583238750688694
1663844303713195895,0.45162239670753485,0.0,0.0,0.0,0.0,0.4137081944749973
1663844303763166004,0.46662239670753486,0.0,0.0,0.0,0.0,0.42164105633126553
1663844303813124149,0.48162239670753487,0.0,0.0,0.0,0.0,0.42957391818753377
1663844303866204056,0.4966223967075349,0.0,0.0,0.0,0.0,0.44404081366970927
1663844303913102670,0.5116223967075348,0.0,0.0,0.0,0.0,0.45850770915188477
1663844303962875084,0.5266223967075349,0.0,0.0,0.0,0.0,0.47628106992337493
1663844304012989591,0.5416223967075349,0.0,0.0,0.0,0.0,0.4940544306948651
1663844304063043412,0.5566223967075349,0.0,0.0,0.0,0.0,0.5118277914663553
1663844304113518937,0.5716223967075349,0.0,0.0,0.0,0.0,0.5296011522378454
1663844304162864588,0.5866223967075349,0.0,0.0,0.0,0.0,0.5449654976028475
1663844304213734692,0.6016223967075349,0.0,0.0,0.0,0.0,0.5603298429678496
1663844304263150632,0.6166223967075349,0.0,0.0,0.0,0.0,0.5719419171537216
1663844304313323688,0.631622396707535,0.0,0.0,0.0,0.0,0.5822111404939019
1663844304362970946,0.646622396707535,0.0,0.0,0.0,0.0,0.5924803638340822
1663844304414291164,0.661622396707535,0.0,0.0,0.0,0.0,0.6019280627004495
1663844304463099053,0.676622396707535,0.0,0.0,0.0,0.0,0.6113757615668167
1663844304513867959,0.691622396707535,0.0,0.0,0.0,0.0,0.6202170759609034
1663844304562834049,0.706622396707535,0.0,0.0,0.0,0.0,0.6259325215913305
1663844304613076613,0.721622396707535,0.0,0.0,0.0,0.0,0.6316479672217575
1663844304662791268,0.736622396707535,0.0,0.0,0.0,0.0,0.6373634128521847
1663844304713072646,0.7516223967075351,0.0,0.0,0.0,0.0,0.6467354790821294
1663844304762958558,0.7666223967075351,0.0,0.0,0.0,0.0,0.656107545312074
1663844304813233089,0.7816223967075351,0.0,0.0,0.0,0.0,0.6654796115420187
1663844304863042237,0.7966223967075351,0.0,0.0,0.0,0.0,0.6747808974957777
1663844304913008073,0.8116223967075351,0.0,0.0,0.0,0.0,0.6840821834495368
1663844304963753332,0.8266223967075351,0.0,0.0,0.0,0.0,0.6954482242111136
1663844305013027569,0.830163836479187,0.0,0.0,0.0,0.0,0.6981317007977313
1663844305063148760,0.8212644457817077,0.0,0.0,0.0,0.0,0.6981317007977313
1663844305113077689,0.8212644457817077,0.0,0.0,0.0,0.0,0.6981317007977313
1663844305163513622,0.8090503215789795,0.0,0.0,0.0,0.0,0.6981317007977313
1663844305212956096,0.8090503215789795,0.0,0.0,0.0,0.0,0.6981317007977313
1663844305262973956,0.7842826843261719,0.0,0.0,0.0,0.0,0.6981317007977313
1663844305314339785,0.7842826843261719,0.0,0.0,0.0,0.0,0.6981317007977313
1663844305363282191,0.7842826843261719,0.0,0.0,0.0,0.0,0.6981317007977313
1663844305413398661,0.7841911315917969,0.0,0.0,0.0,0.0,0.8726646259971643
1663844305463138446,0.7841911315917969,0.0,0.0,0.0,0.0,0.8726646259971643
1663844305515636581,0.6765925884246826,0.0,0.0,0.0,0.0,0.6981317007977313
1663844305562991867,0.6765925884246826,0.0,0.0,0.0,0.0,0.6981317007977313
1663844305613520787,0.6282793283462524,0.0,0.0,0.0,0.0,0.6981317007977313
1663844305663051376,0.6282793283462524,0.0,0.0,0.0,0.0,0.6981317007977313
1663844305713558215,0.6282793283462524,0.0,0.0,0.0,0.0,0.6981317007977313
1663844305762979890,0.5742722153663635,0.0,0.0,0.0,0.0,0.5235987755982984
1663844305813349176,0.5742722153663635,0.0,0.0,0.0,0.0,0.5235987755982984
1663844305862958619,0.5742722153663635,0.0,0.0,0.0,0.0,0.5235987755982984
1663844305913128715,0.5231040716171265,0.0,0.0,0.0,0.0,0.5235987755982984
1663844305963017653,0.5231040716171265,0.0,0.0,0.0,0.0,0.5235987755982984
1663844306015574186,0.4702889025211334,0.0,0.0,0.0,0.0,0.5235987755982984
1663844306063027535,0.4702889025211334,0.0,0.0,0.0,0.0,0.5235987755982984
1663844306113389868,0.4702889025211334,0.0,0.0,0.0,0.0,0.5235987755982984
1663844306162827467,0.48528890252113344,0.0,0.0,0.0,0.0,0.6565402964421505
1663844306214006052,0.37349697947502136,0.0,0.0,0.0,0.0,0.23894153535366058
1663844306262952678,0.32914429903030396,0.0,0.0,0.0,0.0,0.21623776853084564
1663844306312888769,0.32914429903030396,0.0,0.0,0.0,0.0,0.21623776853084564
1663844306362927504,0.32914429903030396,0.0,0.0,0.0,0.0,0.21623776853084564
1663844306413147987,0.34414429903030397,0.0,0.0,0.0,0.0,0.3310248758294388
1663844306462882869,0.3462193580094922,0.0,0.0,0.0,0.0,0.5060248758294388
1663844306516011905,0.34829441698868047,0.0,0.0,0.0,0.0,0.6810248758294388
1663844306562883701,0.32674449170051884,0.0,0.0,0.0,0.0,0.8560248758294389
1663844306613077379,0.30519456641235715,0.0,0.0,0.0,0.0,1.031024875829439
1663844306662961461,0.2836446411241955,0.0,0.0,0.0,0.0,1.206024875829439
1663844306712998891,0.26209471583603383,0.0,0.0,0.0,0.0,1.381024875829439
1663844306762957039,0.24054479054787217,0.0,0.0,0.0,0.0,1.556024875829439
1663844306813765980,0.25554479054787216,0.0,0.0,0.0,0.0,1.5600966591534289
1663844306863136174,0.27054479054787217,0.0,0.0,0.0,0.0,1.5641684424774187
1663844306913122803,0.12708285450935364,0.0,0.0,0.0,0.0,1.5707963267948961
1663844306962806853,0.12708285450935364,0.0,0.0,0.0,0.0,1.5707963267948961
1663844307013130917,0.12708285450935364,0.0,0.0,0.0,0.0,1.5707963267948961
1663844307063034072,0.14208285450935365,0.0,0.0,0.0,0.0,1.5707963267948961
1663844307115395220,0.08407624810934067,0.0,0.0,0.0,0.0,1.2217304763960302
1663844307162989813,0.05723274499177933,0.0,0.0,0.0,0.0,1.0471975511965972
1663844307213223799,0.05723274499177933,0.0,0.0,0.0,0.0,1.0471975511965972
1663844307262960096,0.03297152370214462,0.0,0.0,0.0,0.0,0.025707516819238663
1663844307313229177,0.03503274917602539,0.0,0.0,0.0,0.0,0.02424842119216919
1663844307363010156,0.03503274917602539,0.0,0.0,0.0,0.0,0.02424842119216919
1663844307413588987,0.007711417507380247,0.0,0.0,0.0,0.0,-0.007818489335477352
1663844307463031890,0.007711417507380247,0.0,0.0,0.0,0.0,-0.007818489335477352
1663844307513198847,0.022711417507380247,0.0,0.0,0.0,0.0,0.006029453793507295
1663844307563194936,0.037711417507380246,0.0,0.0,0.0,0.0,0.019877396922491946
1663844307612956800,0.0258477130004549,0.0,0.0,0.0,0.0,0.19487739692249195
1663844307662779430,0.013984008493529557,0.0,0.0,0.0,0.0,0.369877396922492
1663844307713140620,0.0021203039866042103,0.0,0.0,0.0,0.0,0.544877396922492
1663844307763023169,0.0,0.0,0.0,0.0,0.0,0.4949162741831045
1663844307813369767,0.0,0.0,0.0,0.0,0.0,0.39109124515378224
1663844307863130068,0.0,0.0,0.0,0.0,0.0,0.39109124515378224
1663844307913608944,0.0,0.0,0.0,0.0,0.0,0.39109124515378224
1663844307963300692,0.0,0.0,0.0,0.0,0.0,0.31533059243527856
1663844308013872581,0.0,0.0,0.0,0.0,0.0,0.14033059243527854
1663844308063121277,0.0,0.0,0.0,0.0,0.0,-4.996003610813204e-16
1663844308113398364,0.0,0.0,0.0,0.0,0.0,-4.996003610813204e-16
1663844308163284078,0.010454539209604263,0.0,0.0,0.0,0.0,0.06637890636920929
1663844308213284946,0.010454539209604263,0.0,0.0,0.0,0.0,0.06637890636920929
1663844308263000756,0.004047589376568794,0.0,0.0,0.0,0.0,-0.06180620566010475
1663844308313148377,0.019047589376568794,0.0,0.0,0.0,0.0,-0.06167083498306813
1663844308363088087,0.022243272513151165,0.0,0.0,0.0,0.0,-0.06164199486374855
1663844308412926993,0.022243272513151165,0.0,0.0,0.0,0.0,-0.06164199486374855
1663844308462806441,0.022243272513151165,0.0,0.0,0.0,0.0,-0.06164199486374855
1663844308513071797,0.022243272513151165,0.0,0.0,0.0,0.0,-0.06164199486374855
1663844308563107437,0.03724327251315117,0.0,0.0,0.0,0.0,-0.06195807732800379
1663844308613096153,0.04511700943112373,0.0,0.0,0.0,0.0,0.054718878120183945
1663844308663386313,0.04511700943112373,0.0,0.0,0.0,0.0,0.05476774647831917
1663844308713248304,0.04511700943112373,0.0,0.0,0.0,0.0,0.05476774647831917
1663844308763315772,0.060117009431123726,0.0,0.0,0.0,0.0,0.017602809327977635
1663844308812950984,0.07511700943112373,0.0,0.0,0.0,0.0,-0.019562127822363898
1663844308863032843,0.09011700943112373,0.0,0.0,0.0,0.0,-0.04418042629250915
1663844308912902339,0.10258658230304718,0.0,0.0,0.0,0.0,-0.06464573740959167
1663844308963073422,0.11758658230304718,0.0,0.0,0.0,0.0,-0.06595314723580077
1663844309013376163,0.11983613669872284,0.0,0.0,0.0,0.0,-0.06614921987056732
1663844309062769497,0.11983613669872284,0.0,0.0,0.0,0.0,-0.06614921987056732
1663844309113450982,0.12906306982040405,0.0,0.0,0.0,0.0,-0.06656979024410248
1663844309163006019,0.1391495168209076,0.0,0.0,0.0,0.0,-0.06769070029258728
1663844309212864450,0.1391495168209076,0.0,0.0,0.0,0.0,-0.06769070029258728
1663844309262874718,0.1391495168209076,0.0,0.0,0.0,0.0,-0.06769070029258728
1663844309315896753,0.1451207995414734,0.0,0.0,0.0,0.0,-0.067142553627491
1663844309362715116,0.1451207995414734,0.0,0.0,0.0,0.0,-0.067142553627491
1663844309413883100,0.15729708969593048,0.0,0.0,0.0,0.0,-0.06868681311607361
1663844309462966128,0.15729708969593048,0.0,0.0,0.0,0.0,-0.06868681311607361
1663844309516919307,0.1587410420179367,0.0,0.0,0.0,0.0,-0.06913222372531891
1663844309562954218,0.1584567427635193,0.0,0.0,0.0,0.0,-0.06918108463287354
1663844309613127633,0.15711736679077148,0.0,0.0,0.0,0.0,-0.06921815872192383
1663844309663606234,0.15711736679077148,0.0,0.0,0.0,0.0,-0.06921815872192383
1663844309713684548,0.14833076298236847,0.0,0.0,0.0,0.0,-0.06716897338628769
1663844309763373761,0.14833076298236847,0.0,0.0,0.0,0.0,-0.06716897338628769
1663844309813124475,0.14491483569145203,0.0,0.0,0.0,0.0,-0.06682408601045609
1663844309862862043,0.14491483569145203,0.0,0.0,0.0,0.0,-0.06682408601045609
1663844309912729591,0.14491483569145203,0.0,0.0,0.0,0.0,-0.06682408601045609
1663844309963248112,0.12052351981401443,0.0,0.0,0.0,0.0,-0.0640961229801178
1663844310013005802,0.12052351981401443,0.0,0.0,0.0,0.0,-0.0640961229801178
1663844310063166232,0.12052351981401443,0.0,0.0,0.0,0.0,-0.0640961229801178
1663844310113598302,0.11222739517688751,0.0,0.0,0.0,0.0,-0.0631272941827774
1663844310163025338,0.11222739517688751,0.0,0.0,0.0,0.0,-0.0631272941827774
1663844310213150705,0.09210691601037979,0.0,0.0,0.0,0.0,-0.0618789866566658
1663844310263098001,0.09203583747148512,0.0,0.0,0.0,0.0,-0.061920877546072006
1663844310313024104,0.09203583747148512,0.0,0.0,0.0,0.0,-0.061920877546072006
1663844310363260694,0.08186472207307816,0.0,0.0,0.0,0.0,-0.06147850304841995
1663844310413107044,0.08186472207307816,0.0,0.0,0.0,0.0,-0.06147850304841995
1663844310463012540,0.08186472207307816,0.0,0.0,0.0,0.0,-0.06147850304841995
1663844310513565892,0.059857916086912155,0.0,0.0,0.0,0.0,0.055860694497823715
1663844310562951212,0.059857916086912155,0.0,0.0,0.0,0.0,0.055860694497823715
1663844310612888421,0.037235718220472336,0.0,0.0,0.0,0.0,0.058789242058992386
1663844310662733929,0.037235718220472336,0.0,0.0,0.0,0.0,0.05893934145569801
1663844310712859483,0.037235718220472336,0.0,0.0,0.0,0.0,0.05893934145569801
1663844310762981128,0.029348025098443028,0.0,0.0,0.0,0.0,0.06023891270160675
1663844310812821285,0.029348025098443028,0.0,0.0,0.0,0.0,0.06023891270160675
1663844310863727596,0.02551722712814808,0.0,0.0,0.0,0.0,-0.06166026368737221
1663844310913367858,0.015157509595155716,0.0,0.0,0.0,0.0,-0.0619521327316761
1663844310962822618,0.008027270436286925,0.0,0.0,0.0,0.0,-0.062480200082063675
1663844311012846499,0.008027270436286925,0.0,0.0,0.0,0.0,-0.062480200082063675
1663844311062906901,0.008027270436286925,0.0,0.0,0.0,0.0,-0.062480200082063675
1663844311113133339,0.008027270436286925,0.0,0.0,0.0,0.0,-0.062480200082063675
1663844311162974012,0.0,0.0,0.0,0.0,0.0,-4.996003610813204e-16
1663844311212988180,0.0,0.0,0.0,0.0,0.0,-4.996003610813204e-16
1663844311263124828,0.0,0.0,0.0,0.0,0.0,-4.996003610813204e-16
1663844311312837700,0.0,0.0,0.0,0.0,0.0,-4.996003610813204e-16
1663844311363623104,0.0,0.0,0.0,0.0,0.0,-4.996003610813204e-16
1663844311413399265,0.0,0.0,0.0,0.0,0.0,-4.996003610813204e-16
1663844311466687748,0.0,0.0,0.0,0.0,0.0,-4.996003610813204e-16
1663844311512946843,0.0,0.0,0.0,0.0,0.0,-4.996003610813204e-16
1663844311563141587,0.0,0.0,0.0,0.0,0.0,-4.996003610813204e-16
1663844311613326367,0.0,0.0,0.0,0.0,0.0,-4.996003610813204e-16
1663844311662837364,0.0,0.0,0.0,0.0,0.0,-4.996003610813204e-16
1663844311713238479,0.0,0.0,0.0,0.0,0.0,-4.996003610813204e-16
1663844311763428950,0.0,0.0,0.0,0.0,0.0,-4.996003610813204e-16
1663844311812911379,0.0,0.0,0.0,0.0,0.0,-4.996003610813204e-16
1663844311863125584,0.0,0.0,0.0,0.0,0.0,-4.996003610813204e-16
1663844311912885139,0.0,0.0,0.0,0.0,0.0,-4.996003610813204e-16
1663844311962858021,0.0,0.0,0.0,0.0,0.0,-4.996003610813204e-16
1663844312013141991,0.0,0.0,0.0,0.0,0.0,-4.996003610813204e-16
1663844312063066770,0.0,0.0,0.0,0.0,0.0,-4.996003610813204e-16
1663844312113102832,0.0,0.0,0.0,0.0,0.0,-4.996003610813204e-16
1663844312163130019,0.0,0.0,0.0,0.0,0.0,0.17499999999999952
1663844312212901161,0.0,0.0,0.0,0.0,0.0,0.243799992254191
1663844312262942109,0.0,0.0,0.0,0.0,0.0,0.3036493716538253
1663844312313446616,0.0,0.0,0.0,0.0,0.0,0.3036493716538253
1663844312365418503,0.0,0.0,0.0,0.0,0.0,0.3036493716538253
1663844312413413355,0.0,0.0,0.0,0.0,0.0,0.4548760310824264
1663844312462891783,0.0,0.0,0.0,0.0,0.0,0.5170464565190861
1663844312512760425,0.0,0.0,0.0,0.0,0.0,0.5170464565190861
1663844312562872325,0.0,0.0,0.0,0.0,0.0,0.5170464565190861
1663844312613548951,0.0,0.0,0.0,0.0,0.0,0.604145563512407
1663844312663018293,0.0,0.0,0.0,0.0,0.0,0.604145563512407
1663844312712961747,0.0,0.0,0.0,0.0,0.0,0.604145563512407
1663844312762930826,0.0,0.0,0.0,0.0,0.0,0.7053941187290015
1663844312812884609,0.0,0.0,0.0,0.0,0.0,0.7053941187290015
1663844312863075941,0.0,0.0,0.0,0.0,0.0,0.7965176455766332
1663844312912883317,0.0,0.0,0.0,0.0,0.0,0.7965176455766332
1663844312962859234,0.0,0.0,0.0,0.0,0.0,0.7965176455766332
1663844313013290482,0.0,0.0,0.0,0.0,0.0,0.7965176455766332
1663844313063219972,0.0,0.0,0.0,0.0,0.0,0.9122199256165309
1663844313112813732,0.0,0.0,0.0,0.0,0.0,0.9122199256165309
1663844313163211591,0.0,0.0,0.0,0.0,0.0,1.087219925616531
1663844313212845143,0.0,0.0,0.0,0.0,0.0,1.1993514395632512
1663844313263354373,0.0,0.0,0.0,0.0,0.0,1.1755225078810807
1663844313312987699,0.0,0.0,0.0,0.0,0.0,1.1755225078810807
1663844313363009016,0.0,0.0,0.0,0.0,0.0,1.1755225078810807
1663844313412719017,0.0,0.0,0.0,0.0,0.0,1.1755225078810807
1663844313463815038,0.0,0.0,0.0,0.0,0.0,1.3505225078810807
1663844313513076190,0.0,0.0,0.0,0.0,0.0,1.5244790660010388
1663844313563064214,0.0,0.0,0.0,0.0,0.0,1.5310515179870836
1663844313613084118,0.0,0.0,0.0,0.0,0.0,1.5107924523117326
1663844313663161169,0.0,0.0,0.0,0.0,0.0,1.5107924523117326
1663844313712849977,0.0,0.0,0.0,0.0,0.0,1.5107924523117326
1663844313762804851,0.0,0.0,0.0,0.0,0.0,1.5107924523117326
1663844313813001756,0.0,0.0,0.0,0.0,0.0,1.5707963267948966
1663844313863051330,0.0,0.0,0.0,0.0,0.0,1.5707963267948966
1663844313913049576,0.0,0.0,0.0,0.0,0.0,1.5707963267948966
1663844313962905518,0.0,0.0,0.0,0.0,0.0,1.5707963267948966
1663844314013553009,0.0,0.0,0.0,0.0,0.0,1.5707963267948966
1663844314063158278,0.0,0.0,0.0,0.0,0.0,1.5707963267948966
1663844314112825541,0.0,0.0,0.0,0.0,0.0,1.5707963267948966
1663844314162807880,0.0,0.0,0.0,0.0,0.0,1.5707963267948966
1663844314213114910,0.0,0.0,0.0,0.0,0.0,1.5707963267948966
1663844314262989485,0.0,0.0,0.0,0.0,0.0,1.5707963267948966
1663844314312940514,0.0,0.0,0.0,0.0,0.0,1.5707963267948966
1663844314362894899,0.0,0.0,0.0,0.0,0.0,1.5707963267948966
1663844314413680135,0.0062808018369057165,0.0,0.0,0.0,0.0,1.3957963267948965
1663844314463327912,0.012561603673811435,0.0,0.0,0.0,0.0,1.2207963267948965
1663844314513205195,0.018842405510717152,0.0,0.0,0.0,0.0,1.0457963267948964
1663844314563045620,0.012561603673811435,0.0,0.0,0.0,0.0,1.2207963267948965
1663844314613051304,0.006280801836905718,0.0,0.0,0.0,0.0,1.3957963267948965
1663844314662943691,8.673617379884035e-19,0.0,0.0,0.0,0.0,1.5707963267948966
1663844314712755678,0.0,0.0,0.0,0.0,0.0,1.5707963267948966
1663844314763142552,0.0,0.0,0.0,0.0,0.0,1.5707963267948966
1663844314813080199,0.0,0.0,0.0,0.0,0.0,1.5707963267948966
1663844314863557575,0.0,0.0,0.0,0.0,0.0,1.5707963267948966
1663844314912783865,0.0,0.0,0.0,0.0,0.0,1.5707963267948966
1663844314962931218,0.004276584744194502,0.0,0.0,0.0,0.0,1.7457963267948966
1663844315013028190,0.008553169488389006,0.0,0.0,0.0,0.0,1.9207963267948966
1663844315062974792,0.012829754232583509,0.0,0.0,0.0,0.0,2.0957963267948965
1663844315112928144,0.020543264977545505,0.0,0.0,0.0,0.0,2.2707963267948963
1663844315162933536,0.028256775722507496,0.0,0.0,0.0,0.0,2.445796326794896
1663844315212920709,0.0358467623591423,0.0,0.0,0.0,0.0,2.617993877991493
1663844315264964477,0.0508467623591423,0.0,0.0,0.0,0.0,2.5847730916687968
1663844315312967930,0.0658467623591423,0.0,0.0,0.0,0.0,2.5515523053461004
1663844315363075870,0.0808467623591423,0.0,0.0,0.0,0.0,2.518331519023404
1663844315413264589,0.06329131126403809,0.0,0.0,0.0,0.0,2.2689280275926276
1663844315462818771,0.03918956965208053,0.0,0.0,0.0,0.0,2.094395102393195
1663844315512999177,0.03918956965208053,0.0,0.0,0.0,0.0,2.094395102393195
1663844315563031596,0.03918956965208053,0.0,0.0,0.0,0.0,2.094395102393195
1663844315613076166,0.05418956965208053,0.0,0.0,0.0,0.0,2.05636332205267
1663844315669189758,0.06918956965208053,0.0,0.0,0.0,0.0,1.9906564497941925
1663844315713024249,0.06709322744733603,0.0,0.0,0.0,0.0,1.8156564497941925
1663844315762854701,0.06499688524259153,0.0,0.0,0.0,0.0,1.6406564497941925
1663844315813270930,0.06290054303784703,0.0,0.0,0.0,0.0,1.4656564497941924
1663844315863201957,0.0691230525101212,0.0,0.0,0.0,0.0,1.2906564497941924
1663844315914009806,0.07534556198239536,0.0,0.0,0.0,0.0,1.1156564497941923
1663844315964129877,0.07291028125363787,0.0,0.0,0.0,0.0,0.9406564497941923
1663844316013094934,0.07072612807601356,0.0,0.0,0.0,0.0,0.7656564497941922
1663844316062941762,0.06854197489838924,0.0,0.0,0.0,0.0,0.5906564497941922
1663844316113044368,0.06635782172076493,0.0,0.0,0.0,0.0,0.41565644979419214
1663844316163237349,0.06446088175303755,0.0,0.0,0.0,0.0,0.24065644979419212
1663844316213171901,0.06256394178531016,0.0,0.0,0.0,0.0,0.0656564497941921
1663844316263193994,0.060783614375016164,0.0,0.0,0.0,0.0,-0.10934355020580791
1663844316313001370,0.05925308733457639,0.0,0.0,0.0,0.0,-0.2843435502058079
1663844316362947864,0.05772256029413662,0.0,0.0,0.0,0.0,-0.45934355020580797
1663844316412834916,0.056192033253696844,0.0,0.0,0.0,0.0,-0.634343550205808
1663844316463089359,0.05483433439767818,0.0,0.0,0.0,0.0,-0.8093435502058081
1663844316512878022,0.05347663554165952,0.0,0.0,0.0,0.0,-0.9843435502058081
1663844316562890613,0.05211893668564086,0.0,0.0,0.0,0.0,-1.159343550205808
1663844316613373291,0.06711893668564087,0.0,0.0,0.0,0.0,-1.2911630248859618
1663844316663496586,0.08211893668564087,0.0,0.0,0.0,0.0,-1.425716882318772
1663844316713223507,0.09711893668564087,0.0,0.0,0.0,0.0,-1.5614353958228597
1663844316762987497,0.11211893668564087,0.0,0.0,0.0,0.0,-1.6971539093269477
1663844316812974175,0.12711893668564087,0.0,0.0,0.0,0.0,-1.8328724228310356
1663844316863882492,0.14211893668564085,0.0,0.0,0.0,0.0,-1.9685909363351233
1663844316913006714,0.15602317452430725,0.0,0.0,0.0,0.0,-2.094395102393196
1663844316963138727,0.025655912346534165,0.0,0.0,0.0,0.0,-0.34439510239319615
1663844317013028247,0.0,0.0,0.0,0.0,0.0,0.0
1663844317714830729,0.015,0.0,0.0,0.0,0.0,-0.009531242908290535
1663844317763331388,0.03,0.0,0.0,0.0,0.0,-0.022148755109275366
1663844317813257429,0.045,0.0,0.0,0.0,0.0,-0.034766267310260196
1663844317864282471,0.06,0.0,0.0,0.0,0.0,-0.04651859400271517
1663844317914314458,0.075,0.0,0.0,0.0,0.0,-0.06036384515222723
1663844317962922296,0.09,0.0,0.0,0.0,0.0,-0.07420909630173929
1663844318012891925,0.105,0.0,0.0,0.0,0.0,-0.08641259675899328
1663844318062838786,0.12,0.0,0.0,0.0,0.0,-0.09861609721624727
1663844318113540474,0.135,0.0,0.0,0.0,0.0,-0.11108008979719725
1663844318163040179,0.15000000000000002,0.0,0.0,0.0,0.0,-0.12354408237814721
1663844318212721401,0.16500000000000004,0.0,0.0,0.0,0.0,-0.13600807495909717
1663844318264608686,0.18000000000000005,0.0,0.0,0.0,0.0,-0.1487950886487643
1663844318313705436,0.19500000000000006,0.0,0.0,0.0,0.0,-0.16176815917047302
1663844318363167011,0.21000000000000008,0.0,0.0,0.0,0.0,-0.17474122969218173
1663844318413215395,0.2250000000000001,0.0,0.0,0.0,0.0,-0.18771430021389043
1663844318463420137,0.2400000000000001,0.0,0.0,0.0,0.0,-0.20068737073559914
1663844318513001173,0.2550000000000001,0.0,0.0,0.0,0.0,-0.2139283059619633
1663844318562987625,0.27000000000000013,0.0,0.0,0.0,0.0,-0.22749404233752749
1663844318613369565,0.28500000000000014,0.0,0.0,0.0,0.0,-0.24105977871309167
1663844318663032218,0.30000000000000016,0.0,0.0,0.0,0.0,-0.2546255150886559
1663844318713114532,0.31500000000000017,0.0,0.0,0.0,0.0,-0.26819125146422007
1663844318762966869,0.3300000000000002,0.0,0.0,0.0,0.0,-0.28199514370939105
1663844318812917560,0.3450000000000002,0.0,0.0,0.0,0.0,-0.29579903595456203
1663844318863302831,0.3600000000000002,0.0,0.0,0.0,0.0,-0.3100506007469837
1663844318912944627,0.3750000000000002,0.0,0.0,0.0,0.0,-0.3243021655394054
1663844318963131540,0.39000000000000024,0.0,0.0,0.0,0.0,-0.3387203041314534
1663844319013043212,0.40500000000000025,0.0,0.0,0.0,0.0,-0.35316513072191763
1663844319063012872,0.42000000000000026,0.0,0.0,0.0,0.0,-0.3676099573123819
1663844319113178673,0.4350000000000003,0.0,0.0,0.0,0.0,-0.3825511747067539
1663844319163143551,0.4500000000000003,0.0,0.0,0.0,0.0,-0.39749239210112597
1663844319212857169,0.4650000000000003,0.0,0.0,0.0,0.0,-0.41294295997098546
1663844319263063175,0.4800000000000003,0.0,0.0,0.0,0.0,-0.42839352784084495
1663844319313264689,0.49500000000000033,0.0,0.0,0.0,0.0,-0.4438440957107045
1663844319366912679,0.5100000000000003,0.0,0.0,0.0,0.0,-0.4595698864804825
1663844319413055663,0.5250000000000004,0.0,0.0,0.0,0.0,-0.43172016514623224
1663844319463117546,0.5400000000000004,0.0,0.0,0.0,0.0,-0.40387044381198195
1663844319513209683,0.5550000000000004,0.0,0.0,0.0,0.0,-0.36752974698555785
1663844319563203509,0.5664990544319153,0.0,0.0,0.0,0.0,-0.3396708369255066
1663844319612816867,0.5655959248542786,0.0,0.0,0.0,0.0,-0.3402176797389984
1663844319663073397,0.47351896762847895,0.0,0.0,0.0,0.0,-0.2885934114456177
1663844319712906922,0.47351896762847895,0.0,0.0,0.0,0.0,-0.2885934114456177
1663844319762910139,0.47351896762847895,0.0,0.0,0.0,0.0,-0.2885934114456177
1663844319813226010,0.47351896762847895,0.0,0.0,0.0,0.0,-0.2885934114456177
1663844319865789143,0.48851896762847896,0.0,0.0,0.0,0.0,-0.29854501493646235
1663844319913858825,0.5035189676284789,0.0,0.0,0.0,0.0,-0.31065298647139133
1663844319963094958,0.5185189676284789,0.0,0.0,0.0,0.0,-0.3227609580063203
1663844320013148743,0.533518967628479,0.0,0.0,0.0,0.0,-0.33486892954124925
1663844320063135080,0.548213541507721,0.0,0.0,0.0,0.0,-0.3578106462955475
1663844320112989602,0.548213541507721,0.0,0.0,0.0,0.0,-0.3578106462955475
1663844320163072709,0.5419658422470093,0.0,0.0,0.0,0.0,-0.3640901446342468
1663844320212825044,0.5419658422470093,0.0,0.0,0.0,0.0,-0.3640901446342468
1663844320263096046,0.5419658422470093,0.0,0.0,0.0,0.0,-0.3640901446342468
1663844320313063697,0.5419658422470093,0.0,0.0,0.0,0.0,-0.3640901446342468
1663844320364023552,0.44648686051368713,0.0,0.0,0.0,0.0,-0.3207836151123047
1663844320413007292,0.44648686051368713,0.0,0.0,0.0,0.0,-0.3207836151123047
1663844320463094684,0.44648686051368713,0.0,0.0,0.0,0.0,-0.3207836151123047
1663844320512858464,0.46148686051368715,0.0,0.0,0.0,0.0,-0.33165413490667
1663844320563106222,0.47648686051368716,0.0,0.0,0.0,0.0,-0.3425246547010353
1663844320613498767,0.4486228823661804,0.0,0.0,0.0,0.0,-0.3539067208766937
1663844320670212349,0.46362288236618043,0.0,0.0,0.0,0.0,-0.40959269644998947
1663844320713606812,0.47862288236618045,0.0,0.0,0.0,0.0,-0.4652786720232852
1663844320763175991,0.49362288236618046,0.0,0.0,0.0,0.0,-0.520964647596581
1663844320813888656,0.5086228823661805,0.0,0.0,0.0,0.0,-0.5728771062733151
1663844320863494472,0.5236228823661805,0.0,0.0,0.0,0.0,-0.6247895649500492
1663844320914286207,0.5386228823661805,0.0,0.0,0.0,0.0,-0.6726845907417596
1663844320963066928,0.5465925335884094,0.0,0.0,0.0,0.0,-0.6981317007977323
1663844321012911817,0.5485808849334716,0.0,0.0,0.0,0.0,-0.6981317007977323
1663844321063671627,0.5509045720100403,0.0,0.0,0.0,0.0,-0.6981317007977323
1663844321113112983,0.5509045720100403,0.0,0.0,0.0,0.0,-0.6981317007977323
1663844321162989953,0.5509045720100403,0.0,0.0,0.0,0.0,-0.6981317007977323
1663844321212994735,0.5607747435569763,0.0,0.0,0.0,0.0,-0.6981317007977323
1663844321262928036,0.5607747435569763,0.0,0.0,0.0,0.0,-0.6981317007977323
1663844321313264019,0.569073498249054,0.0,0.0,0.0,0.0,-0.6981317007977323
1663844321363045090,0.5779805779457092,0.0,0.0,0.0,0.0,-0.6981317007977323
1663844321412988459,0.5779805779457092,0.0,0.0,0.0,0.0,-0.6981317007977323
1663844321463109590,0.5779805779457092,0.0,0.0,0.0,0.0,-0.6981317007977323
1663844321513031805,0.5779805779457092,0.0,0.0,0.0,0.0,-0.6981317007977323
1663844321563253817,0.4279805779457092,0.0,0.0,0.0,0.0,-0.5169495657649936
1663844321613180244,0.4429805779457092,0.0,0.0,0.0,0.0,-0.5331905356379657
1663844321663112769,0.45798057794570923,0.0,0.0,0.0,0.0,-0.5494315055109378
1663844321713147696,0.47298057794570925,0.0,0.0,0.0,0.0,-0.5863232979724796
1663844321763340655,0.48798057794570926,0.0,0.0,0.0,0.0,-0.6232150904340215
1663844321813040325,0.5029805779457093,0.0,0.0,0.0,0.0,-0.6601068828955633
1663844321862775746,0.5179805779457093,0.0,0.0,0.0,0.0,-0.6653320109427289
1663844321913340392,0.5329805779457093,0.0,0.0,0.0,0.0,-0.6869702386545092
1663844321963160946,0.5407178997993469,0.0,0.0,0.0,0.0,-0.6981317007977323
1663844322013513293,0.5407178997993469,0.0,0.0,0.0,0.0,-0.6981317007977323
1663844322064850172,0.5557178997993469,0.0,0.0,0.0,0.0,-0.6981317007977323
1663844322112883466,0.570717899799347,0.0,0.0,0.0,0.0,-0.6981317007977323
1663844322162886730,0.585717899799347,0.0,0.0,0.0,0.0,-0.6981317007977323
1663844322212986765,0.600717899799347,0.0,0.0,0.0,0.0,-0.6981317007977323
1663844322263019120,0.615717899799347,0.0,0.0,0.0,0.0,-0.6981317007977323
1663844322312894731,0.630717899799347,0.0,0.0,0.0,0.0,-0.6981317007977323
1663844322363224907,0.645717899799347,0.0,0.0,0.0,0.0,-0.6981317007977323
1663844322412693675,0.660717899799347,0.0,0.0,0.0,0.0,-0.6981317007977323
1663844322467919014,0.675717899799347,0.0,0.0,0.0,0.0,-0.6981317007977323
1663844322512849265,0.6907178997993471,0.0,0.0,0.0,0.0,-0.6981317007977323
1663844322563575720,0.6853262186050415,0.0,0.0,0.0,0.0,-0.6981317007977323
1663844322613357472,0.6853262186050415,0.0,0.0,0.0,0.0,-0.6981317007977323
1663844322663913448,0.6853262186050415,0.0,0.0,0.0,0.0,-0.6981317007977323
1663844322713143119,0.6989615559577942,0.0,0.0,0.0,0.0,-0.6981317007977323
1663844322764163807,0.6989615559577942,0.0,0.0,0.0,0.0,-0.6981317007977323
1663844322813055095,0.7139615559577942,0.0,0.0,0.0,0.0,-0.6981317007977323
1663844322863299492,0.7289615559577942,0.0,0.0,0.0,0.0,-0.7317708651165961
1663844322912944887,0.7439615559577942,0.0,0.0,0.0,0.0,-0.7654100294354598
1663844322963027155,0.7589615559577942,0.0,0.0,0.0,0.0,-0.7990491937543236
1663844323013152491,0.7739615559577943,0.0,0.0,0.0,0.0,-0.8326883580731874
1663844323069577273,0.7889615559577943,0.0,0.0,0.0,0.0,-0.8668653178705408
1663844323113158715,0.7881150841712952,0.0,0.0,0.0,0.0,-0.8726646259971653
1663844323164780241,0.7881150841712952,0.0,0.0,0.0,0.0,-0.8726646259971653
1663844323213558231,0.7791877388954163,0.0,0.0,0.0,0.0,-0.8726646259971653
1663844323263090728,0.7791877388954163,0.0,0.0,0.0,0.0,-0.8726646259971653
1663844323313236813,0.7682871222496033,0.0,0.0,0.0,0.0,-1.0471975511965983
1663844323363138813,0.7682871222496033,0.0,0.0,0.0,0.0,-1.0471975511965983
1663844323412982394,0.7682871222496033,0.0,0.0,0.0,0.0,-1.0471975511965983
1663844323463221851,0.6790753602981566,0.0,0.0,0.0,0.0,-1.0471975511965983
1663844323513054459,0.6790753602981566,0.0,0.0,0.0,0.0,-1.0471975511965983
1663844323564115118,0.6940753602981566,0.0,0.0,0.0,0.0,-1.0471975511965983
1663844323613050644,0.7090753602981567,0.0,0.0,0.0,0.0,-1.0471975511965983
1663844323663394775,0.7202849984169005,0.0,0.0,0.0,0.0,-1.0471975511965983
1663844323712937023,0.7014734148979187,0.0,0.0,0.0,0.0,-1.0471975511965983
1663844323763087546,0.7014734148979187,0.0,0.0,0.0,0.0,-1.0471975511965983
1663844323813037796,0.6799696683883667,0.0,0.0,0.0,0.0,-1.0471975511965983
1663844323862982761,0.6799696683883667,0.0,0.0,0.0,0.0,-1.0471975511965983
1663844323913350483,0.6711717870958379,0.0,0.0,0.0,0.0,-1.2221975511965983
1663844323963078038,0.5667274594306946,0.0,0.0,0.0,0.0,-1.3962634015954642
1663844324013067592,0.5667274594306946,0.0,0.0,0.0,0.0,-1.3962634015954642
1663844324063294485,0.5583999752998352,0.0,0.0,0.0,0.0,-1.2217304763960313
1663844324112795285,0.5583999752998352,0.0,0.0,0.0,0.0,-1.2217304763960313
1663844324163086965,0.5733999752998352,0.0,0.0,0.0,0.0,-1.25780378882837
1663844324212957132,0.5883999752998352,0.0,0.0,0.0,0.0,-1.2938771012607087
1663844324263037513,0.6033999752998352,0.0,0.0,0.0,0.0,-1.3299504136930473
1663844324313273975,0.6183999752998353,0.0,0.0,0.0,0.0,-1.2710495114837572
1663844324363031367,0.6309598088264464,0.0,0.0,0.0,0.0,-1.2217304763960313
1663844324412965905,0.5505239963531494,0.0,0.0,0.0,0.0,-1.0471975511965983
1663844324462873578,0.5505239963531494,0.0,0.0,0.0,0.0,-1.0471975511965983
1663844324513073310,0.5505239963531494,0.0,0.0,0.0,0.0,-1.0471975511965983
1663844324563164274,0.5540955066680908,0.0,0.0,0.0,0.0,-0.8726646259971653
1663844324612918122,0.5540955066680908,0.0,0.0,0.0,0.0,-0.8726646259971653
1663844324663138852,0.5690955066680908,0.0,0.0,0.0,0.0,-0.8726646259971653
1663844324713086163,0.5840955066680908,0.0,0.0,0.0,0.0,-0.8726646259971653
1663844324763095137,0.5990955066680909,0.0,0.0,0.0,0.0,-0.8351516191313146
1663844324812940487,0.6140955066680909,0.0,0.0,0.0,0.0,-0.797638612265464
1663844324864283627,0.6290955066680909,0.0,0.0,0.0,0.0,-0.7716831696494655
1663844324913465337,0.6164602637290955,0.0,0.0,0.0,0.0,-0.6981317007977323
1663844324962900782,0.6164602637290955,0.0,0.0,0.0,0.0,-0.6981317007977323
1663844325013049929,0.6314602637290955,0.0,0.0,0.0,0.0,-0.693272494740143
1663844325062810738,0.6464602637290955,0.0,0.0,0.0,0.0,-0.6878367699516492
1663844325113301794,0.6614602637290955,0.0,0.0,0.0,0.0,-0.6824010451631555
1663844325162994938,0.6764602637290955,0.0,0.0,0.0,0.0,-0.6769653203746617
1663844325213011541,0.6914602637290955,0.0,0.0,0.0,0.0,-0.6520660062502205
1663844325262955461,0.7064602637290955,0.0,0.0,0.0,0.0,-0.6271666921257792
1663844325312819549,0.7214602637290956,0.0,0.0,0.0,0.0,-0.6088517056019059
1663844325363162458,0.7364602637290956,0.0,0.0,0.0,0.0,-0.5518043862147246
1663844325413480739,0.7438766360282898,0.0,0.0,0.0,0.0,-0.5235987755982994
1663844325463308534,0.7588766360282898,0.0,0.0,0.0,0.0,-0.5341962724835619
1663844325513058898,0.7738766360282898,0.0,0.0,0.0,0.0,-0.5447937693688246
1663844325562702724,0.7888766360282898,0.0,0.0,0.0,0.0,-0.5502211659671493
1663844325613303555,0.8038766360282898,0.0,0.0,0.0,0.0,-0.5499803003048683
1663844325663039528,0.8188766360282899,0.0,0.0,0.0,0.0,-0.5497394346425873
1663844325712852267,0.8338766360282899,0.0,0.0,0.0,0.0,-0.5494985689803064
1663844325762989768,0.8488766360282899,0.0,0.0,0.0,0.0,-0.5492577033180254
1663844325813334043,0.8638766360282899,0.0,0.0,0.0,0.0,-0.6472482226099363
1663844325862792746,0.8788766360282899,0.0,0.0,0.0,0.0,-0.7109524236132324
1663844325913394525,0.8938766360282899,0.0,0.0,0.0,0.0,-0.7746566246165285
1663844325963020116,0.8809425955422375,0.0,0.0,0.0,0.0,-0.9496566246165286
1663844326013645823,0.8676428472787235,0.0,0.0,0.0,0.0,-1.1246566246165286
1663844326062906246,0.8602653741836547,0.0,0.0,0.0,0.0,-1.2217304763960313
1663844326113267724,0.8602653741836547,0.0,0.0,0.0,0.0,-1.2217304763960313
1663844326162877043,0.8752653741836547,0.0,0.0,0.0,0.0,-1.1799962058297062
1663844326212779923,0.8902653741836547,0.0,0.0,0.0,0.0,-1.137462872783999
1663844326262936797,0.9052653741836547,0.0,0.0,0.0,0.0,-1.0949295397382919
1663844326313077162,0.9202653741836547,0.0,0.0,0.0,0.0,-1.0523962066925847
1663844326364660791,0.9220987558364868,0.0,0.0,0.0,0.0,-1.0471975511965983
1663844326413109322,0.9186598658561705,0.0,0.0,0.0,0.0,-1.0471975511965983
1663844326464621005,0.8472644686698914,0.0,0.0,0.0,0.0,-1.2217304763960313
1663844326512899968,0.8472644686698914,0.0,0.0,0.0,0.0,-1.2217304763960313
1663844326562942273,0.8472644686698914,0.0,0.0,0.0,0.0,-1.2217304763960313
1663844326613141583,0.8472644686698914,0.0,0.0,0.0,0.0,-1.2217304763960313
1663844326664210561,0.8585968999747231,0.0,0.0,0.0,0.0,-1.3967304763960313
1663844326713081718,0.8712903033750902,0.0,0.0,0.0,0.0,-1.5717304763960314
1663844326763181881,0.8762378683955225,0.0,0.0,0.0,0.0,-1.7467304763960314
1663844326813156409,0.8810422914212914,0.0,0.0,0.0,0.0,-1.9217304763960315
1663844326862760054,0.8106653690338135,0.0,0.0,0.0,0.0,-1.9198621771937632
1663844326913043111,0.8106653690338135,0.0,0.0,0.0,0.0,-1.9198621771937632
1663844326962913489,0.8106653690338135,0.0,0.0,0.0,0.0,-1.9198621771937632
1663844327013010267,0.8256653690338135,0.0,0.0,0.0,0.0,-1.963832357736671
1663844327062868962,0.8406653690338135,0.0,0.0,0.0,0.0,-2.007802538279579
1663844327113156481,0.8556653690338135,0.0,0.0,0.0,0.0,-2.0517727188224866
1663844327163103035,0.8613610863685608,0.0,0.0,0.0,0.0,-1.9198621771937632
1663844327213056042,0.8613610863685608,0.0,0.0,0.0,0.0,-1.9198621771937632
1663844327262866434,0.8636218309402466,0.0,0.0,0.0,0.0,-1.9198621771937632
1663844327313243442,0.8639772534370422,0.0,0.0,0.0,0.0,-1.9198621771937632
1663844327363081836,0.8639772534370422,0.0,0.0,0.0,0.0,-1.9198621771937632
1663844327412865712,0.8639772534370422,0.0,0.0,0.0,0.0,-1.9198621771937632
1663844327463311225,0.8789772534370422,0.0,0.0,0.0,0.0,-2.069083327736801
1663844327513034844,0.8815216422080994,0.0,0.0,0.0,0.0,-2.094395102393196
1663844327562827924,0.8815216422080994,0.0,0.0,0.0,0.0,-2.094395102393196
1663844327613562755,0.8920069932937622,0.0,0.0,0.0,0.0,-2.094395102393196
1663844327663037178,0.9038044214248657,0.0,0.0,0.0,0.0,-2.094395102393196
1663844327712737931,0.9085940718650818,0.0,0.0,0.0,0.0,-2.094395102393196
1663844327763312313,0.908665120601654,0.0,0.0,0.0,0.0,-2.094395102393196
1663844327813196793,0.908665120601654,0.0,0.0,0.0,0.0,-2.094395102393196
1663844327863090826,0.908665120601654,0.0,0.0,0.0,0.0,-2.094395102393196
1663844327913263653,0.908665120601654,0.0,0.0,0.0,0.0,-2.094395102393196
1663844327963102321,0.9123661518096924,0.0,0.0,0.0,0.0,-2.094395102393196
1663844328013122361,0.9123661518096924,0.0,0.0,0.0,0.0,-2.094395102393196
1663844328062884974,0.9097965359687805,0.0,0.0,0.0,0.0,-2.094395102393196
1663844328113405832,0.9038523435592651,0.0,0.0,0.0,0.0,-2.094395102393196
1663844328162738407,0.9038523435592651,0.0,0.0,0.0,0.0,-2.094395102393196
1663844328212921894,0.8829752802848816,0.0,0.0,0.0,0.0,-2.094395102393196
1663844328262961949,0.8829752802848816,0.0,0.0,0.0,0.0,-2.094395102393196
1663844328312826639,0.8829752802848816,0.0,0.0,0.0,0.0,-2.094395102393196
1663844328362748257,0.8461544513702391,0.0,0.0,0.0,0.0,-2.094395102393196
1663844328413125342,0.8461544513702391,0.0,0.0,0.0,0.0,-2.094395102393196
1663844328462972432,0.8245213031768799,0.0,0.0,0.0,0.0,-2.094395102393196
1663844328513465798,0.82501882314682,0.0,0.0,0.0,0.0,-2.094395102393196
1663844328563128970,0.82501882314682,0.0,0.0,0.0,0.0,-2.094395102393196
1663844328613115543,0.82501882314682,0.0,0.0,0.0,0.0,-2.094395102393196
1663844328663014507,0.8027109503746032,0.0,0.0,0.0,0.0,-2.094395102393196
1663844328713058154,0.8027109503746032,0.0,0.0,0.0,0.0,-2.094395102393196
1663844328762915094,0.8027109503746032,0.0,0.0,0.0,0.0,-2.094395102393196
1663844328813752624,0.7786268591880798,0.0,0.0,0.0,0.0,-2.094395102393196
1663844328863366000,0.7501541376113892,0.0,0.0,0.0,0.0,-2.094395102393196
1663844328912936205,0.7501541376113892,0.0,0.0,0.0,0.0,-2.094395102393196
1663844328962902560,0.7501541376113892,0.0,0.0,0.0,0.0,-2.094395102393196
1663844329013031938,0.7501541376113892,0.0,0.0,0.0,0.0,-2.094395102393196
1663844329062795229,0.7501541376113892,0.0,0.0,0.0,0.0,-2.094395102393196
1663844329113308223,0.6948980093002319,0.0,0.0,0.0,0.0,-2.094395102393196
1663844329162841384,0.6948980093002319,0.0,0.0,0.0,0.0,-2.094395102393196
1663844329212766289,0.6948980093002319,0.0,0.0,0.0,0.0,-2.094395102393196
1663844329263030656,0.671653151512146,0.0,0.0,0.0,0.0,-2.094395102393196
1663844329312803455,0.671653151512146,0.0,0.0,0.0,0.0,-2.094395102393196
1663844329362888643,0.6518633961677551,0.0,0.0,0.0,0.0,-2.094395102393196
1663844329412944954,0.6518633961677551,0.0,0.0,0.0,0.0,-2.094395102393196
1663844329462862892,0.6518633961677551,0.0,0.0,0.0,0.0,-2.094395102393196
1663844329513563054,0.6314069032669067,0.0,0.0,0.0,0.0,-1.9198621771937632
1663844329562829432,0.6314069032669067,0.0,0.0,0.0,0.0,-1.9198621771937632
1663844329612863981,0.6314069032669067,0.0,0.0,0.0,0.0,-1.9198621771937632
1663844329663308880,0.5957061052322388,0.0,0.0,0.0,0.0,-1.7453292519943302
1663844329712899625,0.5957061052322388,0.0,0.0,0.0,0.0,-1.7453292519943302
1663844329763241442,0.5786281824111938,0.0,0.0,0.0,0.0,-1.5707963267948972
1663844329812984369,0.5786281824111938,0.0,0.0,0.0,0.0,-1.5707963267948972
1663844329862922808,0.5786281824111938,0.0,0.0,0.0,0.0,-1.5707963267948972
1663844329913079496,0.5786281824111938,0.0,0.0,0.0,0.0,-1.5707963267948972
1663844329963682370,0.5626092553138733,0.0,0.0,0.0,0.0,-1.5707963267948972
1663844330013113775,0.5626092553138733,0.0,0.0,0.0,0.0,-1.5707963267948972
1663844330062874439,0.5626092553138733,0.0,0.0,0.0,0.0,-1.5707963267948972
1663844330113320755,0.541949987411499,0.0,0.0,0.0,0.0,-1.2217304763960313
1663844330162916468,0.43684878945350647,0.0,0.0,0.0,0.0,-1.3962634015954642
1663844330213113797,0.43684878945350647,0.0,0.0,0.0,0.0,-1.3962634015954642
1663844330263301140,0.43684878945350647,0.0,0.0,0.0,0.0,-1.3962634015954642
1663844330313372577,0.4518487894535065,0.0,0.0,0.0,0.0,-1.213653820771885
1663844330363000808,0.4607325494289398,0.0,0.0,0.0,0.0,-0.6981317007977323
1663844330413180048,0.4607325494289398,0.0,0.0,0.0,0.0,-0.6981317007977323
1663844330463050859,0.4607325494289398,0.0,0.0,0.0,0.0,-0.6981317007977323
1663844330513093678,0.4607325494289398,0.0,0.0,0.0,0.0,-0.6981317007977323
1663844330563255012,0.4228146374225616,0.0,0.0,0.0,0.0,-0.5235987755982994
1663844330613119779,0.4228146374225616,0.0,0.0,0.0,0.0,-0.5235987755982994
1663844330662852674,0.3816184401512146,0.0,0.0,0.0,0.0,-0.14166951179504395
1663844330713099212,0.3816184401512146,0.0,0.0,0.0,0.0,-0.14166951179504395
1663844330763164449,0.31326726078987116,0.0,0.0,0.0,0.0,-0.09418715536594391
1663844330812996832,0.31326726078987116,0.0,0.0,0.0,0.0,-0.09418715536594391
1663844330863242927,0.25293388962745667,0.0,0.0,0.0,0.0,0.023130977526307106
1663844330913053676,0.25343143939971924,0.0,0.0,0.0,0.0,0.026356346905231476
1663844330962993178,0.25343143939971924,0.0,0.0,0.0,0.0,0.026356346905231476
1663844331012995124,0.23252691328525543,0.0,0.0,0.0,0.0,0.051655568182468414
1663844331062813563,0.23252691328525543,0.0,0.0,0.0,0.0,0.051655568182468414
1663844331112771878,0.23252691328525543,0.0,0.0,0.0,0.0,0.051655568182468414
1663844331163042513,0.18185774981975555,0.0,0.0,0.0,0.0,-0.025586528703570366
1663844331212814000,0.16415338218212128,0.0,0.0,0.0,0.0,-0.01729283109307289
1663844331263439405,0.16415338218212128,0.0,0.0,0.0,0.0,-0.01729283109307289
1663844331313130579,0.16415338218212128,0.0,0.0,0.0,0.0,-0.01729283109307289
1663844331363056727,0.1513633131980896,0.0,0.0,0.0,0.0,-0.011433344334363937
1663844331412739885,0.1513633131980896,0.0,0.0,0.0,0.0,-0.011433344334363937
1663844331463020763,0.1384472995996475,0.0,0.0,0.0,0.0,-0.007300456985831261
1663844331513072170,0.1384472995996475,0.0,0.0,0.0,0.0,-0.007300456985831261
1663844331562869073,0.12739637494087216,0.0,0.0,0.0,0.0,-0.004180434159934521
1663844331612958281,0.12739637494087216,0.0,0.0,0.0,0.0,-0.004180434159934521
1663844331663122791,0.11651135236024854,0.0,0.0,0.0,0.0,-0.0018858237890526652
1663844331712767116,0.11651135236024854,0.0,0.0,0.0,0.0,-0.0018858237890526652
1663844331762958171,0.10430385172367096,0.0,0.0,0.0,0.0,-0.0015104704070836306
1663844331813029187,0.10430385172367096,0.0,0.0,0.0,0.0,-0.0015104704070836306
1663844331869684348,0.08913224190473557,0.0,0.0,0.0,0.0,-0.0028559034690260887
1663844331913049573,0.08913224190473557,0.0,0.0,0.0,0.0,-0.0028559034690260887
1663844331963158376,0.07532457262277603,0.0,0.0,0.0,0.0,-0.005398602690547705
1663844332013153183,0.07532457262277603,0.0,0.0,0.0,0.0,-0.005398602690547705
1663844332063284460,0.06060659885406493,0.0,0.0,0.0,0.0,-0.009258587844669819
1663844332113120399,0.06060659885406493,0.0,0.0,0.0,0.0,-0.009258587844669819
