%time,field.linear.x,field.linear.y,field.linear.z,field.angular.x,field.angular.y,field.angular.z
1666089123729580802,0.0,0.0,0.0,0.0,0.0,0.0
1666089123749249553,0.0,0.0,0.0,0.0,0.0,0.0
1666089123769541634,0.0,0.0,0.0,0.0,0.0,0.0
1666089123789134605,0.0,0.0,0.0,0.0,0.0,0.0
1666089123809271600,0.0,0.0,0.0,0.0,0.0,0.0
1666089123830434301,0.0,0.0,0.0,0.0,0.0,0.0
1666089123849131450,0.0,0.0,0.0,0.0,0.0,0.0
1666089123869325516,0.0,0.0,0.0,0.0,0.0,0.0
1666089123889695373,0.0,0.0,0.0,0.0,0.0,0.0
1666089123936110570,0.0,0.0,0.0,0.0,0.0,0.0
1666089123936128224,0.0,0.0,0.0,0.0,0.0,0.0
1666089123980154637,0.0,0.0,0.0,0.0,0.0,0.0
1666089123980266233,0.0,0.0,0.0,0.0,0.0,0.0
1666089124024183002,0.0,0.0,0.0,0.0,0.0,0.0
1666089124024212578,0.0,0.0,0.0,0.0,0.0,0.0
1666089124068203014,0.0,0.0,0.0,0.0,0.0,0.0
1666089124068255353,0.0,0.0,0.0,0.0,0.0,0.0
1666089124112107620,0.0,0.0,0.0,0.0,0.0,0.0
1666089124112122864,0.0,0.0,0.0,0.0,0.0,0.0
1666089124112165407,0.0,0.0,0.0,0.0,0.0,0.0
1666089124156192705,0.0,0.0,0.0,0.0,0.0,0.0
1666089124156228472,0.0,0.0,0.0,0.0,0.0,0.0
1666089124170442597,0.0,0.0,0.0,0.0,0.0,0.0
1666089124190315189,0.0,0.0,0.0,0.0,0.0,0.0
1666089124236290451,0.0,0.0,0.0,0.0,0.0,0.0
1666089124236337336,0.0,0.0,0.0,0.0,0.0,0.0
1666089124280056708,0.0,0.0,0.0,0.0,0.0,0.0
1666089124280067694,0.0,0.0,0.0,0.0,0.0,0.0
1666089124324098249,0.0,0.0,0.0,0.0,0.0,0.0
1666089124324121552,0.0,0.0,0.0,0.0,0.0,0.0
1666089124368175002,0.0,0.0,0.0,0.0,0.0,0.0
1666089124368198178,0.0,0.0,0.0,0.0,0.0,0.0
1666089124412079874,0.0,0.0,0.0,0.0,0.0,0.0
1666089124412097976,0.0,0.0,0.0,0.0,0.0,0.0
1666089124412124120,0.0,0.0,0.0,0.0,0.0,0.0
1666089124456334831,0.0,0.0,0.0,0.0,0.0,0.0
1666089124456368025,0.0,0.0,0.0,0.0,0.0,0.0
1666089124470387533,0.0,0.0,0.0,0.0,0.0,0.0
1666089124490730801,0.0,0.0,0.0,0.0,0.0,0.0
1666089124536582376,0.0,0.0,0.0,0.0,0.0,0.0
1666089124536639984,0.0,0.0,0.0,0.0,0.0,0.0
1666089124580151548,0.0,0.0,0.0,0.0,0.0,0.0
1666089124580172913,0.0,0.0,0.0,0.0,0.0,0.0
1666089124628236376,0.0,0.0,0.0,0.0,0.0,0.0
1666089124628270578,0.0,0.0,0.0,0.0,0.0,0.0
1666089124672129966,0.0,0.0,0.0,0.0,0.0,0.0
1666089124672148736,0.0,0.0,0.0,0.0,0.0,0.0
1666089124672163837,0.0,0.0,0.0,0.0,0.0,0.0
1666089124716335786,0.0,0.0,0.0,0.0,0.0,0.0
1666089124716372416,0.0,0.0,0.0,0.0,0.0,0.0
1666089124731973017,0.0,0.0,0.0,0.0,0.0,0.0
1666089124749966640,0.0,0.0,0.0,0.0,0.0,0.0
1666089124793151235,0.0,0.0,0.0,0.0,0.0,0.0
1666089124793229693,0.0,0.0,0.0,0.0,0.0,0.0
1666089124836105927,0.0,0.0,0.0,0.0,0.0,0.0
1666089124836136895,0.0,0.0,0.0,0.0,0.0,0.0
1666089124880069423,0.0,0.0,0.0,0.0,0.0,0.0
1666089124880081814,0.0,0.0,0.0,0.0,0.0,0.0
1666089124924140001,0.0,0.0,0.0,0.0,0.0,0.0
1666089124924162498,0.0,0.0,0.0,0.0,0.0,0.0
1666089124968361140,0.0,0.0,0.0,0.0,0.0,0.0
1666089124968461230,0.0,0.0,0.0,0.0,0.0,0.0
1666089125012407936,0.0,0.0,0.0,0.0,0.0,0.0
1666089125012421481,0.0,0.0,0.0,0.0,0.0,0.0
1666089125012431422,0.0,0.0,0.0,0.0,0.0,0.0
1666089125060172389,0.0,0.0,0.0,0.0,0.0,0.0
1666089125060192803,0.0,0.0,0.0,0.0,0.0,0.0
1666089125070851699,0.0,0.0,0.0,0.0,0.0,0.0
1666089125090792655,0.0,0.0,0.0,0.0,0.0,0.0
1666089125132253569,0.0,0.0,0.0,0.0,0.0,0.0
1666089125132293763,0.0,0.0,0.0,0.0,0.0,0.0
1666089125176111254,0.0,0.0,0.0,0.0,0.0,0.0
1666089125176131192,0.0,0.0,0.0,0.0,0.0,0.0
1666089125220363122,0.0,0.0,0.0,0.0,0.0,0.0
1666089125220404786,0.0,0.0,0.0,0.0,0.0,0.0
1666089125264094352,0.0,0.0,0.0,0.0,0.0,0.0
1666089125264111476,0.0,0.0,0.0,0.0,0.0,0.0
1666089125308157467,0.0,0.0,0.0,0.0,0.0,0.0
1666089125308191600,0.0,0.0,0.0,0.0,0.0,0.0
1666089125352400359,0.0,0.0,0.0,0.0,0.0,0.0
1666089125352446940,0.0,0.0,0.0,0.0,0.0,0.0
1666089125352829915,0.0,0.0,0.0,0.0,0.0,0.0
1666089125396088479,0.0,0.0,0.0,0.0,0.0,0.0
1666089125396104748,0.0,0.0,0.0,0.0,0.0,0.0
1666089125411598657,0.0,0.0,0.0,0.0,0.0,0.0
1666089125430791993,0.0,0.0,0.0,0.0,0.0,0.0
1666089125476522668,0.0,0.0,0.0,0.0,0.0,0.0
1666089125476581527,0.0,0.0,0.0,0.0,0.0,0.0
1666089125520066735,0.0,0.0,0.0,0.0,0.0,0.0
1666089125520080031,0.0,0.0,0.0,0.0,0.0,0.0
1666089125568243422,0.0,0.0,0.0,0.0,0.0,0.0
1666089125568285037,0.0,0.0,0.0,0.0,0.0,0.0
1666089125616150057,0.0,0.0,0.0,0.0,0.0,0.0
1666089125616169860,0.0,0.0,0.0,0.0,0.0,0.0
1666089125616209680,0.0,0.0,0.0,0.0,0.0,0.0
1666089125660463467,0.0,0.0,0.0,0.0,0.0,0.0
1666089125660557541,0.0,0.0,0.0,0.0,0.0,0.0
1666089125670718522,0.0,0.0,0.0,0.0,0.0,0.0
1666089125690534137,0.0,0.0,0.0,0.0,0.0,0.0
1666089125732236256,0.0,0.0,0.0,0.0,0.0,0.0
1666089125732258705,0.0,0.0,0.0,0.0,0.0,0.0
1666089125776106076,0.0,0.0,0.0,0.0,0.0,0.0
1666089125776126798,0.0,0.0,0.0,0.0,0.0,0.0
1666089125820052511,0.0,0.0,0.0,0.0,0.0,0.0
1666089125820066881,0.0,0.0,0.0,0.0,0.0,0.0
1666089125868205846,0.0,0.0,0.0,0.0,0.0,0.0
1666089125868235117,0.0,0.0,0.0,0.0,0.0,0.0
1666089125916460223,0.0,0.0,0.0,0.0,0.0,0.0
1666089125916525474,0.0,0.0,0.0,0.0,0.0,0.0
1666089125916594158,0.0,0.0,0.0,0.0,0.0,0.0
1666089125960160250,0.0,0.0,0.0,0.0,0.0,0.0
1666089125960178978,0.0,0.0,0.0,0.0,0.0,0.0
1666089125971303110,0.0,0.0,0.0,0.0,0.0,0.0
1666089125990235159,0.0,0.0,0.0,0.0,0.0,0.0
1666089126036264120,0.0,0.0,0.0,0.0,0.0,0.0
1666089126036293890,0.0,0.0,0.0,0.0,0.0,0.0
1666089126084201001,0.0,0.0,0.0,0.0,0.0,0.0
1666089126084229731,0.0,0.0,0.0,0.0,0.0,0.0
1666089126128084311,0.0,0.0,0.0,0.0,0.0,0.0
1666089126128097754,0.0,0.0,0.0,0.0,0.0,0.0
1666089126172113495,0.0,0.0,0.0,0.0,0.0,0.0
1666089126172131114,0.0,0.0,0.0,0.0,0.0,0.0
1666089126172137166,0.0,0.0,0.0,0.0,0.0,0.0
1666089126216100863,0.0,0.0,0.0,0.0,0.0,0.0
1666089126216121060,0.0,0.0,0.0,0.0,0.0,0.0
1666089126231404116,0.0,0.0,0.0,0.0,0.0,0.0
1666089126250734239,0.0,0.0,0.0,0.0,0.0,0.0
1666089126292120246,0.0,0.0,0.0,0.0,0.0,0.0
1666089126292143333,0.0,0.0,0.0,0.0,0.0,0.0
1666089126336247788,0.0,0.0,0.0,0.0,0.0,0.0
1666089126336292998,0.0,0.0,0.0,0.0,0.0,0.0
1666089126380196308,0.0,0.0,0.0,0.0,0.0,0.0
1666089126380223799,0.0,0.0,0.0,0.0,0.0,0.0
1666089126424128983,0.0,0.0,0.0,0.0,0.0,0.0
1666089126424145960,0.0,0.0,0.0,0.0,0.0,0.0
1666089126468213686,0.0,0.0,0.0,0.0,0.0,0.0
1666089126468247927,0.0,0.0,0.0,0.0,0.0,0.0
1666089126512168268,0.0,0.0,0.0,0.0,0.0,0.0
1666089126512194282,0.0,0.0,0.0,0.0,0.0,0.0
1666089126512208302,0.0,0.0,0.0,0.0,0.0,0.0
1666089126556089915,0.0,0.0,0.0,0.0,0.0,0.0
1666089126556120007,0.0,0.0,0.0,0.0,0.0,0.0
1666089126571546336,0.0,0.0,0.0,0.0,0.0,0.0
1666089126592844858,0.0,0.0,0.0,0.0,0.0,0.0
1666089126636335512,0.0,0.0,0.0,0.0,0.0,0.0
1666089126636377617,0.0,0.0,0.0,0.0,0.0,0.0
1666089126680463210,0.0,0.0,0.0,0.0,0.0,0.0
1666089126680519995,0.0,0.0,0.0,0.0,0.0,0.0
1666089126724262215,0.0,0.0,0.0,0.0,0.0,0.0
1666089126724286442,0.0,0.0,0.0,0.0,0.0,0.0
1666089126768427887,0.0,0.0,0.0,0.0,0.0,0.0
1666089126768484707,0.0,0.0,0.0,0.0,0.0,0.0
1666089126812090603,0.0,0.0,0.0,0.0,0.0,0.0
1666089126812104346,0.0,0.0,0.0,0.0,0.0,0.0
1666089126812118758,0.0,0.0,0.0,0.0,0.0,0.0
1666089126856144605,0.0,0.0,0.0,0.0,0.0,0.0
1666089126856190889,0.0,0.0,0.0,0.0,0.0,0.0
1666089126872727735,0.0,0.0,0.0,0.0,0.0,0.0
1666089126892257418,0.0,0.0,0.0,0.0,0.0,0.0
1666089126940067897,0.0,0.0,0.0,0.0,0.0,0.0
1666089126940082343,0.0,0.0,0.0,0.0,0.0,0.0
1666089126988067600,0.0,0.0,0.0,0.0,0.0,0.0
1666089126988086903,0.0,0.0,0.0,0.0,0.0,0.0
1666089127032252278,0.0,0.0,0.0,0.0,0.0,0.0
1666089127032282263,0.0,0.0,0.0,0.0,0.0,0.0
1666089127076151269,0.0,0.0,0.0,0.0,0.0,0.0
1666089127076173020,0.0,0.0,0.0,0.0,0.0,0.0
1666089127076187180,0.0,0.0,0.0,0.0,0.0,0.0
1666089127124036404,0.0,0.0,0.0,0.0,0.0,0.0
1666089127124047640,0.0,0.0,0.0,0.0,0.0,0.0
1666089127131069435,0.0,0.0,0.0,0.0,0.0,0.0
1666089127151721776,0.0,0.0,0.0,0.0,0.0,0.0
1666089127196147270,0.0,0.0,0.0,0.0,0.0,0.0
1666089127196170176,0.0,0.0,0.0,0.0,0.0,0.0
1666089127240249767,0.0,0.0,0.0,0.0,0.0,0.0
1666089127240293437,0.0,0.0,0.0,0.0,0.0,0.0
1666089127288141342,0.0,0.0,0.0,0.0,0.0,0.0
1666089127288168751,0.0,0.0,0.0,0.0,0.0,0.0
1666089127332462961,0.0,0.0,0.0,0.0,0.0,0.0
1666089127332514581,0.0,0.0,0.0,0.0,0.0,0.0
1666089127336097984,0.0,0.0,0.0,0.0,0.0,0.0
1666089127376474585,0.0,0.0,0.0,0.0,0.0,0.0
1666089127376542283,0.0,0.0,0.0,0.0,0.0,0.0
1666089127391941056,0.0,0.0,0.0,0.0,0.0,0.0
1666089127412182519,0.0,0.0,0.0,0.0,0.0,0.0
1666089127456220474,0.0,0.0,0.0,0.0,0.0,0.0
1666089127456248082,0.0,0.0,0.0,0.0,0.0,0.0
1666089127504183340,0.0,0.0,0.0,0.0,0.0,0.0
1666089127504207713,0.0,0.0,0.0,0.0,0.0,0.0
1666089127548072099,0.0,0.0,0.0,0.0,0.0,0.0
1666089127548085484,0.0,0.0,0.0,0.0,0.0,0.0
1666089127592362955,0.0,0.0,0.0,0.0,0.0,0.0
1666089127592394739,0.0,0.0,0.0,0.0,0.0,0.0
1666089127636142764,0.0,0.0,0.0,0.0,0.0,0.0
1666089127636162502,0.0,0.0,0.0,0.0,0.0,0.0
1666089127636179016,0.0,0.0,0.0,0.0,0.0,0.0
1666089127684137736,0.0,0.0,0.0,0.0,0.0,0.0
1666089127684151069,0.0,0.0,0.0,0.0,0.0,0.0
1666089127692065750,0.0,0.0,0.0,0.0,0.0,0.0
1666089127713130598,0.0,0.0,0.0,0.0,0.0,0.0
1666089127756177819,0.0,0.0,0.0,0.0,0.0,0.0
1666089127756200052,0.0,0.0,0.0,0.0,0.0,0.0
1666089127800236099,0.0,0.0,0.0,0.0,0.0,0.0
1666089127800255599,0.0,0.0,0.0,0.0,0.0,0.0
1666089127844374077,0.0,0.0,0.0,0.0,0.0,0.0
1666089127844455370,0.0,0.0,0.0,0.0,0.0,0.0
1666089127888263511,0.0,0.0,0.0,0.0,0.0,0.0
1666089127888290383,0.0,0.0,0.0,0.0,0.0,0.0
1666089127932441509,0.0,0.0,0.0,0.0,0.0,0.0
1666089127932496037,0.0,0.0,0.0,0.0,0.0,0.0
1666089127932524636,0.0,0.0,0.0,0.0,0.0,0.0
1666089127976198317,0.0,0.0,0.0,0.0,0.0,0.0
1666089127976214299,0.0,0.0,0.0,0.0,0.0,0.0
1666089127993734495,0.0,0.0,0.0,0.0,0.0,0.0
1666089128011655117,0.0,0.0,0.0,0.0,0.0,0.0
1666089128056115192,0.0,0.0,0.0,0.0,0.0,0.0
1666089128056135153,0.0,0.0,0.0,0.0,0.0,0.0
1666089128104448963,0.0,0.0,0.0,0.0,0.0,0.0
1666089128104524178,0.0,0.0,0.0,0.0,0.0,0.0
1666089128148191326,0.0,0.0,0.0,0.0,0.0,0.0
1666089128148248524,0.0,0.0,0.0,0.0,0.0,0.0
1666089128192118378,0.0,0.0,0.0,0.0,0.0,0.0
1666089128192137849,0.0,0.0,0.0,0.0,0.0,0.0
1666089128192149678,0.0,0.0,0.0,0.0,0.0,0.0
1666089128236408510,0.0,0.0,0.0,0.0,0.0,0.0
1666089128236452488,0.0,0.0,0.0,0.0,0.0,0.0
1666089128252555414,0.0,0.0,0.0,0.0,0.0,0.0
1666089128271578843,0.0,0.0,0.0,0.0,0.0,0.0
1666089128312159074,0.0,0.0,0.0,0.0,0.0,0.0
1666089128356170691,0.0,0.0,0.0,0.0,0.0,0.0
1666089128356192622,0.0,0.0,0.0,0.0,0.0,0.0
1666089128356212513,0.0,0.0,0.0,0.0,0.0,0.0
1666089128401255855,0.0,0.0,0.0,0.0,0.0,0.0
1666089128401356396,0.0,0.0,0.0,0.0,0.0,0.0
1666089128416379842,0.0,0.0,0.0,0.0,0.0,0.0
1666089128433325905,0.0,0.0,0.0,0.0,0.0,0.0
1666089128476130107,0.0,0.0,0.0,0.0,0.0,0.0
1666089128476146277,0.0,0.0,0.0,0.0,0.0,0.0
1666089128520527665,0.0,0.0,0.0,0.0,0.0,0.0
1666089128520615826,0.0,0.0,0.0,0.0,0.0,0.0
1666089128564146666,0.0,0.0,0.0,0.0,0.0,0.0
1666089128564162767,0.0,0.0,0.0,0.0,0.0,0.0
1666089128612275793,0.0,0.0,0.0,0.0,0.0,0.0
1666089128612299673,0.0,0.0,0.0,0.0,0.0,0.0
1666089128656623447,0.0,0.0,0.0,0.0,0.0,0.0
1666089128656685630,0.0,0.0,0.0,0.0,0.0,0.0
1666089128656695210,0.0,0.0,0.0,0.0,0.0,0.0
1666089128700291177,0.0,0.0,0.0,0.0,0.0,0.0
1666089128700337962,0.0,0.0,0.0,0.0,0.0,0.0
1666089128713952389,0.0,0.0,0.0,0.0,0.0,0.0
1666089128735335755,0.0,0.0,0.0,0.0,0.0,0.0
1666089128776134882,0.0,0.0,0.0,0.0,0.0,0.0
1666089128776150437,0.0,0.0,0.0,0.0,0.0,0.0
1666089128820061408,0.0,0.0,0.0,0.0,0.0,0.0
1666089128820076398,0.0,0.0,0.0,0.0,0.0,0.0
1666089128864192384,0.0,0.0,0.0,0.0,0.0,0.0
1666089128864213879,0.0,0.0,0.0,0.0,0.0,0.0
1666089128908154895,0.0,0.0,0.0,0.0,0.0,0.0
1666089128908177742,0.0,0.0,0.0,0.0,0.0,0.0
1666089128956550086,0.0,0.0,0.0,0.0,0.0,0.0
1666089128956642923,0.0,0.0,0.0,0.0,0.0,0.0
1666089128956754533,0.0,0.0,0.0,0.0,0.0,0.0
1666089129004170843,0.0,0.0,0.0,0.0,0.0,0.0
1666089129004204224,0.0,0.0,0.0,0.0,0.0,0.0
1666089129013056531,0.0,0.0,0.0,0.0,0.0,0.0
1666089129035361112,0.0,0.0,0.0,0.0,0.0,0.0
1666089129076524293,0.0,0.0,0.0,0.0,0.0,0.0
1666089129076557903,0.0,0.0,0.0,0.0,0.0,0.0
1666089129120107657,0.0,0.0,0.0,0.0,0.0,0.0
1666089129120135036,0.0,0.0,0.0,0.0,0.0,0.0
1666089129164288154,0.0,0.0,0.0,0.0,0.0,0.0
1666089129164313007,0.0,0.0,0.0,0.0,0.0,0.0
1666089129208305557,0.0,0.0,0.0,0.0,0.0,0.0
1666089129208336890,0.0,0.0,0.0,0.0,0.0,0.0
1666089129252181785,0.0,0.0,0.0,0.0,0.0,0.0
1666089129252211587,0.0,0.0,0.0,0.0,0.0,0.0
1666089129296115623,0.0,0.0,0.0,0.0,0.0,0.0
1666089129296132363,0.0,0.0,0.0,0.0,0.0,0.0
1666089129296166141,0.0,0.0,0.0,0.0,0.0,0.0
1666089129340454795,0.0,0.0,0.0,0.0,0.0,0.0
1666089129340536388,0.0,0.0,0.0,0.0,0.0,0.0
1666089129353554983,0.0,0.0,0.0,0.0,0.0,0.0
1666089129371979317,0.0,0.0,0.0,0.0,0.0,0.0
1666089129412375338,0.0,0.0,0.0,0.0,0.0,0.0
1666089129456154623,0.0,0.0,0.0,0.0,0.0,0.0
1666089129456170746,0.0,0.0,0.0,0.0,0.0,0.0
1666089129456176732,0.0,0.0,0.0,0.0,0.0,0.0
1666089129500509257,0.0,0.0,0.0,0.0,0.0,0.0
1666089129500557998,0.0,0.0,0.0,0.0,0.0,0.0
1666089129513550559,0.0,0.0,0.0,0.0,0.0,0.0
1666089129534084659,0.0,0.0,0.0,0.0,0.0,0.0
1666089129576149201,0.0,0.0,0.0,0.0,0.0,0.0
1666089129576164728,0.0,0.0,0.0,0.0,0.0,0.0
1666089129620081720,0.0,0.0,0.0,0.0,0.0,0.0
1666089129620097390,0.0,0.0,0.0,0.0,0.0,0.0
1666089129664304113,0.0,0.0,0.0,0.0,0.0,0.0
1666089129664347039,0.0,0.0,0.0,0.0,0.0,0.0
1666089129708107657,0.0,0.0,0.0,0.0,0.0,0.0
1666089129708125968,0.0,0.0,0.0,0.0,0.0,0.0
1666089129752295491,0.0,0.0,0.0,0.0,0.0,0.0
1666089129752314771,0.0,0.0,0.0,0.0,0.0,0.0
1666089129800203784,0.0,0.0,0.0,0.0,0.0,0.0
1666089129800233782,0.0,0.0,0.0,0.0,0.0,0.0
1666089129800257494,0.0,0.0,0.0,0.0,0.0,0.0
1666089129844109576,0.0,0.0,0.0,0.0,0.0,0.0
1666089129844123162,0.0,0.0,0.0,0.0,0.0,0.0
1666089129853146646,0.0,0.0,0.0,0.0,0.0,0.0
1666089129873047905,0.0,0.0,0.0,0.0,0.0,0.0
1666089129916122008,0.0,0.0,0.0,0.0,0.0,0.0
1666089129916151609,0.0,0.0,0.0,0.0,0.0,0.0
1666089129960067548,0.0,0.0,0.0,0.0,0.0,0.0
1666089129960082547,0.0,0.0,0.0,0.0,0.0,0.0
1666089130004535954,0.0,0.0,0.0,0.0,0.0,0.0
1666089130004618518,0.0,0.0,0.0,0.0,0.0,0.0
1666089130052059099,0.0,0.0,0.0,0.0,0.0,0.0
1666089130052072016,0.0,0.0,0.0,0.0,0.0,0.0
1666089130096257458,0.0,0.0,0.0,0.0,0.0,0.0
1666089130096299215,0.0,0.0,0.0,0.0,0.0,0.0
1666089130096345722,0.0,0.0,0.0,0.0,0.0,0.0
1666089130140253009,0.0,0.0,0.0,0.0,0.0,0.0
1666089130140291466,0.0,0.0,0.0,0.0,0.0,0.0
1666089130152733101,0.0,0.0,0.0,0.0,0.0,0.0
1666089130172726205,0.0,0.0,0.0,0.0,0.0,0.0
1666089130220089463,0.0,0.0,0.0,0.0,0.0,0.0
1666089130220102812,0.0,0.0,0.0,0.0,0.0,0.0
1666089130264133804,0.0,0.0,0.0,0.0,0.0,0.0
1666089130264146737,0.0,0.0,0.0,0.0,0.0,0.0
1666089130308627739,0.0,0.0,0.0,0.0,0.0,0.0
1666089130308678193,0.0,0.0,0.0,0.0,0.0,0.0
1666089130352038135,0.0,0.0,0.0,0.0,0.0,0.0
1666089130352050155,0.0,0.0,0.0,0.0,0.0,0.0
1666089130396106827,0.0,0.0,0.0,0.0,0.0,0.0
1666089130396124581,0.0,0.0,0.0,0.0,0.0,0.0
1666089130396148549,0.0,0.0,0.0,0.0,0.0,0.0
1666089130440186753,0.0,0.0,0.0,0.0,0.0,0.0
1666089130440218266,0.0,0.0,0.0,0.0,0.0,0.0
1666089130452813083,0.0,0.0,0.0,0.0,0.0,0.0
1666089130472587341,0.0,0.0,0.0,0.0,0.0,0.0
1666089130516076482,0.0,0.0,0.0,0.0,0.0,0.0
1666089130516091392,0.0,0.0,0.0,0.0,0.0,0.0
1666089130564100365,0.0,0.0,0.0,0.0,0.0,0.0
1666089130564117178,0.0,0.0,0.0,0.0,0.0,0.0
1666089130612231348,0.0,0.0,0.0,0.0,0.0,0.0
1666089130612279538,0.0,0.0,0.0,0.0,0.0,0.0
1666089130656086090,0.0,0.0,0.0,0.0,0.0,0.0
1666089130656098922,0.0,0.0,0.0,0.0,0.0,0.0
1666089130656108312,0.0,0.0,0.0,0.0,0.0,0.0
1666089130704131774,0.0,0.0,0.0,0.0,0.0,0.0
1666089130704159649,0.0,0.0,0.0,0.0,0.0,0.0
1666089130713642419,0.0,0.0,0.0,0.0,0.0,0.0
1666089130735117904,0.0,0.0,0.0,0.0,0.0,0.0
1666089130776251089,0.0,0.0,0.0,0.0,0.0,0.0
1666089130776291746,0.0,0.0,0.0,0.0,0.0,0.0
1666089130824060741,0.0,0.0,0.0,0.0,0.0,0.0
1666089130824075104,0.0,0.0,0.0,0.0,0.0,0.0
1666089130872144852,0.0,0.0,0.0,0.0,0.0,0.0
1666089130872174214,0.0,0.0,0.0,0.0,0.0,0.0
1666089130916089666,0.0,0.0,0.0,0.0,0.0,0.0
1666089130916104493,0.0,0.0,0.0,0.0,0.0,0.0
1666089130916132074,0.0,0.0,0.0,0.0,0.0,0.0
1666089130960124083,0.0,0.0,0.0,0.0,0.0,0.0
1666089130960146821,0.0,0.0,0.0,0.0,0.0,0.0
1666089130973103820,0.0,0.0,0.0,0.0,0.0,0.0
1666089130992372621,0.0,0.0,0.0,0.0,0.0,0.0
1666089131036771243,0.0,0.0,0.0,0.0,0.0,0.0
1666089131084102659,0.0,0.0,0.0,0.0,0.0,0.0
1666089131084117186,0.0,0.0,0.0,0.0,0.0,0.0
1666089131084124115,0.0,0.0,0.0,0.0,0.0,0.0
1666089131132214993,0.0,0.0,0.0,0.0,0.0,0.0
1666089131132242843,0.0,0.0,0.0,0.0,0.0,0.0
1666089131134701932,0.0,0.0,0.0,0.0,0.0,0.0
1666089131153309718,0.0,0.0,0.0,0.0,0.0,0.0
1666089131196083372,0.0,0.0,0.0,0.0,0.0,0.0
1666089131196096692,0.0,0.0,0.0,0.0,0.0,0.0
1666089131240206765,0.0,0.0,0.0,0.0,0.0,0.0
1666089131240243411,0.0,0.0,0.0,0.0,0.0,0.0
1666089131284082240,0.0,0.0,0.0,0.0,0.0,0.0
1666089131284093948,0.0,0.0,0.0,0.0,0.0,0.0
1666089131328089856,0.0,0.0,0.0,0.0,0.0,0.0
1666089131328102639,0.0,0.0,0.0,0.0,0.0,0.0
1666089131372257110,0.0,0.0,0.0,0.0,0.0,0.0
1666089131372300426,0.0,0.0,0.0,0.0,0.0,0.0
1666089131420132882,0.0,0.0,0.0,0.0,0.0,0.0
1666089131420158088,0.0,0.0,0.0,0.0,0.0,0.0
1666089131420193948,0.0,0.0,0.0,0.0,0.0,0.0
1666089131464108559,0.0,0.0,0.0,0.0,0.0,0.0
1666089131464125371,0.0,0.0,0.0,0.0,0.0,0.0
1666089131474619046,0.0,0.0,0.0,0.0,0.0,0.0
1666089131493218734,0.0,0.0,0.0,0.0,0.0,0.0
1666089131536331845,0.0,0.0,0.0,0.0,0.0,0.0
1666089131536358296,0.0,0.0,0.0,0.0,0.0,0.0
1666089131580094272,0.0,0.0,0.0,0.0,0.0,0.0
1666089131580244270,0.0,0.0,0.0,0.0,0.0,0.0
1666089131624572914,0.0,0.0,0.0,0.0,0.0,0.0
1666089131624670486,0.0,0.0,0.0,0.0,0.0,0.0
1666089131668424375,0.0,0.0,0.0,0.0,0.0,0.0
1666089131668471895,0.0,0.0,0.0,0.0,0.0,0.0
1666089131716135144,0.0,0.0,0.0,0.0,0.0,0.0
1666089131716164285,0.0,0.0,0.0,0.0,0.0,0.0
1666089131716183118,0.0,0.0,0.0,0.0,0.0,0.0
1666089131764208187,0.0,0.0,0.0,0.0,0.0,0.0
1666089131764223845,0.0,0.0,0.0,0.0,0.0,0.0
1666089131774004019,0.0,0.0,0.0,0.0,0.0,0.0
1666089131793923188,0.0,0.0,0.0,0.0,0.0,0.0
1666089131840121536,0.0,0.0,0.0,0.0,0.0,0.0
1666089131840143157,0.0,0.0,0.0,0.0,0.0,0.0
1666089131884105981,0.0,0.0,0.0,0.0,0.0,0.0
1666089131884134757,0.0,0.0,0.0,0.0,0.0,0.0
1666089131928130610,0.0,0.0,0.0,0.0,0.0,0.0
1666089131928150790,0.0,0.0,0.0,0.0,0.0,0.0
1666089131972292505,0.0,0.0,0.0,0.0,0.0,0.0
1666089131972336310,0.0,0.0,0.0,0.0,0.0,0.0
1666089132016127008,0.0,0.0,0.0,0.0,0.0,0.0
1666089132016143289,0.0,0.0,0.0,0.0,0.0,0.0
1666089132016149557,0.0,0.0,0.0,0.0,0.0,0.0
1666089132064118383,0.0,0.0,0.0,0.0,0.0,0.0
1666089132064140433,0.0,0.0,0.0,0.0,0.0,0.0
1666089132073860804,0.0,0.0,0.0,0.0,0.0,0.0
1666089132093889308,0.0,0.0,0.0,0.0,0.0,0.0
1666089132136275945,0.0,0.0,0.0,0.0,0.0,0.0
1666089132136305448,0.0,0.0,0.0,0.0,0.0,0.0
1666089132180274091,0.0,0.0,0.0,0.0,0.0,0.0
1666089132180331312,0.0,0.0,0.0,0.0,0.0,0.0
1666089132224179882,0.0,0.0,0.0,0.0,0.0,0.0
1666089132224202629,0.0,0.0,0.0,0.0,0.0,0.0
1666089132278365878,0.0,0.0,0.0,0.0,0.0,0.0
1666089132278386172,0.0,0.0,0.0,0.0,0.0,0.0
1666089132320428731,0.0,0.0,0.0,0.0,0.0,0.0
1666089132320478485,0.0,0.0,0.0,0.0,0.0,0.0
1666089132320566530,0.0,0.0,0.0,0.0,0.0,0.0
1666089132364064968,0.0,0.0,0.0,0.0,0.0,0.0
1666089132364077828,0.0,0.0,0.0,0.0,0.0,0.0
1666089132373010162,0.0,0.0,0.0,0.0,0.0,0.0
1666089132394294641,0.0,0.0,0.0,0.0,0.0,0.0
1666089132436390287,0.0,0.0,0.0,0.0,0.0,0.0
1666089132436431966,0.0,0.0,0.0,0.0,0.0,0.0
1666089132480067504,0.0,0.0,0.0,0.0,0.0,0.0
1666089132480081850,0.0,0.0,0.0,0.0,0.0,0.0
1666089132528132399,0.0,0.0,0.0,0.0,0.0,0.0
1666089132528146767,0.0,0.0,0.0,0.0,0.0,0.0
1666089132572274683,0.0,0.0,0.0,0.0,0.0,0.0
1666089132572304413,0.0,0.0,0.0,0.0,0.0,0.0
1666089132616108227,0.0,0.0,0.0,0.0,0.0,0.0
1666089132616123135,0.0,0.0,0.0,0.0,0.0,0.0
1666089132616129758,0.0,0.0,0.0,0.0,0.0,0.0
1666089132660293073,0.0,0.0,0.0,0.0,0.0,0.0
1666089132660335934,0.0,0.0,0.0,0.0,0.0,0.0
1666089132676479162,0.0,0.0,0.0,0.0,0.0,0.0
1666089132693829048,0.0,0.0,0.0,0.0,0.0,0.0
1666089132740238393,0.0,0.0,0.0,0.0,0.0,0.0
1666089132740257330,0.0,0.0,0.0,0.0,0.0,0.0
1666089132788498004,0.0,0.0,0.0,0.0,0.0,0.0
1666089132788582752,0.0,0.0,0.0,0.0,0.0,-0.0027925268031909274
1666089132832102363,0.0,0.0,0.0,0.0,0.0,-0.0020943951023931952
1666089132832119815,0.0,0.0,0.0,0.0,0.0,-0.002967059728390361
1666089132880128253,0.0,0.0,0.0,0.0,0.0,-0.00034906585039886593
1666089132880145732,0.0,0.0,0.0,0.0,0.0,0.0006981317007977319
1666089132880160761,0.0,0.0,0.0,0.0,0.0,-0.0006981317007977319
1666089132924132218,0.02345532429171726,0.0,0.0,0.0,0.0,-0.0005235987755982988
1666089132924159744,0.034116835333406925,0.0,0.0,0.0,0.0,-0.0041887902047863905
1666089132934566969,0.021323022083379328,0.0,0.0,0.0,0.0,-0.003490658503988659
1666089132953963100,0.012793813250027599,0.0,0.0,0.0,0.0,0.0022689280275926286
1666089133000040260,0.017058417666703463,0.0,0.0,0.0,0.0,0.0012217304763960308
1666089133000053520,0.03624913754174486,0.0,0.0,0.0,0.0,-0.0022689280275926286
1666089133044132674,0.03838143975008279,0.0,0.0,0.0,0.0,-0.0010471975511965976
1666089133044152232,0.04691064858343452,0.0,0.0,0.0,0.0,-0.002967059728390361
1666089133088170555,0.044778346375096596,0.0,0.0,0.0,0.0,-0.009075712110370514
1666089133088199571,0.05757215962512419,0.0,0.0,0.0,0.0,-0.015009831567151233
1666089133132154401,0.07249827508348972,0.0,0.0,0.0,0.0,-0.012740903539558606
1666089133132172398,0.06183676404180006,0.0,0.0,0.0,0.0,-0.009075712110370514
1666089133176150209,0.0703659728751518,0.0,0.0,0.0,0.0,-0.01815142422074103
1666089133176186158,0.07249827508348972,0.0,0.0,0.0,0.0,-0.03804817769347638
1666089133176198294,0.07249827508348972,0.0,0.0,0.0,0.0,-0.04799655442984406
1666089133220082339,0.08955669275019319,0.0,0.0,0.0,0.0,-0.039095375244672985
1666089133220098861,0.09808590158354492,0.0,0.0,0.0,0.0,-0.041887902047863905
1666089133233935482,0.10661511041689664,0.0,0.0,0.0,0.0,-0.054977871437821374
1666089133253459722,0.09595359937520698,0.0,0.0,0.0,0.0,-0.05462880558742251
1666089133296316158,0.10661511041689664,0.0,0.0,0.0,0.0,-0.05707226654021458
1666089133296353100,0.12367352808360012,0.0,0.0,0.0,0.0,-0.07487462491055674
1666089133340278885,0.1300704347086139,0.0,0.0,0.0,0.0,-0.07504915783575616
1666089133340318570,0.13433503912528977,0.0,0.0,0.0,0.0,-0.07382742735936014
1666089133384467611,0.13220273691695184,0.0,0.0,0.0,0.0,-0.09756390518648302
1666089133384572915,0.12367352808360012,0.0,0.0,0.0,0.0,-0.12531464029319286
1666089133428074692,0.14712885237531736,0.0,0.0,0.0,0.0,-0.1324704902263696
1666089133428090333,0.14286424795864153,0.0,0.0,0.0,0.0,-0.14695672301792254
1666089133472401039,0.15139345679199323,0.0,0.0,0.0,0.0,-0.18360863730980345
1666089133472632004,0.159922665625345,0.0,0.0,0.0,0.0,-0.21886428820008888
1666089133516088375,0.159922665625345,0.0,0.0,0.0,0.0,-0.28623399732707
1666089133516101146,0.1684518744586967,0.0,0.0,0.0,0.0,-0.28588493147667116
1666089133516121426,0.16418727004202083,0.0,0.0,0.0,0.0,-0.32236231284335265
1666089133560498931,0.1684518744586967,0.0,0.0,0.0,0.0,-0.3752457891787808
1666089133560558155,0.17058417666703463,0.0,0.0,0.0,0.0,-0.39269908169872414
1666089133576232059,0.17058417666703463,0.0,0.0,0.0,0.0,-0.41608649367544814
1666089133594491382,0.17698108329204845,0.0,0.0,0.0,0.0,-0.42551127163621755
1666089133636409015,0.17698108329204845,0.0,0.0,0.0,0.0,-0.457974395723312
1666089133636449639,0.18977489654207602,0.0,0.0,0.0,0.0,-0.4965461721923867
1666089133680122251,0.1876425943337381,0.0,0.0,0.0,0.0,-0.5263913024014898
1666089133680144540,0.1876425943337381,0.0,0.0,0.0,0.0,-0.5597270911145814
1666089133724410872,0.20256870979210362,0.0,0.0,0.0,0.0,-0.5841617006425021
1666089133724417440,0.19617180316708985,0.0,0.0,0.0,0.0,-0.6054547175168329
1666089133772625181,0.21323022083379328,0.0,0.0,0.0,0.0,-0.6363470452771326
1666089133772665850,0.21536252304213124,0.0,0.0,0.0,0.0,-0.6426302305843121
1666089133816101720,0.21323022083379328,0.0,0.0,0.0,0.0,-0.6805038753525892
1666089133816114680,0.221759429667145,0.0,0.0,0.0,0.0,-0.6890559886873612
1666089133816126997,0.22389173187548297,0.0,0.0,0.0,0.0,-0.6948155752189427
1666089133860136533,0.23242094070883468,0.0,0.0,0.0,0.0,-0.7026695568529171
1666089133860153696,0.23242094070883468,0.0,0.0,0.0,0.0,-0.7028440897781165
1666089133874587973,0.23455324291717264,0.0,0.0,0.0,0.0,-0.7267551005304388
1666089133899104945,0.2516116605838761,0.0,0.0,0.0,0.0,-0.7367034772668065
1666089133940095208,0.25587626500055194,0.0,0.0,0.0,0.0,-0.7307693578100257
1666089133940114583,0.26440547383390367,0.0,0.0,0.0,0.0,-0.7267551005304388
1666089133984439805,0.25587626500055194,0.0,0.0,0.0,0.0,-0.7421139979479889
1666089133984535176,0.26653777604224166,0.0,0.0,0.0,0.0,-0.7464773210779747
1666089134028444110,0.28359619370894507,0.0,0.0,0.0,0.0,-0.7567747636647413
1666089134028471969,0.27506698487559333,0.0,0.0,0.0,0.0,-0.76637407455071
1666089134072060090,0.1492611545836553,0.0,0.0,0.0,0.0,-0.7585200929167357
1666089134072074454,0.1364673413336277,0.0,0.0,0.0,0.0,-0.7668976733263084
1666089134120145427,0.20896561641711744,0.0,0.0,0.0,0.0,-0.7874925584998415
1666089134120177234,0.23242094070883468,0.0,0.0,0.0,0.0,-0.8178612874845428
1666089134120204182,0.19190719875041395,0.0,0.0,0.0,0.0,-0.8646361114379908
1666089134164142712,0.14499655016697943,0.0,0.0,0.0,0.0,-0.870744763819971
1666089134164167317,0.16631957225035876,0.0,0.0,0.0,0.0,-0.8686503687175778
1666089134174670593,0.19403950095875191,0.0,0.0,0.0,0.0,-0.8583529261308112
1666089134194276433,0.18977489654207602,0.0,0.0,0.0,0.0,-0.8508480103472356
1666089134240263182,0.16631957225035876,0.0,0.0,0.0,0.0,-0.8529424054496287
1666089134240292526,0.17271647887537256,0.0,0.0,0.0,0.0,-0.8487536152448425
1666089134288057200,0.17271647887537256,0.0,0.0,0.0,0.0,-0.8478809506188453
1666089134288077799,0.17911338550038639,0.0,0.0,0.0,0.0,-0.8459610884416515
1666089134332118570,0.18337798991706222,0.0,0.0,0.0,0.0,-0.8520697408236316
1666089134332134468,0.18337798991706222,0.0,0.0,0.0,0.0,-0.8775515479027488
1666089134376133727,0.19190719875041395,0.0,0.0,0.0,0.0,-0.8946557745722932
1666089134376158700,0.1876425943337381,0.0,0.0,0.0,0.0,-0.9035569537574645
1666089134376170970,0.18337798991706222,0.0,0.0,0.0,0.0,-0.8984954989266808
1666089134420435257,0.04691064858343452,0.0,0.0,0.0,0.0,-0.9004153611038747
1666089134420497493,0.0703659728751518,0.0,0.0,0.0,0.0,-0.9030333549818661
1666089134435386878,0.051175253000110395,0.0,0.0,0.0,0.0,-0.8599237224576063
1666089134455166618,0.06183676404180006,0.0,0.0,0.0,0.0,-0.8173376887089445
1666089134496039353,0.03838143975008279,0.0,0.0,0.0,0.0,-0.7857472292478472
1666089134496052699,0.029852230916731063,0.0,0.0,0.0,0.0,-0.6904522520889568
1666089134544162706,0.03198453312506899,0.0,0.0,0.0,0.0,-0.5935864786032714
1666089134544199942,0.03624913754174486,0.0,0.0,0.0,0.0,-0.5251695719250937
1666089134588051924,0.03624913754174486,0.0,0.0,0.0,0.0,-0.46094145545170245
1666089134588062501,0.03838143975008279,0.0,0.0,0.0,0.0,-0.4054399852382828
1666089134632103760,0.029852230916731063,0.0,0.0,0.0,0.0,-0.36075955638722795
1666089134632122973,0.014926115458365532,0.0,0.0,0.0,0.0,-0.35046211380046133
1666089134676166614,0.004264604416675866,0.0,0.0,0.0,0.0,-0.35953782591083194
1666089134676189135,-0.004264604416675866,0.0,0.0,0.0,0.0,-0.3319616237293215
1666089134676194468,-0.002132302208337933,0.0,0.0,0.0,0.0,-0.28256880589788197
1666089134720347818,-0.006396906625013799,0.0,0.0,0.0,0.0,-0.2439970294288073
1666089134720379726,-0.008529208833351731,0.0,0.0,0.0,0.0,-0.21676989309769573
1666089134735211088,-0.021323022083379328,0.0,0.0,0.0,0.0,-0.19355701404617112
1666089134755080733,-0.02345532429171726,0.0,0.0,0.0,0.0,-0.16667894356545848
1666089134796104269,-0.017058417666703463,0.0,0.0,0.0,0.0,-0.13002702927357757
1666089134796121401,-0.002132302208337933,0.0,0.0,0.0,0.0,-0.12217304763960307
1666089134840304061,0.002132302208337933,0.0,0.0,0.0,0.0,-0.11990411961201045
1666089134840320775,0.004264604416675866,0.0,0.0,0.0,0.0,-0.09128071987930345
1666089134888180069,0.010661511041689664,0.0,0.0,0.0,0.0,-0.024260076602721177
1666089134888201163,0.006396906625013799,0.0,0.0,0.0,0.0,-0.0019198621771937623
1666089134936245364,0.006396906625013799,0.0,0.0,0.0,0.0,-0.005061454830783556
1666089134936276773,0.008529208833351731,0.0,0.0,0.0,0.0,-0.01117010721276371
1666089134936286196,0.008529208833351731,0.0,0.0,0.0,0.0,-0.006981317007977318
1666089134984138756,0.004264604416675866,0.0,0.0,0.0,0.0,-0.006283185307179587
1666089134984159968,0.0,0.0,0.0,0.0,0.0,-0.02181661564992912
1666089134996909017,0.0,0.0,0.0,0.0,0.0,-0.026529004630313806
1666089135019376087,0.0,0.0,0.0,0.0,0.0,-0.021467549799530253
1666089135060147022,0.0,0.0,0.0,0.0,0.0,-0.021118483949131385
1666089135060175240,0.0,0.0,0.0,0.0,0.0,-0.017976891295541593
1666089135108177036,0.0,0.0,0.0,0.0,0.0,0.0
1666089135108199513,-0.002132302208337933,0.0,0.0,0.0,0.0,0.0
1666089135156409451,0.0,0.0,0.0,0.0,0.0,0.0
1666089135156447834,0.0,0.0,0.0,0.0,0.0,0.0
1666089135204189159,0.0,0.0,0.0,0.0,0.0,0.0
1666089135204208294,0.0,0.0,0.0,0.0,0.0,0.0
1666089135204230835,0.0,0.0,0.0,0.0,0.0,0.0
1666089135248664876,0.0,0.0,0.0,0.0,0.0,0.0
1666089135248737227,0.0,0.0,0.0,0.0,0.0,0.0
1666089135255391628,0.0,0.0,0.0,0.0,0.0,0.0
1666089135275510538,0.0,0.0,0.0,0.0,0.0,0.0
1666089135320100507,0.0,0.0,0.0,0.0,0.0,0.013962634015954637
1666089135320119981,0.0,0.0,0.0,0.0,0.0,0.01117010721276371
1666089135364038638,0.0,0.0,0.0,0.0,0.0,0.009948376736367677
1666089135364048311,0.0,0.0,0.0,0.0,0.0,0.0
1666089135416380289,0.0,0.0,0.0,0.0,0.0,0.0
1666089135416395718,0.0,0.0,0.0,0.0,0.0,0.0
1666089135460130857,0.0,0.0,0.0,0.0,0.0,0.0
1666089135460154875,0.0,0.0,0.0,0.0,0.0,0.0
1666089135460163143,0.0,0.0,0.0,0.0,0.0,0.0
1666089135508248887,0.0,0.0,0.0,0.0,0.0,-0.0005235987755982988
1666089135508288755,0.0,0.0,0.0,0.0,0.0,0.0054105206811824215
1666089135515703088,0.0,0.0,0.0,0.0,0.0,0.0022689280275926286
1666089135534943594,0.0,0.0,0.0,0.0,0.0,0.0008726646259971648
1666089135576433101,0.0,0.0,0.0,0.0,0.0,0.0
1666089135576475718,0.002132302208337933,0.0,0.0,0.0,0.0,0.0010471975511965976
1666089135624190851,0.004264604416675866,0.0,0.0,0.0,0.0,0.0031415926535897933
1666089135624242014,-0.002132302208337933,0.0,0.0,0.0,0.0,-0.00017453292519943296
1666089135672328030,-0.002132302208337933,0.0,0.0,0.0,0.0,0.0041887902047863905
1666089135672378771,0.002132302208337933,0.0,0.0,0.0,0.0,0.002617993877991494
1666089135716331198,0.002132302208337933,0.0,0.0,0.0,0.0,0.0036651914291880917
1666089135716412435,0.004264604416675866,0.0,0.0,0.0,0.0,0.0015707963267948967
1666089135760155628,-0.002132302208337933,0.0,0.0,0.0,0.0,0.0010471975511965976
1666089135760174545,-0.004264604416675866,0.0,0.0,0.0,0.0,0.003316125578789226
1666089135760185011,0.0,0.0,0.0,0.0,0.0,-0.0008726646259971648
1666089135808175066,0.002132302208337933,0.0,0.0,0.0,0.0,-0.0020943951023931952
1666089135808206567,0.0,0.0,0.0,0.0,0.0,0.0020943951023931952
1666089135815528218,0.0,0.0,0.0,0.0,0.0,0.0006981317007977319
1666089135836749895,0.002132302208337933,0.0,0.0,0.0,0.0,0.0006981317007977319
1666089135884170057,0.0,0.0,0.0,0.0,0.0,0.003490658503988659
1666089135884190545,0.002132302208337933,0.0,0.0,0.0,0.0,0.0
1666089135928206412,0.0,0.0,0.0,0.0,0.0,0.0005235987755982988
1666089135928233868,0.0,0.0,0.0,0.0,0.0,0.0015707963267948967
1666089135976318235,0.0,0.0,0.0,0.0,0.0,0.0038397243543875246
1666089135976350275,0.0,0.0,0.0,0.0,0.0,0.0013962634015954637
1666089136024301900,0.0,0.0,0.0,0.0,0.0,0.0015707963267948967
1666089136024339390,0.0,0.0,0.0,0.0,0.0,0.0038397243543875246
1666089136024353885,0.0,0.0,0.0,0.0,0.0,0.0
1666089136068039220,0.0,0.0,0.0,0.0,0.0,0.0
1666089136068056180,0.0,0.0,0.0,0.0,0.0,0.0
1666089136075951350,0.0,0.0,0.0,0.0,0.0,0.0
1666089136095640228,0.0,0.0,0.0,0.0,0.0,0.0
1666089136136085024,0.0,0.0,0.0,0.0,0.0,0.0
1666089136136101111,0.0,0.0,0.0,0.0,0.0,0.0
1666089136184091342,0.0,0.0,0.0,0.0,0.0,0.0
1666089136184101002,0.0,0.0,0.0,0.0,0.0,0.0
1666089136232269059,0.0,0.0,0.0,0.0,0.0,0.0
1666089136232318374,0.0,0.0,0.0,0.0,0.0,0.0
1666089136280095003,0.0,0.0,0.0,0.0,0.0,0.0
1666089136280103989,0.0,0.0,0.0,0.0,0.0,0.0
1666089136280129826,0.0,0.0,0.0,0.0,0.0,0.0
1666089136328323244,0.0,0.0,0.0,0.0,0.0,0.0
1666089136328391938,0.0,0.0,0.0,0.0,0.0,0.0
1666089136336747390,0.0,0.0,0.0,0.0,0.0,0.0
1666089136357990272,0.0,0.0,0.0,0.0,0.0,0.0
1666089136404162901,0.0,0.0,0.0,0.0,0.0,0.00017453292519943296
1666089136404202821,0.0,0.0,0.0,0.0,0.0,0.0031415926535897933
1666089136449522585,0.0,0.0,0.0,0.0,0.0,0.008028514559173916
1666089136449563711,0.0,0.0,0.0,0.0,0.0,0.0038397243543875246
1666089136496185405,0.002132302208337933,0.0,0.0,0.0,0.0,-0.0008726646259971648
1666089136496218871,0.0,0.0,0.0,0.0,0.0,0.0013962634015954637
1666089136496233888,0.0,0.0,0.0,0.0,0.0,0.0054105206811824215
1666089136544510291,0.0,0.0,0.0,0.0,0.0,0.0031415926535897933
1666089136544550372,0.0,0.0,0.0,0.0,0.0,-0.0010471975511965976
1666089136555797389,0.0,0.0,0.0,0.0,0.0,0.0
1666089136576160502,0.0,0.0,0.0,0.0,0.0,-0.003316125578789226
1666089136620261976,0.0,0.0,0.0,0.0,0.0,-0.002967059728390361
1666089136620267957,0.0,0.0,0.0,0.0,0.0,0.003490658503988659
1666089136668339483,0.0,0.0,0.0,0.0,0.0,0.0041887902047863905
1666089136668450872,0.0,0.0,0.0,0.0,0.0,0.0022689280275926286
1666089136716277004,0.0,0.0,0.0,0.0,0.0,-0.00034906585039886593
1666089136716320614,0.0,0.0,0.0,0.0,0.0,-0.0024434609527920616
1666089136764138172,0.0,0.0,0.0,0.0,0.0,0.00034906585039886593
1666089136764179551,0.0,0.0,0.0,0.0,0.0,0.006108652381980153
1666089136764196501,0.0,0.0,0.0,0.0,0.0,0.0036651914291880917
1666089136812636028,0.0,0.0,0.0,0.0,0.0,-0.0010471975511965976
1666089136812742699,0.0,0.0,0.0,0.0,0.0,-0.0010471975511965976
1666089136817999394,0.0,0.0,0.0,0.0,0.0,0.0005235987755982988
1666089136836494187,0.0,0.0,0.0,0.0,0.0,0.0013962634015954637
1666089136884670083,0.0,0.0,0.0,0.0,0.0,0.00017453292519943296
1666089136884705227,0.0,0.0,0.0,0.0,0.0,0.0038397243543875246
1666089136932449168,0.0,0.0,0.0,0.0,0.0,0.005585053606381855
1666089136932478011,0.0,0.0,0.0,0.0,0.0,0.0012217304763960308
1666089136980223371,0.0,0.0,0.0,0.0,0.0,0.0
1666089136980256831,0.0,0.0,0.0,0.0,0.0,0.0
1666089136980278382,0.0,0.0,0.0,0.0,0.0,0.0008726646259971648
1666089137028109479,0.0,0.0,0.0,0.0,0.0,-0.0020943951023931952
1666089137028128520,0.0,0.0,0.0,0.0,0.0,-0.0006981317007977319
1666089137036183373,0.0,0.0,0.0,0.0,0.0,0.0006981317007977319
1666089137057331297,0.0,0.0,0.0,0.0,0.0,0.0012217304763960308
1666089137104131141,0.0,0.0,0.0,0.0,0.0,0.005759586531581288
1666089137104144955,0.0,0.0,0.0,0.0,0.0,0.0027925268031909274
1666089137152400270,0.0,0.0,0.0,0.0,0.0,0.0
1666089137152436305,0.0,0.0,0.0,0.0,0.0,0.0036651914291880917
1666089137200047103,0.0,0.0,0.0,0.0,0.0,0.0006981317007977319
1666089137200055293,0.0,0.0,0.0,0.0,0.0,0.0031415926535897933
1666089137200064710,0.0,0.0,0.0,0.0,0.0,0.002967059728390361
1666089137248188526,0.0,0.0,0.0,0.0,0.0,0.003316125578789226
1666089137248220626,0.0,0.0,0.0,0.0,0.0,-0.0006981317007977319
1666089137256248161,0.0,0.0,0.0,0.0,0.0,-0.004363323129985824
1666089137276574391,0.0,0.0,0.0,0.0,0.0,-0.0006981317007977319
1666089137324231413,0.0,0.0,0.0,0.0,0.0,0.0022689280275926286
1666089137324253476,0.0,0.0,0.0,0.0,0.0,-0.0015707963267948967
1666089137372153345,0.0,0.0,0.0,0.0,0.0,-0.0010471975511965976
1666089137372179413,0.0,0.0,0.0,0.0,0.0,0.00017453292519943296
1666089137420040063,0.0,0.0,0.0,0.0,0.0,0.0
1666089137420050786,0.0,0.0,0.0,0.0,0.0,0.0
1666089137420055687,0.0,0.0,0.0,0.0,0.0,0.0
1666089137465113718,0.0,0.0,0.0,0.0,0.0,0.0
1666089137465162341,0.0,0.0,0.0,0.0,0.0,0.0
1666089137476888585,0.0,0.0,0.0,0.0,0.0,0.0
1666089137495979035,0.0,0.0,0.0,0.0,0.0,0.0
1666089137536165424,0.0,0.0,0.0,0.0,0.0,0.0
1666089137584226377,0.0,0.0,0.0,0.0,0.0,0.0
1666089137584259970,0.0,0.0,0.0,0.0,0.0,0.0
1666089137584310997,0.0,0.0,0.0,0.0,0.0,0.0
1666089137632543630,0.0,0.0,0.0,0.0,0.0,0.0
1666089137632555327,0.0,0.0,0.0,0.0,0.0,0.0
1666089137636049043,0.0,0.0,0.0,0.0,0.0,0.0
1666089137655865171,0.0,0.0,0.0,0.0,0.0,0.0
1666089137700109459,0.0,0.0,0.0,0.0,0.0,0.0
1666089137700123735,0.0,0.0,0.0,0.0,0.0,0.0
1666089137744441014,0.0,0.0,0.0,0.0,0.0,0.0
1666089137744514032,0.0,0.0,0.0,0.0,0.0,0.0
1666089137792106859,0.0,0.0,0.0,0.0,0.0,0.0
1666089137792125498,0.0,0.0,0.0,0.0,0.0,0.0
1666089137840192305,0.0,0.0,0.0,0.0,0.0,0.0
1666089137840240432,0.0,0.0,0.0,0.0,0.0,-0.003490658503988659
1666089137840261284,0.0,0.0,0.0,0.0,0.0,-0.0022689280275926286
1666089137888368925,0.0,0.0,0.0,0.0,0.0,0.0006981317007977319
1666089137888421446,0.0,0.0,0.0,0.0,0.0,0.004014257279586958
1666089137896018933,0.0,0.0,0.0,0.0,0.0,0.003490658503988659
1666089137916934989,-0.002132302208337933,0.0,0.0,0.0,0.0,0.003316125578789226
1666089137964186091,0.0,0.0,0.0,0.0,0.0,0.0020943951023931952
1666089137964207285,0.0,0.0,0.0,0.0,0.0,-0.0031415926535897933
1666089138008434148,0.0,0.0,0.0,0.0,0.0,-0.0005235987755982988
1666089138008487264,0.0,0.0,0.0,0.0,0.0,-0.0006981317007977319
1666089138056110282,0.0,0.0,0.0,0.0,0.0,0.00017453292519943296
1666089138056125657,-0.004264604416675866,0.0,0.0,0.0,0.0,0.0017453292519943296
1666089138100411510,-0.002132302208337933,0.0,0.0,0.0,0.0,0.0038397243543875246
1666089138100456566,0.004264604416675866,0.0,0.0,0.0,0.0,0.0038397243543875246
1666089138100483021,0.002132302208337933,0.0,0.0,0.0,0.0,-0.0022689280275926286
1666089138144355249,0.0,0.0,0.0,0.0,0.0,-0.0027925268031909274
1666089138144401370,0.0,0.0,0.0,0.0,0.0,0.00034906585039886593
1666089138157029042,0.002132302208337933,0.0,0.0,0.0,0.0,0.00034906585039886593
1666089138180111241,0.0,0.0,0.0,0.0,0.0,-0.0027925268031909274
1666089138220157612,0.0,0.0,0.0,0.0,0.0,-0.0008726646259971648
1666089138220184085,-0.002132302208337933,0.0,0.0,0.0,0.0,0.00017453292519943296
1666089138264479045,0.0,0.0,0.0,0.0,0.0,-0.0012217304763960308
1666089138264527130,0.0,0.0,0.0,0.0,0.0,-0.004886921905584123
1666089138308174603,0.0,0.0,0.0,0.0,0.0,-0.0008726646259971648
1666089138308195909,0.0,0.0,0.0,0.0,0.0,0.0020943951023931952
1666089138352120942,0.002132302208337933,0.0,0.0,0.0,0.0,0.0017453292519943296
1666089138352149056,-0.002132302208337933,0.0,0.0,0.0,0.0,0.0005235987755982988
1666089138396266820,0.0,0.0,0.0,0.0,0.0,-0.0013962634015954637
1666089138396299705,0.0,0.0,0.0,0.0,0.0,-0.00034906585039886593
1666089138440500396,0.0,0.0,0.0,0.0,0.0,-0.0020943951023931952
1666089138440573368,-0.002132302208337933,0.0,0.0,0.0,0.0,-0.0013962634015954637
1666089138440634662,0.0,0.0,0.0,0.0,0.0,-0.002967059728390361
1666089138484111885,0.0,0.0,0.0,0.0,0.0,-0.00017453292519943296
1666089138484126125,0.0,0.0,0.0,0.0,0.0,0.0010471975511965976
1666089138496956398,0.0,0.0,0.0,0.0,0.0,-0.0005235987755982988
1666089138517728117,0.0,0.0,0.0,0.0,0.0,-0.003316125578789226
1666089138560590929,0.0,0.0,0.0,0.0,0.0,-0.0020943951023931952
1666089138560670424,0.0,0.0,0.0,0.0,0.0,-0.0019198621771937623
1666089138604121211,0.0,0.0,0.0,0.0,0.0,-0.0006981317007977319
1666089138604138368,0.0,0.0,0.0,0.0,0.0,-0.0013962634015954637
1666089138652100558,0.0,0.0,0.0,0.0,0.0,-0.0027925268031909274
1666089138652127396,-0.002132302208337933,0.0,0.0,0.0,0.0,-0.004363323129985824
1666089138696223638,0.0,0.0,0.0,0.0,0.0,0.0010471975511965976
1666089138696260098,0.0,0.0,0.0,0.0,0.0,0.00017453292519943296
1666089138744226055,0.0,0.0,0.0,0.0,0.0,-0.0020943951023931952
1666089138744283340,0.0,0.0,0.0,0.0,0.0,-0.00017453292519943296
1666089138744307618,0.002132302208337933,0.0,0.0,0.0,0.0,0.00034906585039886593
1666089138792202857,0.0,0.0,0.0,0.0,0.0,0.0006981317007977319
1666089138792231920,0.0,0.0,0.0,0.0,0.0,0.0020943951023931952
1666089138797101002,0.0,0.0,0.0,0.0,0.0,-0.0010471975511965976
1666089138816891769,0.0,0.0,0.0,0.0,0.0,-0.0019198621771937623
1666089138864077804,0.0,0.0,0.0,0.0,0.0,0.0006981317007977319
1666089138864093972,0.0,0.0,0.0,0.0,0.0,0.00017453292519943296
1666089138908131347,0.0,0.0,0.0,0.0,0.0,0.003490658503988659
1666089138908152291,-0.002132302208337933,0.0,0.0,0.0,0.0,0.0024434609527920616
1666089138952994911,0.0,0.0,0.0,0.0,0.0,-0.0010471975511965976
1666089138953041661,0.0,0.0,0.0,0.0,0.0,0.0
1666089138996309452,0.0,0.0,0.0,0.0,0.0,0.003316125578789226
1666089138996681933,0.0,0.0,0.0,0.0,0.0,0.0010471975511965976
1666089139040139371,0.002132302208337933,0.0,0.0,0.0,0.0,-0.00017453292519943296
1666089139040169104,-0.002132302208337933,0.0,0.0,0.0,0.0,0.00034906585039886593
1666089139040191919,0.0,0.0,0.0,0.0,0.0,0.0012217304763960308
1666089139084176331,-0.002132302208337933,0.0,0.0,0.0,0.0,0.0005235987755982988
1666089139084207417,0.0,0.0,0.0,0.0,0.0,-0.002967059728390361
1666089139097823130,0.0,0.0,0.0,0.0,0.0,-0.007853981633974483
1666089139117566951,0.0,0.0,0.0,0.0,0.0,-0.010471975511965976
1666089139164184198,-0.004264604416675866,0.0,0.0,0.0,0.0,-0.018500490071139894
1666089139164214897,0.0,0.0,0.0,0.0,0.0,-0.017278759594743863
1666089139208503395,0.0,0.0,0.0,0.0,0.0,-0.012217304763960306
1666089139208541620,0.006396906625013799,0.0,0.0,0.0,0.0,-0.013962634015954637
1666089139252160383,0.004264604416675866,0.0,0.0,0.0,0.0,-0.023387411976724018
1666089139252182239,0.0,0.0,0.0,0.0,0.0,-0.027401669256310976
1666089139300108577,0.006396906625013799,0.0,0.0,0.0,0.0,-0.028797932657906436
1666089139300131510,0.008529208833351731,0.0,0.0,0.0,0.0,-0.0317649923862968
1666089139300138223,0.027719928708393127,0.0,0.0,0.0,0.0,-0.02391101075232232
1666089139344131166,0.017058417666703463,0.0,0.0,0.0,0.0,-0.030368728984701335
1666089139344153635,0.02345532429171726,0.0,0.0,0.0,0.0,-0.046774823953448036
1666089139357386620,0.027719928708393127,0.0,0.0,0.0,0.0,-0.060388392119003806
1666089139378045429,0.03198453312506899,0.0,0.0,0.0,0.0,-0.06876597252857658
1666089139420124249,0.044778346375096596,0.0,0.0,0.0,0.0,-0.07871434926494426
1666089139420148251,0.034116835333406925,0.0,0.0,0.0,0.0,-0.09477137838329208
1666089139468582004,0.05330755520844832,0.0,0.0,0.0,0.0,-0.11344640137963143
1666089139468654266,0.059704461833462126,0.0,0.0,0.0,0.0,-0.10995574287564275
1666089139512178871,0.05757215962512419,0.0,0.0,0.0,0.0,-0.10873401239924674
1666089139512203560,0.0703659728751518,0.0,0.0,0.0,0.0,-0.11047934165124106
1666089139560058632,0.06823367066681385,0.0,0.0,0.0,0.0,-0.11431906600562858
1666089139560071864,0.08955669275019319,0.0,0.0,0.0,0.0,-0.1223475805648025
1666089139560080690,0.07889518170850353,0.0,0.0,0.0,0.0,-0.12566370614359174
1666089139604107049,0.08529208833351731,0.0,0.0,0.0,0.0,-0.12060225131280816
1666089139604125259,0.09808590158354492,0.0,0.0,0.0,0.0,-0.11676252695842064
1666089139617765178,0.09595359937520698,0.0,0.0,0.0,0.0,-0.11623892818282235
1666089139637140803,0.1108797148335725,0.0,0.0,0.0,0.0,-0.1059414855960558
1666089139684374994,0.10661511041689664,0.0,0.0,0.0,0.0,-0.09128071987930345
1666089139684399214,0.10235050600022079,0.0,0.0,0.0,0.0,-0.07871434926494426
1666089139728204581,0.11727662145858632,0.0,0.0,0.0,0.0,-0.07557275661135446
1666089139728231019,0.12580583029193804,0.0,0.0,0.0,0.0,-0.07452555906015787
1666089139772293647,0.1407319457503036,0.0,0.0,0.0,0.0,-0.08517206749732328
1666089139772322195,0.12793813250027597,0.0,0.0,0.0,0.0,-0.07330382858376185
1666089139816203402,0.13433503912528977,0.0,0.0,0.0,0.0,-0.06457718232379019
1666089139816238259,0.1492611545836553,0.0,0.0,0.0,0.0,-0.08464846872172498
1666089139860480746,0.14286424795864153,0.0,0.0,0.0,0.0,-0.09005898940290741
1666089139860562647,0.16205496783368292,0.0,0.0,0.0,0.0,-0.0651007810993885
1666089139860584806,0.159922665625345,0.0,0.0,0.0,0.0,-0.06230825429619756
1666089139904085318,0.15352575900033116,0.0,0.0,0.0,0.0,-0.06841690667817771
1666089139904102018,0.17911338550038639,0.0,0.0,0.0,0.0,-0.0635299847725936
1666089139917287367,0.17911338550038639,0.0,0.0,0.0,0.0,-0.054105206811824215
1666089139938676963,0.1876425943337381,0.0,0.0,0.0,0.0,-0.04782202150464464
1666089139980679248,0.18337798991706222,0.0,0.0,0.0,0.0,-0.04136430327226561
1666089139980768364,0.17698108329204845,0.0,0.0,0.0,0.0,-0.05270894341022875
1666089140028212522,0.2004364075837657,0.0,0.0,0.0,0.0,-0.060388392119003806
1666089140028240556,0.20256870979210362,0.0,0.0,0.0,0.0,-0.062482787221396996
1666089140076497848,0.21749482525046915,0.0,0.0,0.0,0.0,-0.060388392119003806
1666089140076583647,0.20896561641711744,0.0,0.0,0.0,0.0,-0.07400196028455958
1666089140120421138,0.20470101200044158,0.0,0.0,0.0,0.0,-0.08220500776893291
1666089140120457305,0.2196271274588071,0.0,0.0,0.0,0.0,-0.08325220532012952
1666089140120670799,0.23028863850049677,0.0,0.0,0.0,0.0,-0.08621926504851989
1666089140164121767,0.24308245175052437,0.0,0.0,0.0,0.0,-0.07435102613495843
1666089140164138882,0.24308245175052437,0.0,0.0,0.0,0.0,-0.08185594191853407
1666089140180242305,0.22815633629215884,0.0,0.0,0.0,0.0,-0.07051130178057091
1666089140198408071,0.24947935837553817,0.0,0.0,0.0,0.0,-0.06021385919380437
1666089140244067210,0.25587626500055194,0.0,0.0,0.0,0.0,-0.05044001538263612
1666089140244097144,0.2771992870839313,0.0,0.0,0.0,0.0,-0.0439822971502571
1666089140288122605,0.26867007825057954,0.0,0.0,0.0,0.0,-0.03787364476827695
1666089140288149732,0.2516116605838761,0.0,0.0,0.0,0.0,-0.031241393610698498
1666089140332134874,0.27080238045891747,0.0,0.0,0.0,0.0,-0.028274333882308142
1666089140332149371,0.28572849591728305,0.0,0.0,0.0,0.0,-0.032463124087094536
1666089140376428984,0.30278691358398646,0.0,0.0,0.0,0.0,-0.03508111796508602
1666089140376442443,0.2963900069589727,0.0,0.0,0.0,0.0,-0.044331363000655974
1666089140420084348,0.2793315892922692,0.0,0.0,0.0,0.0,-0.0497418836818384
1666089140420100885,0.2985223091673106,0.0,0.0,0.0,0.0,-0.0486946861306418
1666089140420106860,0.317713029042352,0.0,0.0,0.0,0.0,-0.043807764225057666
1666089140464114868,0.32197763345902786,0.0,0.0,0.0,0.0,-0.03752457891787808
1666089140464137697,0.31984533125069,0.0,0.0,0.0,0.0,-0.03717551306747922
1666089140479218412,0.3134484246256761,0.0,0.0,0.0,0.0,-0.04293509959906051
1666089140498579699,0.32410993566736584,0.0,0.0,0.0,0.0,-0.03822271061867582
1666089140540263166,0.3369037489173934,0.0,0.0,0.0,0.0,-0.020594885173533087
1666089140540297878,0.3539621665840969,0.0,0.0,0.0,0.0,-0.014835298641951801
1666089140588233708,0.3539621665840969,0.0,0.0,0.0,0.0,-0.025132741228718346
1666089140588263606,0.3369037489173934,0.0,0.0,0.0,0.0,-0.02775073510670984
1666089140632160712,0.34756525995908305,0.0,0.0,0.0,0.0,-0.02076941809873252
1666089140632180208,0.36035907320911065,0.0,0.0,0.0,0.0,-0.017104226669544427
1666089140676077651,0.37741749087581417,0.0,0.0,0.0,0.0,-0.017278759594743863
1666089140676093712,0.38168209529249003,0.0,0.0,0.0,0.0,-0.022514747350726852
1666089140720183919,0.36888828204246243,0.0,0.0,0.0,0.0,-0.02129301687433082
1666089140720217413,0.37954979308415204,0.0,0.0,0.0,0.0,-0.024609142453120045
1666089140720490000,0.38168209529249003,0.0,0.0,0.0,0.0,-0.032114058236695664
1666089140765985838,0.39874051295919344,0.0,0.0,0.0,0.0,-0.03944444109507184
1666089140766658000,0.39447590854251763,0.0,0.0,0.0,0.0,-0.04345869837465881
1666089140778887008,0.3902113041258417,0.0,0.0,0.0,0.0,-0.047123889803846894
1666089140798560339,0.40513741958420724,0.0,0.0,0.0,0.0,-0.040491638646268445
1666089140840228100,0.42219583725091075,0.0,0.0,0.0,0.0,-0.027052603405912107
1666089140840263963,0.42646044166758657,0.0,0.0,0.0,0.0,-0.032637657012293965
1666089140884098582,0.4285927438759245,0.0,0.0,0.0,0.0,-0.02199114857512855
1666089140884119174,0.4179312328342349,0.0,0.0,0.0,0.0,-0.017627825445142728
1666089140928178716,0.4285927438759245,0.0,0.0,0.0,0.0,-0.023561944901923447
1666089140928212384,0.445651161542628,0.0,0.0,0.0,0.0,-0.02757620218151041
1666089140972326511,0.45418037037597975,0.0,0.0,0.0,0.0,-0.02809980095710871
1666089140972353194,0.44138655712595215,0.0,0.0,0.0,0.0,-0.030543261909900768
1666089141016074987,0.45204806816764176,0.0,0.0,0.0,0.0,-0.030019663134302467
1666089141016092778,0.4627095792093315,0.0,0.0,0.0,0.0,-0.032637657012293965
1666089141060350147,0.4755033924593591,0.0,0.0,0.0,0.0,-0.02234021442552742
1666089141060403647,0.47976799687603494,0.0,0.0,0.0,0.0,-0.01815142422074103
1666089141060446122,0.4691064858343453,0.0,0.0,0.0,0.0,-0.027401669256310976
1666089141104209543,0.47976799687603494,0.0,0.0,0.0,0.0,-0.02530727415391778
1666089141104243258,0.4819002990843728,0.0,0.0,0.0,0.0,-0.014486232791552934
1666089141121573169,0.49682641454273835,0.0,0.0,0.0,0.0,-0.009599310885968814
1666089141138806810,0.49256181012606254,0.0,0.0,0.0,0.0,-0.013439035240356337
1666089141180158042,0.4882972057093866,0.0,0.0,0.0,0.0,-0.015009831567151233
1666089141180183895,0.4840326012927108,0.0,0.0,0.0,0.0,-0.0041887902047863905
1666089141224343603,0.477635694667697,0.0,0.0,0.0,0.0,-0.0027925268031909274
1666089141224396049,0.49256181012606254,0.0,0.0,0.0,0.0,-0.008028514559173916
1666089141268142943,0.49042950791772455,0.0,0.0,0.0,0.0,-0.013788101090755204
1666089141268156276,0.49042950791772455,0.0,0.0,0.0,0.0,-0.009075712110370514
1666089141312495517,0.49895871675107634,0.0,0.0,0.0,0.0,-0.021118483949131385
1666089141312543529,0.4882972057093866,0.0,0.0,0.0,0.0,-0.01937315469713706
1666089141356107996,0.49682641454273835,0.0,0.0,0.0,0.0,-0.012740903539558606
1666089141356122386,0.49469411233440047,0.0,0.0,0.0,0.0,-0.009075712110370514
1666089141400518540,0.49042950791772455,0.0,0.0,0.0,0.0,-0.0022689280275926286
1666089141400591585,0.49042950791772455,0.0,0.0,0.0,0.0,-0.004537856055185257
1666089141400616912,0.4840326012927108,0.0,0.0,0.0,0.0,-0.01658062789394613
1666089141444286145,0.49469411233440047,0.0,0.0,0.0,0.0,-0.024085543677521744
1666089141444318680,0.49042950791772455,0.0,0.0,0.0,0.0,-0.013962634015954637
1666089141459598098,0.4882972057093866,0.0,0.0,0.0,0.0,-0.013439035240356337
1666089141478952435,0.49042950791772455,0.0,0.0,0.0,0.0,-0.019896753472735354
1666089141520295580,0.49256181012606254,0.0,0.0,0.0,0.0,-0.01308996938995747
1666089141520313116,0.48616490350104874,0.0,0.0,0.0,0.0,-0.009948376736367677
1666089141568070300,0.49042950791772455,0.0,0.0,0.0,0.0,-0.016231562043547268
1666089141568085259,0.49042950791772455,0.0,0.0,0.0,0.0,-0.01658062789394613
1666089141612345901,0.49256181012606254,0.0,0.0,0.0,0.0,-0.005759586531581288
1666089141612389960,0.4755033924593591,0.0,0.0,0.0,0.0,0.0015707963267948967
1666089141660117459,0.46484188141766936,0.0,0.0,0.0,0.0,-0.008552113334772213
1666089141660144412,0.4072697217925452,0.0,0.0,0.0,0.0,-0.0027925268031909274
1666089141660164002,0.4008728151675314,0.0,0.0,0.0,0.0,0.010471975511965976
1666089141704080527,0.41153432620922104,0.0,0.0,0.0,0.0,-0.006806784082777885
1666089141704095088,0.4179312328342349,0.0,0.0,0.0,0.0,-0.015009831567151233
1666089141719974795,0.41579893062589696,0.0,0.0,0.0,0.0,-0.01308996938995747
1666089141739689846,0.42219583725091075,0.0,0.0,0.0,0.0,-0.005759586531581288
1666089141780315100,0.41153432620922104,0.0,0.0,0.0,0.0,-0.007853981633974483
1666089141824128218,0.41366662841755897,0.0,0.0,0.0,0.0,-0.02495820830351891
1666089141824153244,0.40940202400088316,0.0,0.0,0.0,0.0,-0.024260076602721177
1666089141824189234,0.40940202400088316,0.0,0.0,0.0,0.0,-0.0017453292519943296
1666089141868198649,0.4307250460842625,0.0,0.0,0.0,0.0,-0.0020943951023931952
1666089141868232182,0.42219583725091075,0.0,0.0,0.0,0.0,-0.02129301687433082
1666089141880186828,0.42006353504257277,0.0,0.0,0.0,0.0,-0.03106686068549907
1666089141898490618,0.4285927438759245,0.0,0.0,0.0,0.0,-0.04153883619746504
1666089141940174324,0.4243281394592487,0.0,0.0,0.0,0.0,-0.03717551306747922
1666089141940203456,0.4328573482926004,0.0,0.0,0.0,0.0,-0.029321531433504733
1666089141984569847,0.4285927438759245,0.0,0.0,0.0,0.0,-0.03892084231947355
1666089141984618709,0.4285927438759245,0.0,0.0,0.0,0.0,-0.05794493116621174
1666089142028413393,0.44351885933429,0.0,0.0,0.0,0.0,-0.061261056745000965
1666089142028459226,0.44351885933429,0.0,0.0,0.0,0.0,-0.05166174585903216
1666089142072094634,0.45204806816764176,0.0,0.0,0.0,0.0,-0.03752457891787808
1666089142072113460,0.44351885933429,0.0,0.0,0.0,0.0,-0.0317649923862968
1666089142116543545,0.44138655712595215,0.0,0.0,0.0,0.0,-0.0317649923862968
1666089142116601782,0.4499157659593038,0.0,0.0,0.0,0.0,-0.030194196059501903
1666089142160181916,0.44138655712595215,0.0,0.0,0.0,0.0,-0.01815142422074103
1666089142160209961,0.445651161542628,0.0,0.0,0.0,0.0,-0.006981317007977318
1666089142160224628,0.4499157659593038,0.0,0.0,0.0,0.0,-0.0143116998663535
1666089142204087742,0.43712195270927623,0.0,0.0,0.0,0.0,-0.024260076602721177
1666089142204096404,0.3539621665840969,0.0,0.0,0.0,0.0,-0.015009831567151233
1666089142219841822,0.36249137541744864,0.0,0.0,0.0,0.0,-0.017453292519943295
1666089142240895481,0.3966082107508555,0.0,0.0,0.0,0.0,-0.030717794835100197
1666089142284192585,0.4008728151675314,0.0,0.0,0.0,0.0,-0.061959188445798695
1666089142284218014,0.37741749087581417,0.0,0.0,0.0,0.0,-0.07225663103256524
1666089142332475630,0.3646236776257865,0.0,0.0,0.0,0.0,-0.034208453339088854
1666089142332556660,0.3752851886674762,0.0,0.0,0.0,0.0,-0.013264502315156903
1666089142376129551,0.40513741958420724,0.0,0.0,0.0,0.0,-0.05113814708343386
1666089142376157118,0.3902113041258417,0.0,0.0,0.0,0.0,-0.03700098014227979
1666089142420047944,0.37954979308415204,0.0,0.0,0.0,0.0,-0.0017453292519943296
1666089142420058623,0.39447590854251763,0.0,0.0,0.0,0.0,-0.005585053606381855
1666089142420064057,0.3923436063341797,0.0,0.0,0.0,0.0,-0.02600540585471551
1666089142464505495,0.4072697217925452,0.0,0.0,0.0,0.0,-0.034732052114687155
1666089142464559861,0.4008728151675314,0.0,0.0,0.0,0.0,-0.031939525311496235
1666089142479302567,0.39447590854251763,0.0,0.0,0.0,0.0,-0.043807764225057666
1666089142500297343,0.4072697217925452,0.0,0.0,0.0,0.0,-0.05881759579220891
1666089142544054489,0.41153432620922104,0.0,0.0,0.0,0.0,-0.06806784082777885
1666089142544066568,0.39874051295919344,0.0,0.0,0.0,0.0,-0.07853981633974483
1666089142592069096,0.3966082107508555,0.0,0.0,0.0,0.0,-0.10210176124166827
1666089142592083383,0.4008728151675314,0.0,0.0,0.0,0.0,-0.12740903539558604
1666089142636396384,0.3966082107508555,0.0,0.0,0.0,0.0,-0.13212142437597077
1666089142636451778,0.3902113041258417,0.0,0.0,0.0,0.0,-0.14294246573833558
1666089142684114601,0.36888828204246243,0.0,0.0,0.0,0.0,-0.16441001553786583
1666089142684127720,0.3838143975008279,0.0,0.0,0.0,0.0,-0.21642082724729686
1666089142684146257,0.3923436063341797,0.0,0.0,0.0,0.0,-0.2659881780039358
1666089142732114742,0.38807900191750383,0.0,0.0,0.0,0.0,-0.3152064629101759
1666089142732135918,0.38594669970916584,0.0,0.0,0.0,0.0,-0.33300882128051806
1666089142739145128,0.39874051295919344,0.0,0.0,0.0,0.0,-0.3755948550291797
1666089142759410344,0.3902113041258417,0.0,0.0,0.0,0.0,-0.4220206131322289
1666089142800597178,0.3966082107508555,0.0,0.0,0.0,0.0,-0.4698426346368736
1666089142848506019,0.4008728151675314,0.0,0.0,0.0,0.0,-0.5398303376418461
1666089142848586136,0.39447590854251763,0.0,0.0,0.0,0.0,-0.5557128338349945
1666089142848625637,0.40940202400088316,0.0,0.0,0.0,0.0,-0.5900958200992829
1666089142892080523,0.40940202400088316,0.0,0.0,0.0,0.0,-0.6295402611943547
1666089142892131317,0.40940202400088316,0.0,0.0,0.0,0.0,-0.6623524511318482
1666089142899378379,0.42646044166758657,0.0,0.0,0.0,0.0,-0.6845181326321761
1666089142919755287,0.42646044166758657,0.0,0.0,0.0,0.0,-0.6812020070533868
1666089142960198800,0.44138655712595215,0.0,0.0,0.0,0.0,-0.6843435997069766
1666089143004048470,0.44351885933429,0.0,0.0,0.0,0.0,-0.7051130178057091
1666089143004056151,0.44138655712595215,0.0,0.0,0.0,0.0,-0.6935938447425466
1666089143004074436,0.44351885933429,0.0,0.0,0.0,0.0,-0.6997024971245268
1666089143048464613,0.4563126725843177,0.0,0.0,0.0,0.0,-0.6918485154905523
1666089143048499592,0.45204806816764176,0.0,0.0,0.0,0.0,-0.6892305216125607
1666089143059580981,0.45204806816764176,0.0,0.0,0.0,0.0,-0.7129669994396837
1666089143078961836,0.445651161542628,0.0,0.0,0.0,0.0,-0.7079055446089001
1666089143120568834,0.45418037037597975,0.0,0.0,0.0,0.0,-0.7035422214789142
1666089143164371880,0.4691064858343453,0.0,0.0,0.0,0.0,-0.6902777191637572
1666089143164412053,0.45844497479265556,0.0,0.0,0.0,0.0,-0.6859143960337715
1666089143164494591,0.45844497479265556,0.0,0.0,0.0,0.0,-0.7000515629749255
1666089143208099876,0.45844497479265556,0.0,0.0,0.0,0.0,-0.6998770300497261
1666089143208113638,0.46057727700099355,0.0,0.0,0.0,0.0,-0.696211838620538
1666089143219128730,0.46057727700099355,0.0,0.0,0.0,0.0,-0.6970845032465351
1666089143240545250,0.41153432620922104,0.0,0.0,0.0,0.0,-0.6923721142661505
1666089143288132949,0.40300511737586936,0.0,0.0,0.0,0.0,-0.7222172444752537
1666089143288155745,0.40513741958420724,0.0,0.0,0.0,0.0,-0.7305948248848263
1666089143332168117,0.4179312328342349,0.0,0.0,0.0,0.0,-0.7311184236604247
1666089143332181320,0.41153432620922104,0.0,0.0,0.0,0.0,-0.7161085920932735
1666089143376253874,0.3966082107508555,0.0,0.0,0.0,0.0,-0.6621779182066486
1666089143376291023,0.39447590854251763,0.0,0.0,0.0,0.0,-0.6429792964347111
1666089143420194449,0.40300511737586936,0.0,0.0,0.0,0.0,-0.6347762489503376
1666089143420218188,0.41579893062589696,0.0,0.0,0.0,0.0,-0.5871287603708925
1666089143420240402,0.40940202400088316,0.0,0.0,0.0,0.0,-0.5262167694762903
1666089143464095206,0.40513741958420724,0.0,0.0,0.0,0.0,-0.48415433450322704
1666089143464115528,0.40940202400088316,0.0,0.0,0.0,0.0,-0.46006879082570523
1666089143480017729,0.42646044166758657,0.0,0.0,0.0,0.0,-0.44261549830576197
1666089143500112797,0.42219583725091075,0.0,0.0,0.0,0.0,-0.4237659423842232
1666089143544100996,0.41153432620922104,0.0,0.0,0.0,0.0,-0.41102503884466457
1666089143544148845,0.42646044166758657,0.0,0.0,0.0,0.0,-0.41050144006906625
1666089143590220655,0.42646044166758657,0.0,0.0,0.0,0.0,-0.39776053652950766
1666089143590414966,0.44138655712595215,0.0,0.0,0.0,0.0,-0.37699111843077515
1666089143632190870,0.45204806816764176,0.0,0.0,0.0,0.0,-0.37960911230876665
1666089143632248057,0.44778346375096595,0.0,0.0,0.0,0.0,-0.39165188414752755
1666089143676083135,0.4691064858343453,0.0,0.0,0.0,0.0,-0.40020399748229973
1666089143676099910,0.4627095792093315,0.0,0.0,0.0,0.0,-0.39426987802551905
1666089143720225312,0.4669741836260073,0.0,0.0,0.0,0.0,-0.36966073557239904
1666089143720253925,0.4669741836260073,0.0,0.0,0.0,0.0,-0.36302848441482055
1666089143768270619,0.4669741836260073,0.0,0.0,0.0,0.0,-0.3762929867299774
1666089143768297516,0.46484188141766936,0.0,0.0,0.0,0.0,-0.3368485456349056
1666089143768323877,0.46484188141766936,0.0,0.0,0.0,0.0,-0.2876302607286655
1666089143816146127,0.4691064858343453,0.0,0.0,0.0,0.0,-0.2621484536495483
1666089143816169440,0.477635694667697,0.0,0.0,0.0,0.0,-0.27174776453551713
1666089143819828548,0.4819002990843728,0.0,0.0,0.0,0.0,-0.2675589743307307
1666089143840286289,0.49042950791772455,0.0,0.0,0.0,0.0,-0.2303834612632515
1666089143888291178,0.49469411233440047,0.0,0.0,0.0,0.0,-0.20874137853852182
1666089143888387207,0.5010910189594143,0.0,0.0,0.0,0.0,-0.2071705822117269
1666089143932455335,0.5032233211677521,0.0,0.0,0.0,0.0,-0.20071286397934787
1666089143932512268,0.5053556233760901,0.0,0.0,0.0,0.0,-0.17802358370342158
1666089143976094792,0.5160171344177797,0.0,0.0,0.0,0.0,-0.1647590813882647
1666089143976155637,0.5138848322094418,0.0,0.0,0.0,0.0,-0.16458454846306525
1666089144020188158,0.507487925584428,0.0,0.0,0.0,0.0,-0.17348572764823633
1666089144020223538,0.5117525300011039,0.0,0.0,0.0,0.0,-0.1616174887346749
1666089144064808589,0.5288109476678073,0.0,0.0,0.0,0.0,-0.12915436464758037
1666089144064841914,0.5224140410427935,0.0,0.0,0.0,0.0,-0.1153662635568252
1666089144064860095,0.5224140410427935,0.0,0.0,0.0,0.0,-0.10210176124166827
1666089144108382762,0.5138848322094418,0.0,0.0,0.0,0.0,-0.07661995416255106
1666089144108439272,0.5416047609178349,0.0,0.0,0.0,0.0,-0.05078908123303499
1666089144120769690,0.5501339697511867,0.0,0.0,0.0,0.0,-0.04258603374866164
1666089144140357284,0.5480016675428488,0.0,0.0,0.0,0.0,-0.0291469985083053
1666089144184226201,0.5309432498761453,0.0,0.0,0.0,0.0,-0.009075712110370514
