%time,field.linear.x,field.linear.y,field.linear.z,field.angular.x,field.angular.y,field.angular.z
1666089132723111398,0.4776013791561126,0.0,0.0,0.0,0.0,-1.2217304763960313
1666089132815760236,0.4884234666824341,0.0,0.0,0.0,0.0,-1.2217304763960313
1666089132900639742,0.4482821226119995,0.0,0.0,0.0,0.0,-1.2217304763960313
1666089133050812923,0.4101621210575104,0.0,0.0,0.0,0.0,-1.3962634015954642
1666089133074110154,0.3939523100852966,0.0,0.0,0.0,0.0,-1.2217304763960313
1666089133149406638,0.39947089552879333,0.0,0.0,0.0,0.0,-1.3962634015954642
1666089133250249002,0.4006288647651672,0.0,0.0,0.0,0.0,-1.2217304763960313
1666089133284565285,0.25833100080490107,0.0,0.0,0.0,0.0,-1.2217304763960313
1666089133355010113,0.39654931426048273,0.0,0.0,0.0,0.0,-1.3962634015954642
1666089133378072727,0.39569637179374695,0.0,0.0,0.0,0.0,-1.3962634015954642
1666089133463879489,0.24101758003234863,0.0,0.0,0.0,0.0,-1.2217304763960313
1666089133543474752,0.38235157728195185,0.0,0.0,0.0,0.0,-1.3962634015954642
1666089133636026980,0.37544122338294983,0.0,0.0,0.0,0.0,-1.3962634015954642
1666089133724341254,0.36986321210861206,0.0,0.0,0.0,0.0,-1.3962634015954642
1666089133800917098,0.36827483773231506,0.0,0.0,0.0,0.0,-1.3962634015954642
1666089133893203307,0.37024787068367,0.0,0.0,0.0,0.0,-1.3962634015954642
1666089133978493923,0.2165645807981491,0.0,0.0,0.0,0.0,-1.2217304763960313
1666089134079449353,0.21652446687221527,0.0,0.0,0.0,0.0,-1.2217304763960313
1666089134188543094,0.36894422769546503,0.0,0.0,0.0,0.0,-1.2217304763960313
1666089134316753809,0.0,0.0,0.0,0.0,0.0,-0.8726646259971653
1666089134379341326,0.0,0.0,0.0,0.0,0.0,-0.7621497063529247
1666089134528903021,0.0,0.0,0.0,0.0,0.0,-0.6064523343859112
1666089134577032250,0.0,0.0,0.0,0.0,0.0,-0.49150338133723354
1666089134625314205,0.0,0.0,0.0,0.0,0.0,-0.40050516877226117
1666089134702297104,0.0,0.0,0.0,0.0,0.0,-0.3048019556968594
1666089134793962928,0.0,0.0,0.0,0.0,0.0,-0.17453292519943345
1666089134885140736,0.0,0.0,0.0,0.0,0.0,-4.996003610813204e-16
1666089134961280150,0.0,0.0,0.0,0.0,0.0,-4.996003610813204e-16
1666089135052775449,0.0,0.0,0.0,0.0,0.0,-4.996003610813204e-16
1666089135102659700,0.0,0.0,0.0,0.0,0.0,-4.996003610813204e-16
1666089135158086347,0.0,0.0,0.0,0.0,0.0,-4.996003610813204e-16
1666089135221243007,0.0,0.0,0.0,0.0,0.0,-4.996003610813204e-16
1666089135406300069,0.0,0.0,0.0,0.0,0.0,0.17453292519943245
1666089135451255449,0.0,0.0,0.0,0.0,0.0,0.17453292519943245
1666089135478667367,0.0,0.0,0.0,0.0,0.0,0.17453292519943245
1666089135568807459,0.0,0.0,0.0,0.0,0.0,0.17453292519943245
1666089135685087149,0.0,0.0,0.0,0.0,0.0,0.17453292519943245
1666089135729024289,0.0,0.0,0.0,0.0,0.0,0.17453292519943245
1666089135825242128,0.0,0.0,0.0,0.0,0.0,0.17453292519943245
1666089135914022323,0.0,0.0,0.0,0.0,0.0,-4.996003610813204e-16
1666089135945857098,0.0,0.0,0.0,0.0,0.0,-4.996003610813204e-16
1666089135993240477,0.0,0.0,0.0,0.0,0.0,-4.996003610813204e-16
1666089136085548303,0.0,0.0,0.0,0.0,0.0,-4.996003610813204e-16
1666089136122447199,0.0,0.0,0.0,0.0,0.0,-4.996003610813204e-16
1666089136211025124,0.0,0.0,0.0,0.0,0.0,-4.996003610813204e-16
1666089136301617668,0.0,0.0,0.0,0.0,0.0,0.17453292519943245
1666089136416793056,0.0,0.0,0.0,0.0,0.0,0.17453292519943245
1666089136469324375,0.0,0.0,0.0,0.0,0.0,0.17453292519943245
1666089136514875145,0.0,0.0,0.0,0.0,0.0,0.17453292519943245
1666089136610451745,0.0,0.0,0.0,0.0,0.0,0.17453292519943245
1666089136638571115,0.0,0.0,0.0,0.0,0.0,0.23010869155855607
1666089136734009622,0.0,0.0,0.0,0.0,0.0,0.17453292519943245
1666089136829179255,0.0,0.0,0.0,0.0,0.0,0.17453292519943245
1666089136859423351,0.0,0.0,0.0,0.0,0.0,0.17453292519943245
1666089136947064231,0.0,0.0,0.0,0.0,0.0,0.17453292519943245
1666089137033601689,0.0,0.0,0.0,0.0,0.0,0.17453292519943245
1666089137079228549,0.0,0.0,0.0,0.0,0.0,0.17453292519943245
1666089137165234048,0.0,0.0,0.0,0.0,0.0,0.17453292519943245
1666089137246145845,0.0,0.0,0.0,0.0,0.0,-4.996003610813204e-16
1666089137293828988,0.0,0.0,0.0,0.0,0.0,-4.996003610813204e-16
1666089137338746457,0.0,0.0,0.0,0.0,0.0,-4.996003610813204e-16
1666089137437559973,0.0,0.0,0.0,0.0,0.0,-4.996003610813204e-16
1666089137466928740,0.0,0.0,0.0,0.0,0.0,-4.996003610813204e-16
1666089137553361197,0.0,0.0,0.0,0.0,0.0,-4.996003610813204e-16
1666089137650275473,0.0,0.0,0.0,0.0,0.0,-4.996003610813204e-16
1666089137693278993,0.0,0.0,0.0,0.0,0.0,-4.996003610813204e-16
1666089137761012775,0.0,0.0,0.0,0.0,0.0,-0.17453292519943345
1666089137852953744,0.0,0.0,0.0,0.0,0.0,-0.17453292519943345
1666089137942109946,0.0,0.0,0.0,0.0,0.0,-0.17453292519943345
1666089137978750831,0.0,0.0,0.0,0.0,0.0,-0.2268194649892369
1666089138074463525,0.0,0.0,0.0,0.0,0.0,-0.25529187614931526
1666089138121196565,0.0,0.0,0.0,0.0,0.0,-0.27278778600685694
1666089138180521414,0.0,0.0,0.0,0.0,0.0,-0.28871558984296464
1666089138241561470,0.0,0.0,0.0,0.0,0.0,-0.3016975083270826
1666089138333530621,0.0,0.0,0.0,0.0,0.0,-0.31499602498298485
1666089138421057611,0.0,0.0,0.0,0.0,0.0,-0.32187418579512256
1666089138465211455,0.0,0.0,0.0,0.0,0.0,-0.3234526318935915
1666089138541504284,0.0,0.0,0.0,0.0,0.0,-0.33261625471657175
1666089138586215617,0.0,0.0,0.0,0.0,0.0,-0.33516694911477696
1666089138674346127,0.0,0.0,0.0,0.0,0.0,-0.35328153698298054
1666089138719551390,0.0,0.0,0.0,0.0,0.0,-0.3490658503988664
1666089138810592764,0.0,0.0,0.0,0.0,0.0,-0.3681059583138542
1666089138818144550,0.0,0.0,0.0,0.0,0.0,-0.3592852400785149
1666089138929077395,0.0,0.0,0.0,0.0,0.0,-0.3815464095575432
1666089138973082269,0.0,0.0,0.0,0.0,0.0,-0.38350814267659405
1666089139061432751,0.0,0.0,0.0,0.0,0.0,-0.39829414613111686
1666089139113135101,0.42257198691368103,0.0,0.0,0.0,0.0,-0.13928107917308807
1666089139184508368,0.3732735216617584,0.0,0.0,0.0,0.0,-0.029419776052236557
1666089139270968222,0.3886279463768005,0.0,0.0,0.0,0.0,-0.03667942062020302
1666089139320017177,0.47086101770401,0.0,0.0,0.0,0.0,-0.1536877304315567
1666089139409326039,0.49142885208129883,0.0,0.0,0.0,0.0,-0.16022661328315735
1666089139462091637,0.503057599067688,0.0,0.0,0.0,0.0,-0.1659027487039566
1666089139566729059,0.4432488679885864,0.0,0.0,0.0,0.0,-0.06517884135246277
1666089139657567664,0.5229358673095703,0.0,0.0,0.0,0.0,-0.1720171421766281
1666089139748457026,0.5331636667251587,0.0,0.0,0.0,0.0,-0.17389419674873352
1666089139865054734,0.5383567214012146,0.0,0.0,0.0,0.0,-0.17596696317195892
1666089139957134796,0.5530192255973816,0.0,0.0,0.0,0.0,-0.18047703802585602
1666089140001257024,0.552734911441803,0.0,0.0,0.0,0.0,-0.18016287684440613
1666089140095418487,0.562634289264679,0.0,0.0,0.0,0.0,-0.18448995053768158
1666089140103580150,0.5625631809234619,0.0,0.0,0.0,0.0,-0.184947207570076
1666089140212881491,0.5654951930046082,0.0,0.0,0.0,0.0,-0.1866796463727951
1666089140344795225,0.566983163356781,0.0,0.0,0.0,0.0,-0.18772777915000916
1666089140431422437,0.5648964643478394,0.0,0.0,0.0,0.0,-0.188520148396492
1666089140466401273,0.5643989443778991,0.0,0.0,0.0,0.0,-0.18869470059871674
1666089140511011821,0.5622650384902954,0.0,0.0,0.0,0.0,-0.18857932090759277
1666089140606177971,0.561085283756256,0.0,0.0,0.0,0.0,-0.18893136084079742
1666089140672373295,0.5599842667579651,0.0,0.0,0.0,0.0,-0.19060829281806946
1666089140688333474,0.5598421096801758,0.0,0.0,0.0,0.0,-0.19071300327777863
1666089140767305542,0.5627642869949341,0.0,0.0,0.0,0.0,-0.1932222843170166
1666089140856859215,0.5696408748626709,0.0,0.0,0.0,0.0,-0.19648633897304535
1666089140986204385,0.5761983394622803,0.0,0.0,0.0,0.0,-0.20012497901916504
1666089141032907145,0.5761035680770873,0.0,0.0,0.0,0.0,-0.2035464495420456
1666089141111438684,0.5784454941749572,0.0,0.0,0.0,0.0,-0.20904681086540222
1666089141244348442,0.5751232504844666,0.0,0.0,0.0,0.0,-0.21355165541172028
1666089141289948006,0.5722858309745789,0.0,0.0,0.0,0.0,-0.2193557620048523
1666089141330204769,0.5700640082359314,0.0,0.0,0.0,0.0,-0.2231898158788681
1666089141413455897,0.5661250352859496,0.0,0.0,0.0,0.0,-0.22729294002056122
1666089141499736404,0.5539615154266357,0.0,0.0,0.0,0.0,-0.2313283085823059
1666089141587459079,0.4497208297252655,0.0,0.0,0.0,0.0,-0.1451645940542221
1666089141668043263,0.5322493314743042,0.0,0.0,0.0,0.0,-0.23695498704910278
1666089141744266253,0.5210095643997192,0.0,0.0,0.0,0.0,-0.2484051138162613
1666089141801152530,0.5208674073219299,0.0,0.0,0.0,0.0,-0.24822010099887848
1666089141843852314,0.5128673911094666,0.0,0.0,0.0,0.0,-0.2527339458465576
1666089141966907856,0.5111706256866455,0.0,0.0,0.0,0.0,-0.2583750784397125
1666089142062031371,0.5111383199691772,0.0,0.0,0.0,0.0,-0.26342859864234924
1666089142103287450,0.39593160152435297,0.0,0.0,0.0,0.0,-0.182772696018219
1666089142188883601,0.5009540319442749,0.0,0.0,0.0,0.0,-0.267127126455307
1666089142309173925,0.49691501259803766,0.0,0.0,0.0,0.0,-0.5235987755982994
1666089142396227104,0.4910759031772613,0.0,0.0,0.0,0.0,-0.8726646259971653
1666089142421413034,0.48972779512405396,0.0,0.0,0.0,0.0,-0.8726646259971653
1666089142480074694,0.37584602832794184,0.0,0.0,0.0,0.0,-1.0471975511965983
1666089142595684459,0.5013790726661682,0.0,0.0,0.0,0.0,-1.0471975511965983
1666089142611279394,0.501308023929596,0.0,0.0,0.0,0.0,-1.0471975511965983
1666089142743591118,0.5124455094337463,0.0,0.0,0.0,0.0,-1.0471975511965983
1666089142794424704,0.5140107274055481,0.0,0.0,0.0,0.0,-1.0471975511965983
1666089142816582585,0.5169765949249268,0.0,0.0,0.0,0.0,-1.0471975511965983
1666089142960666498,0.5197027325630188,0.0,0.0,0.0,0.0,-1.0471975511965983
1666089143003367526,0.5229334235191345,0.0,0.0,0.0,0.0,-1.0471975511965983
1666089143127642738,0.5302229523658752,0.0,0.0,0.0,0.0,-1.0471975511965983
1666089143187078817,0.43731746077537537,0.0,0.0,0.0,0.0,-0.8726646259971653
1666089143212762304,0.43724638223648066,0.0,0.0,0.0,0.0,-0.8726646259971653
1666089143334605398,0.5454975962638855,0.0,0.0,0.0,0.0,-0.8726646259971653
1666089143410963943,0.5657327175140381,0.0,0.0,0.0,0.0,-0.6981317007977323
1666089143510916558,0.5729333758354187,0.0,0.0,0.0,0.0,-0.6981317007977323
1666089143548976734,0.5725069642066956,0.0,0.0,0.0,0.0,-0.6981317007977323
1666089143636052077,0.524855375289917,0.0,0.0,0.0,0.0,-0.5235987755982994
1666089143727881275,0.600475013256073,0.0,0.0,0.0,0.0,-0.3490658503988664
1666089143787352132,0.6012605428695679,0.0,0.0,0.0,0.0,-0.3490658503988664
1666089143891558908,0.5792464017868042,0.0,0.0,0.0,0.0,-0.17453292519943345
1666089143936652710,0.5874125957489014,0.0,0.0,0.0,0.0,-0.17453292519943345
1666089144023840171,0.6037194728851318,0.0,0.0,0.0,0.0,-0.07705393433570862
1666089144126881975,0.5936054587364197,0.0,0.0,0.0,0.0,-0.053794506937265396
1666089144142956013,0.5926814675331115,0.0,0.0,0.0,0.0,-0.05260419100522995
1666089144226577190,0.5908575057983398,0.0,0.0,0.0,0.0,0.0624985545873642
1666089144303797119,0.5774631500244141,0.0,0.0,0.0,0.0,-0.03275980055332184
1666089144393294377,0.5623508095741272,0.0,0.0,0.0,0.0,-0.024354593828320503
1666089144523924280,0.5427154302597046,0.0,0.0,0.0,0.0,-0.021160269156098366
1666089144570416046,0.529518723487854,0.0,0.0,0.0,0.0,-4.996003610813204e-16
1666089144624792365,0.5111749768257141,0.0,0.0,0.0,0.0,-4.996003610813204e-16
1666089144687968340,0.5174426436424255,0.0,0.0,0.0,0.0,0.09806238859891891
1666089144775732461,0.4733490943908691,0.0,0.0,0.0,0.0,-0.011404779739677906
1666089144865157695,0.483886182308197,0.0,0.0,0.0,0.0,0.10213949531316757
1666089144907503676,0.43563076853752136,0.0,0.0,0.0,0.0,-4.996003610813204e-16
1666089144988863457,0.41343995928764343,0.0,0.0,0.0,0.0,-0.013370023109018803
1666089145075447182,0.3927491009235382,0.0,0.0,0.0,0.0,-0.014706899411976337
1666089145119499053,0.3688951432704925,0.0,0.0,0.0,0.0,-0.01647139899432659
1666089145213078198,0.0,0.0,0.0,0.0,0.0,0.2359365835706608
1666089145222614219,0.0,0.0,0.0,0.0,0.0,0.23792436154342642
1666089145285255596,0.0,0.0,0.0,0.0,0.0,0.2462319135849583
1666089145373028322,0.0,0.0,0.0,0.0,0.0,0.25284798850344903
1666089145464921200,0.0,0.0,0.0,0.0,0.0,0.25598614645584067
1666089145556923338,0.0,0.0,0.0,0.0,0.0,0.2688367029329067
1666089145595254223,0.0,0.0,0.0,0.0,0.0,0.2643774912287691
1666089145624281491,0.0,0.0,0.0,0.0,0.0,0.26795921838707465
1666089145708633616,0.0,0.0,0.0,0.0,0.0,0.2767080694775682
1666089145800814120,0.0,0.0,0.0,0.0,0.0,0.2760572023433686
1666089145901451277,0.0,0.0,0.0,0.0,0.0,0.2801537528981098
1666089146024132805,0.0,0.0,0.0,0.0,0.0,0.2880769885846316
1666089146054598522,0.0,0.0,0.0,0.0,0.0,0.2743598411972155
1666089146141614427,0.0,0.0,0.0,0.0,0.0,0.27594861159929485
1666089146186340495,0.0,0.0,0.0,0.0,0.0,0.2713993053158328
1666089146236806928,0.4189521372318268,0.0,0.0,0.0,0.0,0.11583314836025238
1666089146307146837,0.3894513249397278,0.0,0.0,0.0,0.0,-0.003589421045035124
1666089146400431619,0.4024467170238495,0.0,0.0,0.0,0.0,-0.0018707617418840528
1666089146493187973,0.45694297552108765,0.0,0.0,0.0,0.0,0.11709422618150711
1666089146536550923,0.42784783244132996,0.0,0.0,0.0,0.0,0.0019468528917059302
1666089146606777923,0.43891236186027527,0.0,0.0,0.0,0.0,0.003666672855615616
1666089146653199556,0.44919559359550476,0.0,0.0,0.0,0.0,0.004914689343422651
1666089146739550535,0.4591937065124511,0.0,0.0,0.0,0.0,0.005446996074169874
1666089146828456247,0.46632379293441767,0.0,0.0,0.0,0.0,0.0062494175508618355
1666089146949773214,0.4730326831340789,0.0,0.0,0.0,0.0,0.008040856570005417
1666089146990605971,0.4787430465221405,0.0,0.0,0.0,0.0,0.01025467086583376
1666089147081721246,0.5246028900146484,0.0,0.0,0.0,0.0,0.12122385948896408
1666089147167792607,0.5305374264717102,0.0,0.0,0.0,0.0,0.12175070494413376
1666089147213123477,0.4965848326683044,0.0,0.0,0.0,0.0,0.0140396011993289
1666089147226686459,0.49951231479644775,0.0,0.0,0.0,0.0,0.015540821477770805
1666089147336057569,0.49583819508552546,0.0,0.0,0.0,0.0,0.016757259145379066
1666089147427453382,0.4884610176086426,0.0,0.0,0.0,0.0,0.017586683854460716
1666089147549090802,0.4801764488220215,0.0,0.0,0.0,0.0,0.018974600359797478
1666089147592090660,0.4716063737869262,0.0,0.0,0.0,0.0,0.020954977720975876
1666089147685615917,0.4641572535037994,0.0,0.0,0.0,0.0,0.02312358282506466
1666089147812347683,0.45650151371955866,0.0,0.0,0.0,0.0,0.026312271133065224
1666089147889008306,0.45265609025955195,0.0,0.0,0.0,0.0,0.031829915940761566
1666089147958234332,0.4525739550590515,0.0,0.0,0.0,0.0,0.03540395200252533
1666089148106925185,0.45657241344451904,0.0,0.0,0.0,0.0,0.04023221507668495
1666089148152043395,0.4657256007194519,0.0,0.0,0.0,0.0,0.046877190470695496
1666089148234470017,0.4678802490234375,0.0,0.0,0.0,0.0,0.0533108189702034
1666089148320811310,0.4708980917930603,0.0,0.0,0.0,0.0,0.05967610329389572
1666089148466955420,0.4817456901073455,0.0,0.0,0.0,0.0,0.07456472516059875
1666089148493389255,0.4815324544906616,0.0,0.0,0.0,0.0,0.07445652037858963
1666089148601497747,0.4804710447788238,0.0,0.0,0.0,0.0,0.08829870074987411
1666089148624022169,0.48039996623992914,0.0,0.0,0.0,0.0,0.08826030045747757
1666089148714411296,0.5473858714103698,0.0,0.0,0.0,0.0,0.6981317007977313
1666089148834510021,0.461132526397705,0.0,0.0,0.0,0.0,0.6981317007977313
1666089148927969231,0.44957396388053894,0.0,0.0,0.0,0.0,0.6981317007977313
1666089149011257134,0.5217934250831604,0.0,0.0,0.0,0.0,0.6981317007977313
1666089149048723655,0.5188647508621216,0.0,0.0,0.0,0.0,0.6981317007977313
1666089149131519038,0.5206059217453003,0.0,0.0,0.0,0.0,0.8726646259971643
1666089149249348614,0.4285477697849273,0.0,0.0,0.0,0.0,0.6981317007977313
1666089149338549046,0.4316707551479339,0.0,0.0,0.0,0.0,0.8726646259971643
1666089149431291612,0.43943554162979126,0.0,0.0,0.0,0.0,0.8726646259971643
1666089149475939635,0.5272434949874878,0.0,0.0,0.0,0.0,0.8726646259971643
1666089149546824664,0.43698462843894953,0.0,0.0,0.0,0.0,0.6981317007977313
1666089149683539700,0.43446156382560724,0.0,0.0,0.0,0.0,0.6981317007977313
1666089149770916219,0.43034681677818293,0.0,0.0,0.0,0.0,0.6981317007977313
1666089149815607750,0.4943870604038238,0.0,0.0,0.0,0.0,0.5235987755982984
1666089149932223135,0.4329266250133514,0.0,0.0,0.0,0.0,0.3490658503988654
1666089150026896119,0.43340981006622314,0.0,0.0,0.0,0.0,0.17453292519943245
1666089150068259085,0.434049516916275,0.0,0.0,0.0,0.0,0.17453292519943245
1666089150156799050,0.45366981625556946,0.0,0.0,0.0,0.0,0.17453292519943245
1666089150196698930,0.4405268132686615,0.0,0.0,0.0,0.0,-4.996003610813204e-16
1666089150274905915,0.4453305304050445,0.0,0.0,0.0,0.0,-4.996003610813204e-16
1666089150326127923,0.448813259601593,0.0,0.0,0.0,0.0,-0.0752502828836441
1666089150415028513,0.44685396552085876,0.0,0.0,0.0,0.0,-0.087504081428051
1666089150448695581,0.4820207357406616,0.0,0.0,0.0,0.0,-0.08457775413990021
1666089150531285289,0.5114820003509521,0.0,0.0,0.0,0.0,-0.07967220991849899
1666089150650272470,0.5083737373352051,0.0,0.0,0.0,0.0,-0.09152694046497345
1666089150791248688,0.5042116045951843,0.0,0.0,0.0,0.0,-0.10157181322574615
1666089150839845143,0.4676069319248199,0.0,0.0,0.0,0.0,-0.11796077340841293
1666089150896857731,0.39799177646636963,0.0,0.0,0.0,0.0,-0.006766549311578274
1666089150913532454,0.3994133174419403,0.0,0.0,0.0,0.0,-0.006574563216418028
1666089151048013627,0.4351058900356293,0.0,0.0,0.0,0.0,-0.12803690135478973
1666089151151194749,0.43741175532341003,0.0,0.0,0.0,0.0,-0.1340527981519699
1666089151167332200,0.4371274411678314,0.0,0.0,0.0,0.0,-0.1339096873998642
1666089151213565811,0.3756607472896576,0.0,0.0,0.0,0.0,-0.024605875834822655
1666089151308306598,0.44352552294731135,0.0,0.0,0.0,0.0,-0.1415657103061676
1666089151400952864,0.44364479184150696,0.0,0.0,0.0,0.0,-0.14354990422725677
1666089151524719426,0.36877158284187317,0.0,0.0,0.0,0.0,-0.03568733483552933
1666089151564418165,0.43526807427406305,0.0,0.0,0.0,0.0,-0.15148448944091797
1666089151641029904,0.4303049147129059,0.0,0.0,0.0,0.0,-0.15428243577480316
1666089151647690520,0.43023383617401123,0.0,0.0,0.0,0.0,-0.1544150859117508
1666089151731681964,0.42422726750373835,0.0,0.0,0.0,0.0,-0.15711042284965515
1666089151812737593,0.4151900112628936,0.0,0.0,0.0,0.0,-0.15969310700893402
1666089151851891861,0.40749502182006836,0.0,0.0,0.0,0.0,-0.16222982108592987
1666089151938970762,0.40025269985198975,0.0,0.0,0.0,0.0,-0.1643349975347519
1666089152032141932,0.2942401468753814,0.0,0.0,0.0,0.0,-0.055780597031116486
1666089152113330655,0.0,0.0,0.0,0.0,0.0,-0.6240977656528991
1666089152129091440,0.0,0.0,0.0,0.0,0.0,-0.6441620606938113
1666089152242688762,0.0,0.0,0.0,0.0,0.0,-0.6981317007977323
1666089152277891822,0.0,0.0,0.0,0.0,0.0,-0.7096220249604916
1666089152367422237,0.0,0.0,0.0,0.0,0.0,-0.7472404583652469
1666089152453214234,0.0,0.0,0.0,0.0,0.0,-0.7722327077249308
1666089152484796625,0.0,0.0,0.0,0.0,0.0,-0.7785270263816365
1666089152583927434,0.0,0.0,0.0,0.0,0.0,-0.8222485343530075
1666089152616947570,0.0,0.0,0.0,0.0,0.0,-0.8121258573551353
1666089152749038050,0.0,0.0,0.0,0.0,0.0,-0.8183017829781397
1666089152749369966,0.0,0.0,0.0,0.0,0.0,-0.8043778965188477
1666089152809782154,0.38697105646133423,0.0,0.0,0.0,0.0,-0.8726646259971653
1666089152918823697,0.3874736428260803,0.0,0.0,0.0,0.0,-0.8726646259971653
1666089153006930165,0.2943868339061737,0.0,0.0,0.0,0.0,-0.5235987755982994
1666089153108240684,0.4633603394031524,0.0,0.0,0.0,0.0,-0.2055785357952118
1666089153132576442,0.4634314179420471,0.0,0.0,0.0,0.0,-0.20581240952014923
1666089153221105505,0.4951330125331878,0.0,0.0,0.0,0.0,-0.20600152015686035
1666089153264158466,0.4944933354854584,0.0,0.0,0.0,0.0,-0.2064553052186966
1666089153351248735,0.5283287763595581,0.0,0.0,0.0,0.0,-0.20633970201015472
1666089153396357295,0.5556951761245728,0.0,0.0,0.0,0.0,-0.20815013349056244
1666089153431400666,0.5875956416130066,0.0,0.0,0.0,0.0,-0.203400656580925
1666089153521253322,0.6162859201431274,0.0,0.0,0.0,0.0,-0.19637982547283173
1666089153606711731,0.6502196788787842,0.0,0.0,0.0,0.0,-0.19291067123413086
1666089153702030992,0.6246700286865234,0.0,0.0,0.0,0.0,-0.17453292519943345
1666089153771618622,0.6529811024665833,0.0,0.0,0.0,0.0,-0.07877036184072495
1666089153861374554,0.725990891456604,0.0,0.0,0.0,0.0,-0.16277243196964264
1666089153906881300,0.7492613196372985,0.0,0.0,0.0,0.0,-0.14567679166793823
1666089154002374687,0.7700145840644835,0.0,0.0,0.0,0.0,-0.13179627060890198
1666089154009809573,0.7568597793579102,0.0,0.0,0.0,0.0,-0.030362214893102646
1666089154070779903,0.7806014418601989,0.0,0.0,0.0,0.0,-0.10700695216655731
1666089154164645126,0.7828062772750854,0.0,0.0,0.0,0.0,-0.09690497070550919
1666089154258551325,0.7779882550239563,0.0,0.0,0.0,0.0,-0.08894681185483932
1666089154376320521,0.7739637494087219,0.0,0.0,0.0,0.0,-0.08133117854595184
1666089154464927776,0.771847367286682,0.0,0.0,0.0,0.0,-0.07613568753004074
1666089154555730878,0.7700604200363159,0.0,0.0,0.0,0.0,-0.07276106625795364
1666089154634153933,0.7648753523826599,0.0,0.0,0.0,0.0,-0.068568654358387
1666089154766951981,0.7476722002029418,0.0,0.0,0.0,0.0,-0.0631093680858612
1666089154812929489,0.7466771602630615,0.0,0.0,0.0,0.0,-0.06271841377019882
1666089154888922165,0.7113197445869446,0.0,0.0,0.0,0.0,-4.996003610813204e-16
1666089154994570900,0.6917330026626586,0.0,0.0,0.0,0.0,-4.996003610813204e-16
1666089155022622210,0.6905957460403442,0.0,0.0,0.0,0.0,-4.996003610813204e-16
1666089155154414965,0.6478754878044127,0.0,0.0,0.0,0.0,0.03552531823515892
1666089155199848875,0.6376187801361084,0.0,0.0,0.0,0.0,-4.996003610813204e-16
1666089155211007205,0.6370500922203064,0.0,0.0,0.0,0.0,-4.996003610813204e-16
1666089155315013007,0.6211389899253845,0.0,0.0,0.0,0.0,-4.996003610813204e-16
1666089155447336248,0.5879714488983154,0.0,0.0,0.0,0.0,-0.0647813156247139
1666089155481131188,0.5778745412826538,0.0,0.0,0.0,0.0,-0.06588122993707657
1666089155583415540,0.5752038359642029,0.0,0.0,0.0,0.0,-0.06775064021348953
1666089155612327329,0.5702359676361084,0.0,0.0,0.0,0.0,-0.06989633291959763
1666089155707783548,0.5655000805854797,0.0,0.0,0.0,0.0,-0.07073488086462021
1666089155746913159,0.5563656687736511,0.0,0.0,0.0,0.0,-0.07210514694452286
1666089155873958775,0.5288354158401489,0.0,0.0,0.0,0.0,-0.07331337034702301
1666089155911736044,0.5044405460357666,0.0,0.0,0.0,0.0,-4.996003610813204e-16
1666089155969187964,0.5016528964042664,0.0,0.0,0.0,0.0,-0.0738905593752861
1666089156002337290,0.5021504163742065,0.0,0.0,0.0,0.0,-0.07348215579986572
1666089156137598890,0.4758177697658539,0.0,0.0,0.0,0.0,-0.07365397363901138
1666089156202929086,0.46454355120658875,0.0,0.0,0.0,0.0,-0.07356861233711243
1666089156210646352,0.46575185656547546,0.0,0.0,0.0,0.0,-0.07382692396640778
1666089156303856373,0.45943769812583923,0.0,0.0,0.0,0.0,-0.07390390336513519
1666089156390714503,0.4428125023841858,0.0,0.0,0.0,0.0,-0.17453292519943345
1666089156469730269,0.44195953011512756,0.0,0.0,0.0,0.0,-0.17453292519943345
1666089156602214928,0.4565199911594391,0.0,0.0,0.0,0.0,-0.0771436020731926
1666089156692033628,0.4720393717288971,0.0,0.0,0.0,0.0,-0.07669638842344284
1666089156804577113,0.4762139320373535,0.0,0.0,0.0,0.0,-0.07561682909727097
1666089156809234546,0.475503146648407,0.0,0.0,0.0,0.0,-0.07560635358095169
1666089156947116553,0.4799218475818634,0.0,0.0,0.0,0.0,-0.07238668948411942
1666089156985613978,0.4695316553115845,0.0,0.0,0.0,0.0,-4.996003610813204e-16
1666089157036776236,0.46476152539253235,0.0,0.0,0.0,0.0,-4.996003610813204e-16
1666089157072536350,0.4649036824703216,0.0,0.0,0.0,0.0,-4.996003610813204e-16
1666089157151163150,0.4665717780590057,0.0,0.0,0.0,0.0,-0.06773433834314346
1666089157282080685,0.44904077053070063,0.0,0.0,0.0,0.0,-0.06441616266965866
1666089157323097298,0.44015833735466003,0.0,0.0,0.0,0.0,-0.06219666451215744
1666089157355675503,0.43980294466018677,0.0,0.0,0.0,0.0,-0.06227694824337959
1666089157446849998,0.4329644441604614,0.0,0.0,0.0,0.0,-0.0587780624628067
1666089157536560883,0.4209918677806854,0.0,0.0,0.0,0.0,-0.055643364787101746
1666089157651385300,0.4072688519954681,0.0,0.0,0.0,0.0,-0.049038611352443695
1666089157712350684,0.4100488722324371,0.0,0.0,0.0,0.0,-0.04386423900723457
1666089157741007076,0.4099067151546478,0.0,0.0,0.0,0.0,-0.04378744214773178
1666089157861435978,0.41020190715789795,0.0,0.0,0.0,0.0,-0.03869570046663284
1666089157946635955,0.4101047217845917,0.0,0.0,0.0,0.0,-0.03414259850978851
1666089157993084672,0.43868449330329895,0.0,0.0,0.0,0.0,0.09110553562641144
1666089158079239114,0.43923673033714294,0.0,0.0,0.0,0.0,0.09470651298761368
1666089158202900304,0.4020465314388275,0.0,0.0,0.0,0.0,-0.018921786919236183
1666089158248165586,0.3965615928173065,0.0,0.0,0.0,0.0,-0.016191575676202774
1666089158292838010,0.39634835720062256,0.0,0.0,0.0,0.0,-0.016093837097287178
1666089158380053832,0.39145123958587646,0.0,0.0,0.0,0.0,-0.013122694566845894
1666089158501007607,0.3914957642555237,0.0,0.0,0.0,0.0,-0.006723778322339058
1666089158545822571,0.3851422667503357,0.0,0.0,0.0,0.0,-0.006035022437572479
1666089158592195146,0.3849290609359741,0.0,0.0,0.0,0.0,-0.0061292704194784164
1666089158643942667,0.38326582312583923,0.0,0.0,0.0,0.0,-0.00532521540299058
1666089158711091699,0.401485413312912,0.0,0.0,0.0,0.0,0.0010588853619992733
1666089158840967236,0.41323366761207575,0.0,0.0,0.0,0.0,0.0065339794382452965
1666089158884039593,0.47533196210861206,0.0,0.0,0.0,0.0,0.3490658503988654
1666089158971237840,0.4849453866481781,0.0,0.0,0.0,0.0,0.3490658503988654
1666089159057537835,0.44646021723747253,0.0,0.0,0.0,0.0,0.3490658503988654
1666089159091924096,0.44567835330963135,0.0,0.0,0.0,0.0,0.3490658503988654
1666089159134786759,0.449526309967041,0.0,0.0,0.0,0.0,0.3490658503988654
1666089159255874951,0.45051300525665283,0.0,0.0,0.0,0.0,0.3490658503988654
1666089159347666852,0.45134538412094116,0.0,0.0,0.0,0.0,0.3490658503988654
1666089159439193690,0.4456280469894409,0.0,0.0,0.0,0.0,0.5235987755982984
1666089159484092547,0.5013658404350281,0.0,0.0,0.0,0.0,0.5235987755982984
1666089159556113192,0.43026712536811823,0.0,0.0,0.0,0.0,0.5235987755982984
1666089159599904365,0.4904920756816864,0.0,0.0,0.0,0.0,0.6981317007977313
1666089159690267737,0.41694504022598267,0.0,0.0,0.0,0.0,0.6981317007977313
1666089159775558979,0.39993354678153986,0.0,0.0,0.0,0.0,0.6981317007977313
1666089159845750418,0.4748741686344147,0.0,0.0,0.0,0.0,0.6981317007977313
1666089159853399622,0.47594031691551203,0.0,0.0,0.0,0.0,0.6981317007977313
1666089159938416509,0.4024495780467987,0.0,0.0,0.0,0.0,0.6981317007977313
1666089160073350026,0.40722668170928955,0.0,0.0,0.0,0.0,0.6981317007977313
1666089160115446067,0.4080365002155304,0.0,0.0,0.0,0.0,0.6981317007977313
1666089160172895426,0.40741461515426636,0.0,0.0,0.0,0.0,0.6981317007977313
1666089160234924964,0.40685680508613586,0.0,0.0,0.0,0.0,0.6981317007977313
1666089160324891038,0.4946275055408478,0.0,0.0,0.0,0.0,0.8726646259971643
1666089160373125132,0.4084881842136383,0.0,0.0,0.0,0.0,0.6981317007977313
1666089160459247265,0.40822514891624445,0.0,0.0,0.0,0.0,0.6981317007977313
1666089160498114953,0.4106701612472534,0.0,0.0,0.0,0.0,0.6981317007977313
1666089160580334687,0.4107675850391388,0.0,0.0,0.0,0.0,0.6981317007977313
1666089160670912974,0.4121805429458618,0.0,0.0,0.0,0.0,0.6981317007977313
1666089160717568017,0.41518181562423706,0.0,0.0,0.0,0.0,0.6981317007977313
1666089160864510155,0.4085107743740082,0.0,0.0,0.0,0.0,0.6981317007977313
1666089160879761319,0.4082264602184295,0.0,0.0,0.0,0.0,0.6981317007977313
1666089160970738483,0.4021083712577819,0.0,0.0,0.0,0.0,0.5235987755982984
1666089161054279242,0.39405691623687744,0.0,0.0,0.0,0.0,0.5235987755982984
1666089161133483762,0.3823165297508239,0.0,0.0,0.0,0.0,0.5235987755982984
1666089161222975929,0.3698940873146057,0.0,0.0,0.0,0.0,0.5235987755982984
1666089161271262831,0.43159082531929016,0.0,0.0,0.0,0.0,0.5235987755982984
1666089161359069520,0.34249764680862427,0.0,0.0,0.0,0.0,0.5235987755982984
1666089161436347521,0.3254087269306183,0.0,0.0,0.0,0.0,0.5235987755982984
1666089161479511885,0.0,0.0,0.0,0.0,0.0,0.4508266923235661
1666089161581559515,0.0,0.0,0.0,0.0,0.0,0.46094365047909697
1666089161611102357,0.0,0.0,0.0,0.0,0.0,0.4489321769137925
1666089161697721805,0.0,0.0,0.0,0.0,0.0,0.46018407963439933
1666089161729449455,0.0,0.0,0.0,0.0,0.0,0.4555195552719208
1666089161909281657,0.0,0.0,0.0,0.0,0.0,0.483929405514732
1666089161950489337,0.0,0.0,0.0,0.0,0.0,0.46590796470744544
1666089162048395034,0.0,0.0,0.0,0.0,0.0,0.4626871247591137
1666089162118225564,0.0,0.0,0.0,0.0,0.0,0.4287566746089532
1666089162205301353,0.0,0.0,0.0,0.0,0.0,0.4143061159286282
1666089162296030199,0.0,0.0,0.0,0.0,0.0,0.39500513465537707
1666089162371781692,0.0,0.0,0.0,0.0,0.0,0.3678534484571496
1666089162413606437,0.0,0.0,0.0,0.0,0.0,0.36304699265303797
1666089162457732693,0.0,0.0,0.0,0.0,0.0,0.3531012990739266
1666089162545217337,0.0,0.0,0.0,0.0,0.0,0.3490658503988654
1666089162633268065,0.0,0.0,0.0,0.0,0.0,0.33755591744706187
1666089162711579854,0.0,0.0,0.0,0.0,0.0,0.3325862178490565
1666089162753079745,0.0,0.0,0.0,0.0,0.0,0.32880873533778227
1666089162843724898,0.0,0.0,0.0,0.0,0.0,0.3290925182181398
1666089162974090109,0.0,0.0,0.0,0.0,0.0,0.32978372789086347
1666089163016870944,0.0,0.0,0.0,0.0,0.0,0.31754728288656225
1666089163115138359,0.0,0.0,0.0,0.0,0.0,0.32199980155542296
1666089163138137410,0.0,0.0,0.0,0.0,0.0,0.3150456674695384
1666089163225059802,0.0,0.0,0.0,0.0,0.0,0.32306803219685987
1666089163271626067,0.0,0.0,0.0,0.0,0.0,0.3211651324675292
1666089163371893660,0.0,0.0,0.0,0.0,0.0,0.32705395025882283
1666089163432556964,0.0,0.0,0.0,0.0,0.0,0.3282233629434375
1666089163505227628,0.0,0.0,0.0,0.0,0.0,0.3315468361900053
1666089163653613394,0.0,0.0,0.0,0.0,0.0,0.34213817519777057
1666089163730692040,0.0,0.0,0.0,0.0,0.0,0.3362853294276151
1666089163798134846,0.0,0.0,0.0,0.0,0.0,0.33563977902391334
1666089163822207076,0.0,0.0,0.0,0.0,0.0,0.3312128202353368
1666089163954321682,0.0,0.0,0.0,0.0,0.0,0.34229502289798197
1666089164033159428,0.0,0.0,0.0,0.0,0.0,0.3379656375213417
1666089164089329061,0.0,0.0,0.0,0.0,0.0,0.3362332305908578
1666089164117199482,0.0,0.0,0.0,0.0,0.0,0.333391780453737
1666089164206601421,0.0,0.0,0.0,0.0,0.0,0.3423833044309713
1666089164337658783,0.0,0.0,0.0,0.0,0.0,0.34619757745264834
1666089164412874884,0.0,0.0,0.0,0.0,0.0,0.34138183903766983
1666089164502317671,0.0,0.0,0.0,0.0,0.0,0.3429487458734131
1666089164545521507,0.0,0.0,0.0,0.0,0.0,0.3490658503988654
1666089164681995733,0.0,0.0,0.0,0.0,0.0,0.3503544378111147
1666089164692970572,0.0,0.0,0.0,0.0,0.0,0.3490658503988654
1666089164762146485,0.0,0.0,0.0,0.0,0.0,0.3490658503988654
1666089164849577939,0.0,0.0,0.0,0.0,0.0,0.3490658503988654
1666089164917170013,0.0,0.0,0.0,0.0,0.0,0.3490658503988654
1666089165056088587,0.0,0.0,0.0,0.0,0.0,0.35335761988303577
1666089165098245205,0.0,0.0,0.0,0.0,0.0,0.3490658503988654
1666089165154538378,0.0,0.0,0.0,0.0,0.0,0.3490658503988654
1666089165186061666,0.0,0.0,0.0,0.0,0.0,0.3490658503988654
1666089165274565450,0.0,0.0,0.0,0.0,0.0,0.3490658503988654
1666089165361479433,0.0,0.0,0.0,0.0,0.0,0.3490658503988654
1666089165432852221,0.0,0.0,0.0,0.0,0.0,0.3490658503988654
1666089165521939018,0.0,0.0,0.0,0.0,0.0,0.3428900881077833
1666089165614616049,0.0,0.0,0.0,0.0,0.0,0.34243232028062837
1666089165692093239,0.0,0.0,0.0,0.0,0.0,0.33597612488227135
1666089165771136207,0.0,0.0,0.0,0.0,0.0,0.33261301221393386
1666089165780817239,0.0,0.0,0.0,0.0,0.0,0.32426203305471724
1666089165874219313,0.0,0.0,0.0,0.0,0.0,0.32840098015111724
1666089165964970441,0.0,0.0,0.0,0.0,0.0,0.32280005471954165
1666089166033937555,0.0,0.0,0.0,0.0,0.0,0.315179557352353
1666089166124112767,0.0,0.0,0.0,0.0,0.0,0.3026293404562243
1666089166159944482,0.0,0.0,0.0,0.0,0.0,0.29037410223694565
1666089166213184802,0.0,0.0,0.0,0.0,0.0,0.2921991500820142
1666089166258635823,0.0,0.0,0.0,0.0,0.0,0.2813075372927386
1666089166383075270,0.0,0.0,0.0,0.0,0.0,0.2736585567475931
1666089166478341022,0.0,0.0,0.0,0.0,0.0,0.2543090628816884
1666089166561185208,0.0,0.0,0.0,0.0,0.0,0.2217771615562655
1666089166575553218,0.0,0.0,0.0,0.0,0.0,0.21623672063550797
1666089166681540458,0.0,0.0,0.0,0.0,0.0,0.17453292519943245
1666089166725182849,0.0,0.0,0.0,0.0,0.0,0.17453292519943245
1666089166817266498,0.0,0.0,0.0,0.0,0.0,0.17453292519943245
1666089166862147178,0.0,0.0,0.0,0.0,0.0,0.17453292519943245
1666089166937802364,0.0,0.0,0.0,0.0,0.0,0.17453292519943245
1666089167026370448,0.0,0.0,0.0,0.0,0.0,-4.996003610813204e-16
1666089167068875653,0.0,0.0,0.0,0.0,0.0,-4.996003610813204e-16
1666089167157280814,0.0,0.0,0.0,0.0,0.0,-4.996003610813204e-16
1666089167200583318,0.0,0.0,0.0,0.0,0.0,-4.996003610813204e-16
1666089167276863985,0.0,0.0,0.0,0.0,0.0,-4.996003610813204e-16
1666089167369431643,0.0,0.0,0.0,0.0,0.0,-4.996003610813204e-16
1666089167413155385,0.0,0.0,0.0,0.0,0.0,-4.996003610813204e-16
1666089167507491875,0.0,0.0,0.0,0.0,0.0,-4.996003610813204e-16
1666089167584237596,0.0,0.0,0.0,0.0,0.0,-4.996003610813204e-16
1666089167629076737,0.0,0.0,0.0,0.0,0.0,-4.996003610813204e-16
1666089167717791898,0.0,0.0,0.0,0.0,0.0,-4.996003610813204e-16
1666089167812242192,0.0,0.0,0.0,0.0,0.0,0.17453292519943245
1666089167837181805,0.0,0.0,0.0,0.0,0.0,0.17453292519943245
1666089167885570506,0.3837438821792602,0.0,0.0,0.0,0.0,0.17453292519943245
1666089168015475416,0.4061300158500671,0.0,0.0,0.0,0.0,0.17453292519943245
1666089168061711225,0.40577465295791626,0.0,0.0,0.0,0.0,0.17453292519943245
1666089168117603397,0.4110696613788605,0.0,0.0,0.0,0.0,0.17453292519943245
1666089168181725051,0.4143880903720855,0.0,0.0,0.0,0.0,0.17453292519943245
1666089168267022443,0.41525283455848694,0.0,0.0,0.0,0.0,0.17453292519943245
1666089168314137908,0.41320508718490595,0.0,0.0,0.0,0.0,0.17453292519943245
1666089168356265441,0.40853846073150635,0.0,0.0,0.0,0.0,0.17453292519943245
1666089168443319516,0.40036517381668085,0.0,0.0,0.0,0.0,0.17453292519943245
1666089168477321918,0.39374104142189026,0.0,0.0,0.0,0.0,0.17453292519943245
1666089168607967910,0.38437625765800476,0.0,0.0,0.0,0.0,0.17453292519943245
1666089168693523708,0.0,0.0,0.0,0.0,0.0,0.17453292519943245
1666089168737551609,0.0,0.0,0.0,0.0,0.0,0.17453292519943245
1666089168785186398,0.0,0.0,0.0,0.0,0.0,0.17453292519943245
1666089168857836657,0.0,0.0,0.0,0.0,0.0,0.17453292519943245
1666089168904941009,0.0,0.0,0.0,0.0,0.0,0.17453292519943245
1666089168996449080,0.0,0.0,0.0,0.0,0.0,0.17453292519943245
1666089169091281304,0.0,0.0,0.0,0.0,0.0,-4.996003610813204e-16
1666089169093561534,0.0,0.0,0.0,0.0,0.0,-4.996003610813204e-16
1666089169157570287,0.0,0.0,0.0,0.0,0.0,0.17453292519943245
1666089169245323883,0.0,0.0,0.0,0.0,0.0,0.17453292519943245
1666089169337231391,0.0,0.0,0.0,0.0,0.0,0.17453292519943245
1666089169416542403,0.0,0.0,0.0,0.0,0.0,0.17453292519943245
1666089169503564612,0.0,0.0,0.0,0.0,0.0,0.17453292519943245
1666089169545839015,0.0,0.0,0.0,0.0,0.0,0.17453292519943245
1666089169632991489,0.0,0.0,0.0,0.0,0.0,0.17453292519943245
1666089169683956513,0.0,0.0,0.0,0.0,0.0,0.17453292519943245
1666089169735590805,0.0,0.0,0.0,0.0,0.0,0.17453292519943245
1666089169841556794,0.0,0.0,0.0,0.0,0.0,0.17453292519943245
1666089169973622516,0.0,0.0,0.0,0.0,0.0,0.17453292519943245
1666089170063533242,0.0,0.0,0.0,0.0,0.0,0.17453292519943245
1666089170142491297,0.0,0.0,0.0,0.0,0.0,0.17453292519943245
1666089170277730833,0.0,0.0,0.0,0.0,0.0,0.17453292519943245
1666089170321178681,0.0,0.0,0.0,0.0,0.0,0.17453292519943245
1666089170441323030,0.0,0.0,0.0,0.0,0.0,0.17453292519943245
