%time,field.linear.x,field.linear.y,field.linear.z,field.angular.x,field.angular.y,field.angular.z
1666089132742975688,0.015,0.0,0.0,0.0,0.0,-0.03837082124494934
1666089132790922750,0.03,0.0,0.0,0.0,0.0,-0.07674164248989868
1666089132840895920,0.045,0.0,0.0,0.0,0.0,-0.114206636664138
1666089132890893281,0.06,0.0,0.0,0.0,0.0,-0.1516716308383773
1666089132942577003,0.075,0.0,0.0,0.0,0.0,-0.19300982734196462
1666089132990766424,0.09,0.0,0.0,0.0,0.0,-0.2343480238455519
1666089133041056665,0.105,0.0,0.0,0.0,0.0,-0.2756862203491392
1666089133090991598,0.12,0.0,0.0,0.0,0.0,-0.32479696750500864
1666089133141135084,0.135,0.0,0.0,0.0,0.0,-0.3739077146608781
1666089133190998054,0.15000000000000002,0.0,0.0,0.0,0.0,-0.43189267846325313
1666089133241067259,0.16500000000000004,0.0,0.0,0.0,0.0,-0.4898776422656282
1666089133290808864,0.17775270060486933,0.0,0.0,0.0,0.0,-0.5898776422656282
1666089133340986945,0.19050540120973863,0.0,0.0,0.0,0.0,-0.6898776422656282
1666089133391245585,0.20550540120973865,0.0,0.0,0.0,0.0,-0.741516300437526
1666089133441347255,0.22050540120973866,0.0,0.0,0.0,0.0,-0.7931549586094239
1666089133491212726,0.2252915306014841,0.0,0.0,0.0,0.0,-0.8931549586094238
1666089133540764953,0.23007765999322952,0.0,0.0,0.0,0.0,-0.9931549586094238
1666089133590806293,0.2450776599932295,0.0,0.0,0.0,0.0,-1.0328638381894097
1666089133640920419,0.2600776599932295,0.0,0.0,0.0,0.0,-1.07467761889127
1666089133690878817,0.27507765999322953,0.0,0.0,0.0,0.0,-1.11649139959313
1666089133740902760,0.29007765999322954,0.0,0.0,0.0,0.0,-1.1607658690283718
1666089133792060276,0.30507765999322956,0.0,0.0,0.0,0.0,-1.2050403384636135
1666089133841598005,0.32007765999322957,0.0,0.0,0.0,0.0,-1.2504275859577967
1666089133891549590,0.3350776599932296,0.0,0.0,0.0,0.0,-1.29581483345198
1666089133940863783,0.3500776599932296,0.0,0.0,0.0,0.0,-1.3386558768399233
1666089133990778094,0.2165645807981491,0.0,0.0,0.0,0.0,-1.2217304763960313
1666089134041061317,0.2165645807981491,0.0,0.0,0.0,0.0,-1.2217304763960313
1666089134091955838,0.21652446687221527,0.0,0.0,0.0,0.0,-1.2217304763960313
1666089134141396537,0.21652446687221527,0.0,0.0,0.0,0.0,-1.2217304763960313
1666089134190811392,0.23152446687221528,0.0,0.0,0.0,0.0,-1.2217304763960313
1666089134241065353,0.2465244668722153,0.0,0.0,0.0,0.0,-1.2217304763960313
1666089134290714668,0.2615244668722153,0.0,0.0,0.0,0.0,-1.2217304763960313
1666089134341206412,0.11152446687221529,0.0,0.0,0.0,0.0,-1.0215202314960246
1666089134392472506,0.0,0.0,0.0,0.0,0.0,-0.7621497063529247
1666089134441196066,0.0,0.0,0.0,0.0,0.0,-0.7621497063529247
1666089134490703234,0.0,0.0,0.0,0.0,0.0,-0.7621497063529247
1666089134541136625,0.0,0.0,0.0,0.0,0.0,-0.6064523343859112
1666089134590734215,0.0,0.0,0.0,0.0,0.0,-0.49150338133723354
1666089134641357851,0.0,0.0,0.0,0.0,0.0,-0.40050516877226117
1666089134690797840,0.0,0.0,0.0,0.0,0.0,-0.40050516877226117
1666089134741075630,0.0,0.0,0.0,0.0,0.0,-0.3048019556968594
1666089134791853141,0.0,0.0,0.0,0.0,0.0,-0.3048019556968594
1666089134840854266,0.0,0.0,0.0,0.0,0.0,-0.17453292519943345
1666089134891316364,0.0,0.0,0.0,0.0,0.0,-4.996003610813204e-16
1666089134942049026,0.0,0.0,0.0,0.0,0.0,-4.996003610813204e-16
1666089134991052694,0.0,0.0,0.0,0.0,0.0,-4.996003610813204e-16
1666089135041218490,0.0,0.0,0.0,0.0,0.0,-4.996003610813204e-16
1666089135091489088,0.0,0.0,0.0,0.0,0.0,-4.996003610813204e-16
1666089135140948254,0.0,0.0,0.0,0.0,0.0,-4.996003610813204e-16
1666089135191048879,0.0,0.0,0.0,0.0,0.0,-4.996003610813204e-16
1666089135241008651,0.0,0.0,0.0,0.0,0.0,-4.996003610813204e-16
1666089135290745993,0.0,0.0,0.0,0.0,0.0,-4.996003610813204e-16
1666089135340971603,0.0,0.0,0.0,0.0,0.0,-4.996003610813204e-16
1666089135391057124,0.0,0.0,0.0,0.0,0.0,-4.996003610813204e-16
1666089135441002338,0.0,0.0,0.0,0.0,0.0,0.0999999999999995
1666089135491383576,0.0,0.0,0.0,0.0,0.0,0.17453292519943245
1666089135541104567,0.0,0.0,0.0,0.0,0.0,0.17453292519943245
1666089135590894347,0.0,0.0,0.0,0.0,0.0,0.17453292519943245
1666089135642157014,0.0,0.0,0.0,0.0,0.0,0.17453292519943245
1666089135690845173,0.0,0.0,0.0,0.0,0.0,0.17453292519943245
1666089135741026922,0.0,0.0,0.0,0.0,0.0,0.17453292519943245
1666089135791528830,0.0,0.0,0.0,0.0,0.0,0.17453292519943245
1666089135841185340,0.0,0.0,0.0,0.0,0.0,0.17453292519943245
1666089135890865936,0.0,0.0,0.0,0.0,0.0,0.17453292519943245
1666089135941059077,0.0,0.0,0.0,0.0,0.0,0.07453292519943244
1666089135990949696,0.0,0.0,0.0,0.0,0.0,-4.996003610813204e-16
1666089136041488424,0.0,0.0,0.0,0.0,0.0,-4.996003610813204e-16
1666089136091281838,0.0,0.0,0.0,0.0,0.0,-4.996003610813204e-16
1666089136141053022,0.0,0.0,0.0,0.0,0.0,-4.996003610813204e-16
1666089136191211968,0.0,0.0,0.0,0.0,0.0,-4.996003610813204e-16
1666089136241123965,0.0,0.0,0.0,0.0,0.0,-4.996003610813204e-16
1666089136290730690,0.0,0.0,0.0,0.0,0.0,-4.996003610813204e-16
1666089136341519886,0.0,0.0,0.0,0.0,0.0,0.0999999999999995
1666089136390916565,0.0,0.0,0.0,0.0,0.0,0.17453292519943245
1666089136442596148,0.0,0.0,0.0,0.0,0.0,0.17453292519943245
1666089136491171923,0.0,0.0,0.0,0.0,0.0,0.17453292519943245
1666089136544761824,0.0,0.0,0.0,0.0,0.0,0.17453292519943245
1666089136590986145,0.0,0.0,0.0,0.0,0.0,0.17453292519943245
1666089136641580319,0.0,0.0,0.0,0.0,0.0,0.23010869155855607
1666089136691004291,0.0,0.0,0.0,0.0,0.0,0.23010869155855607
1666089136744414028,0.0,0.0,0.0,0.0,0.0,0.17453292519943245
1666089136790725707,0.0,0.0,0.0,0.0,0.0,0.17453292519943245
1666089136841313136,0.0,0.0,0.0,0.0,0.0,0.17453292519943245
1666089136892972094,0.0,0.0,0.0,0.0,0.0,0.17453292519943245
1666089136941689302,0.0,0.0,0.0,0.0,0.0,0.17453292519943245
1666089136990751928,0.0,0.0,0.0,0.0,0.0,0.17453292519943245
1666089137041041690,0.0,0.0,0.0,0.0,0.0,0.17453292519943245
1666089137091777601,0.0,0.0,0.0,0.0,0.0,0.17453292519943245
1666089137141011765,0.0,0.0,0.0,0.0,0.0,0.17453292519943245
1666089137191024773,0.0,0.0,0.0,0.0,0.0,0.17453292519943245
1666089137241111159,0.0,0.0,0.0,0.0,0.0,0.17453292519943245
1666089137291082339,0.0,0.0,0.0,0.0,0.0,0.07453292519943244
1666089137341267728,0.0,0.0,0.0,0.0,0.0,-4.996003610813204e-16
1666089137391193167,0.0,0.0,0.0,0.0,0.0,-4.996003610813204e-16
1666089137440930648,0.0,0.0,0.0,0.0,0.0,-4.996003610813204e-16
1666089137491276698,0.0,0.0,0.0,0.0,0.0,-4.996003610813204e-16
1666089137542549534,0.0,0.0,0.0,0.0,0.0,-4.996003610813204e-16
1666089137591557650,0.0,0.0,0.0,0.0,0.0,-4.996003610813204e-16
1666089137641202716,0.0,0.0,0.0,0.0,0.0,-4.996003610813204e-16
1666089137691594534,0.0,0.0,0.0,0.0,0.0,-4.996003610813204e-16
1666089137741225850,0.0,0.0,0.0,0.0,0.0,-4.996003610813204e-16
1666089137791087252,0.0,0.0,0.0,0.0,0.0,-0.1000000000000005
1666089137841161820,0.0,0.0,0.0,0.0,0.0,-0.17453292519943345
1666089137890761075,0.0,0.0,0.0,0.0,0.0,-0.17453292519943345
1666089137941564331,0.0,0.0,0.0,0.0,0.0,-0.17453292519943345
1666089137991009414,0.0,0.0,0.0,0.0,0.0,-0.2268194649892369
1666089138041161354,0.0,0.0,0.0,0.0,0.0,-0.2268194649892369
1666089138091387675,0.0,0.0,0.0,0.0,0.0,-0.25529187614931526
1666089138141935227,0.0,0.0,0.0,0.0,0.0,-0.27278778600685694
1666089138191445155,0.0,0.0,0.0,0.0,0.0,-0.28871558984296464
1666089138241008902,0.0,0.0,0.0,0.0,0.0,-0.28871558984296464
1666089138290892457,0.0,0.0,0.0,0.0,0.0,-0.3016975083270826
1666089138341150840,0.0,0.0,0.0,0.0,0.0,-0.31499602498298485
1666089138391443565,0.0,0.0,0.0,0.0,0.0,-0.31499602498298485
1666089138441223347,0.0,0.0,0.0,0.0,0.0,-0.32187418579512256
1666089138491482558,0.0,0.0,0.0,0.0,0.0,-0.3234526318935915
1666089138540987636,0.0,0.0,0.0,0.0,0.0,-0.3234526318935915
1666089138590872548,0.0,0.0,0.0,0.0,0.0,-0.33516694911477696
1666089138641262041,0.0,0.0,0.0,0.0,0.0,-0.33516694911477696
1666089138691250492,0.0,0.0,0.0,0.0,0.0,-0.35328153698298054
1666089138741936023,0.0,0.0,0.0,0.0,0.0,-0.3490658503988664
1666089138791742954,0.0,0.0,0.0,0.0,0.0,-0.3490658503988664
1666089138841072668,0.0,0.0,0.0,0.0,0.0,-0.3592852400785149
1666089138890705516,0.0,0.0,0.0,0.0,0.0,-0.3592852400785149
1666089138941025844,0.0,0.0,0.0,0.0,0.0,-0.3815464095575432
1666089138992230764,0.0,0.0,0.0,0.0,0.0,-0.38350814267659405
1666089139040869204,0.0,0.0,0.0,0.0,0.0,-0.38350814267659405
1666089139091107954,0.0,0.0,0.0,0.0,0.0,-0.39829414613111686
1666089139141108877,0.015,0.0,0.0,0.0,0.0,-0.3890999824745372
1666089139192220919,0.03,0.0,0.0,0.0,0.0,-0.37404108816576925
1666089139242342599,0.045,0.0,0.0,0.0,0.0,-0.3589821938570013
1666089139291656187,0.06,0.0,0.0,0.0,0.0,-0.3449130773909886
1666089139341077253,0.075,0.0,0.0,0.0,0.0,-0.33793168932837636
1666089139390883848,0.09,0.0,0.0,0.0,0.0,-0.33095030126576414
1666089139440732212,0.105,0.0,0.0,0.0,0.0,-0.3245709508367609
1666089139491633647,0.12,0.0,0.0,0.0,0.0,-0.31859185877177726
1666089139541187324,0.135,0.0,0.0,0.0,0.0,-0.3126127667067936
1666089139591487472,0.15000000000000002,0.0,0.0,0.0,0.0,-0.30057214217982087
1666089139640752493,0.16500000000000004,0.0,0.0,0.0,0.0,-0.2885315176528481
1666089139690936532,0.18000000000000005,0.0,0.0,0.0,0.0,-0.2836487557064692
1666089139740900122,0.19500000000000006,0.0,0.0,0.0,0.0,-0.27876599376009026
1666089139790980571,0.21000000000000008,0.0,0.0,0.0,0.0,-0.27411417243817143
1666089139841264383,0.2250000000000001,0.0,0.0,0.0,0.0,-0.2694623511162526
1666089139892151139,0.2400000000000001,0.0,0.0,0.0,0.0,-0.2649868421407526
1666089139942408484,0.2550000000000001,0.0,0.0,0.0,0.0,-0.26051133316525255
1666089139990791059,0.27000000000000013,0.0,0.0,0.0,0.0,-0.25648302115053434
1666089140041037323,0.28500000000000014,0.0,0.0,0.0,0.0,-0.2524339910581626
1666089140090949828,0.30000000000000016,0.0,0.0,0.0,0.0,-0.24838496096579085
1666089140140896513,0.31500000000000017,0.0,0.0,0.0,0.0,-0.2447608187780364
1666089140191231816,0.3300000000000002,0.0,0.0,0.0,0.0,-0.24113667659028196
1666089140240774442,0.3450000000000002,0.0,0.0,0.0,0.0,-0.23766800513741573
1666089140290944051,0.3600000000000002,0.0,0.0,0.0,0.0,-0.2341993336845495
1666089140340954407,0.3750000000000002,0.0,0.0,0.0,0.0,-0.2307306622316833
1666089140390981640,0.39000000000000024,0.0,0.0,0.0,0.0,-0.22737076735888986
1666089140441239257,0.40500000000000025,0.0,0.0,0.0,0.0,-0.22403874297172466
1666089140490879022,0.42000000000000026,0.0,0.0,0.0,0.0,-0.22071274456148282
1666089140540874115,0.4350000000000003,0.0,0.0,0.0,0.0,-0.21732469251494133
1666089140590853554,0.4500000000000003,0.0,0.0,0.0,0.0,-0.21393664046839983
1666089140641026178,0.4650000000000003,0.0,0.0,0.0,0.0,-0.2105601428646575
1666089140690958535,0.4800000000000003,0.0,0.0,0.0,0.0,-0.2074211669940542
1666089140740779724,0.49500000000000033,0.0,0.0,0.0,0.0,-0.2042821911234509
1666089140791078957,0.5100000000000003,0.0,0.0,0.0,0.0,-0.20183401953553295
1666089140841605509,0.5250000000000004,0.0,0.0,0.0,0.0,-0.19938584794761502
1666089140890774466,0.5400000000000004,0.0,0.0,0.0,0.0,-0.19841156967120707
1666089140940726074,0.5550000000000004,0.0,0.0,0.0,0.0,-0.19743729139479915
1666089140990924094,0.5700000000000004,0.0,0.0,0.0,0.0,-0.19933910613067624
1666089141040934551,0.5761035680770873,0.0,0.0,0.0,0.0,-0.2035464495420456
1666089141091811631,0.5761035680770873,0.0,0.0,0.0,0.0,-0.2035464495420456
1666089141141014582,0.5784454941749572,0.0,0.0,0.0,0.0,-0.20904681086540222
1666089141190790356,0.5784454941749572,0.0,0.0,0.0,0.0,-0.20904681086540222
1666089141241435085,0.5784454941749572,0.0,0.0,0.0,0.0,-0.20904681086540222
1666089141290704166,0.5722858309745789,0.0,0.0,0.0,0.0,-0.2193557620048523
1666089141341675862,0.5700640082359314,0.0,0.0,0.0,0.0,-0.2231898158788681
1666089141390856356,0.5700640082359314,0.0,0.0,0.0,0.0,-0.2231898158788681
1666089141440782102,0.5661250352859496,0.0,0.0,0.0,0.0,-0.22729294002056122
1666089141490822853,0.5661250352859496,0.0,0.0,0.0,0.0,-0.22729294002056122
1666089141540989681,0.5539615154266357,0.0,0.0,0.0,0.0,-0.2313283085823059
1666089141590843478,0.4497208297252655,0.0,0.0,0.0,0.0,-0.1451645940542221
1666089141640735980,0.4497208297252655,0.0,0.0,0.0,0.0,-0.1451645940542221
1666089141696084569,0.4647208297252655,0.0,0.0,0.0,0.0,-0.16184799270733347
1666089141740923584,0.47972082972526553,0.0,0.0,0.0,0.0,-0.17853139136044482
1666089141791383539,0.49472082972526554,0.0,0.0,0.0,0.0,-0.20391618082181173
1666089141840848404,0.5097208297252656,0.0,0.0,0.0,0.0,-0.22933284578299507
1666089141890800712,0.5128673911094666,0.0,0.0,0.0,0.0,-0.2527339458465576
1666089141940774566,0.5128673911094666,0.0,0.0,0.0,0.0,-0.2527339458465576
1666089141990949150,0.5111706256866455,0.0,0.0,0.0,0.0,-0.2583750784397125
1666089142041788072,0.5111706256866455,0.0,0.0,0.0,0.0,-0.2583750784397125
1666089142090700703,0.5111383199691772,0.0,0.0,0.0,0.0,-0.26342859864234924
1666089142141352766,0.39593160152435297,0.0,0.0,0.0,0.0,-0.182772696018219
1666089142190733295,0.410931601524353,0.0,0.0,0.0,0.0,-0.19482075519469277
1666089142241228713,0.425931601524353,0.0,0.0,0.0,0.0,-0.20686881437116655
1666089142291545364,0.440931601524353,0.0,0.0,0.0,0.0,-0.21891687354764033
1666089142340743741,0.455931601524353,0.0,0.0,0.0,0.0,-0.30055228023525016
1666089142391398902,0.47093160152435304,0.0,0.0,0.0,0.0,-0.38218768692286
1666089142440941277,0.4747638293218873,0.0,0.0,0.0,0.0,-0.48218768692285996
1666089142491243419,0.4572565595822529,0.0,0.0,0.0,0.0,-0.5821876869228599
1666089142540845623,0.4397492898426185,0.0,0.0,0.0,0.0,-0.6821876869228599
1666089142590731689,0.4222420201029842,0.0,0.0,0.0,0.0,-0.7821876869228599
1666089142640841923,0.4372420201029842,0.0,0.0,0.0,0.0,-0.8324640101429306
1666089142690870559,0.4522420201029842,0.0,0.0,0.0,0.0,-0.8827403333630013
1666089142741041290,0.4672420201029842,0.0,0.0,0.0,0.0,-0.9330166565830719
1666089142790937435,0.4822420201029842,0.0,0.0,0.0,0.0,-0.9709056214519266
1666089142841283677,0.49724202010298424,0.0,0.0,0.0,0.0,-1.0038520142618697
1666089142890808692,0.5122420201029843,0.0,0.0,0.0,0.0,-1.0367984070718126
1666089142940757550,0.5169765949249268,0.0,0.0,0.0,0.0,-1.0471975511965983
1666089142991353293,0.5197027325630188,0.0,0.0,0.0,0.0,-1.0471975511965983
1666089143041323583,0.5229334235191345,0.0,0.0,0.0,0.0,-1.0471975511965983
1666089143090801806,0.5229334235191345,0.0,0.0,0.0,0.0,-1.0471975511965983
1666089143140761178,0.5302229523658752,0.0,0.0,0.0,0.0,-1.0471975511965983
1666089143191005991,0.43731746077537537,0.0,0.0,0.0,0.0,-0.8726646259971653
1666089143240906149,0.43724638223648066,0.0,0.0,0.0,0.0,-0.8726646259971653
1666089143290716441,0.43724638223648066,0.0,0.0,0.0,0.0,-0.8726646259971653
1666089143341091961,0.45224638223648067,0.0,0.0,0.0,0.0,-0.8726646259971653
1666089143390948449,0.4672463822364807,0.0,0.0,0.0,0.0,-0.8726646259971653
1666089143441205414,0.4822463822364807,0.0,0.0,0.0,0.0,-0.8460823202324785
1666089143490847994,0.4972463822364807,0.0,0.0,0.0,0.0,-0.8195000144677916
1666089143541073888,0.5122463822364807,0.0,0.0,0.0,0.0,-0.7954466782407277
1666089143592166397,0.5272463822364807,0.0,0.0,0.0,0.0,-0.7712231375127866
1666089143642265789,0.524855375289917,0.0,0.0,0.0,0.0,-0.5235987755982994
1666089143690703857,0.524855375289917,0.0,0.0,0.0,0.0,-0.5235987755982994
1666089143740798857,0.539855375289917,0.0,0.0,0.0,0.0,-0.488978220033577
1666089143791540257,0.554855375289917,0.0,0.0,0.0,0.0,-0.4548005501852148
1666089143841193508,0.569855375289917,0.0,0.0,0.0,0.0,-0.42062288033685263
1666089143890965814,0.584855375289917,0.0,0.0,0.0,0.0,-0.38644521048849045
1666089143940768197,0.5874125957489014,0.0,0.0,0.0,0.0,-0.17453292519943345
1666089143990759450,0.5874125957489014,0.0,0.0,0.0,0.0,-0.17453292519943345
1666089144041092886,0.6024125957489014,0.0,0.0,0.0,0.0,-0.08486616370116941
1666089144090794648,0.6037194728851318,0.0,0.0,0.0,0.0,-0.07705393433570862
1666089144140792447,0.5936054587364197,0.0,0.0,0.0,0.0,-0.053794506937265396
1666089144190808000,0.5926814675331115,0.0,0.0,0.0,0.0,-0.05260419100522995
1666089144241034177,0.591096829629488,0.0,0.0,0.0,0.0,0.047395808994770056
1666089144290749469,0.5908575057983398,0.0,0.0,0.0,0.0,0.0624985545873642
1666089144341147050,0.5774631500244141,0.0,0.0,0.0,0.0,-0.03275980055332184
1666089144391647348,0.5774631500244141,0.0,0.0,0.0,0.0,-0.03275980055332184
1666089144441390340,0.5623508095741272,0.0,0.0,0.0,0.0,-0.024354593828320503
1666089144490794066,0.5623508095741272,0.0,0.0,0.0,0.0,-0.024354593828320503
1666089144540954833,0.5427154302597046,0.0,0.0,0.0,0.0,-0.021160269156098366
1666089144592181439,0.529518723487854,0.0,0.0,0.0,0.0,-4.996003610813204e-16
1666089144640813046,0.5111749768257141,0.0,0.0,0.0,0.0,-4.996003610813204e-16
1666089144690873156,0.5174426436424255,0.0,0.0,0.0,0.0,0.09806238859891891
1666089144741704700,0.5174426436424255,0.0,0.0,0.0,0.0,0.09806238859891891
1666089144791231708,0.47716248483246243,0.0,0.0,0.0,0.0,-0.0019376114010810908
1666089144841543042,0.4733490943908691,0.0,0.0,0.0,0.0,-0.011404779739677906
1666089144891567887,0.48262925220809394,0.0,0.0,0.0,0.0,0.0885952202603221
1666089144941046443,0.43563076853752136,0.0,0.0,0.0,0.0,-4.996003610813204e-16
1666089144991084490,0.41343995928764343,0.0,0.0,0.0,0.0,-0.013370023109018803
1666089145040920727,0.41343995928764343,0.0,0.0,0.0,0.0,-0.013370023109018803
1666089145090936312,0.3927491009235382,0.0,0.0,0.0,0.0,-0.014706899411976337
1666089145141074809,0.3688951432704925,0.0,0.0,0.0,0.0,-0.01647139899432659
1666089145191165842,0.3688951432704925,0.0,0.0,0.0,0.0,-0.01647139899432659
1666089145241431841,0.2238867742274292,0.0,0.0,0.0,0.0,0.08352860100567341
1666089145291075281,0.086282462011395,0.0,0.0,0.0,0.0,0.18352860100567342
1666089145340799569,0.0,0.0,0.0,0.0,0.0,0.2462319135849583
1666089145391408893,0.0,0.0,0.0,0.0,0.0,0.25284798850344903
1666089145440714248,0.0,0.0,0.0,0.0,0.0,0.25284798850344903
1666089145492733547,0.0,0.0,0.0,0.0,0.0,0.25598614645584067
1666089145540885305,0.0,0.0,0.0,0.0,0.0,0.25598614645584067
1666089145591467146,0.0,0.0,0.0,0.0,0.0,0.2688367029329067
1666089145640736929,0.0,0.0,0.0,0.0,0.0,0.26795921838707465
1666089145690777329,0.0,0.0,0.0,0.0,0.0,0.26795921838707465
1666089145741007294,0.0,0.0,0.0,0.0,0.0,0.2767080694775682
1666089145791328569,0.0,0.0,0.0,0.0,0.0,0.2767080694775682
1666089145841000356,0.0,0.0,0.0,0.0,0.0,0.2760572023433686
1666089145890818750,0.0,0.0,0.0,0.0,0.0,0.2760572023433686
1666089145941467130,0.0,0.0,0.0,0.0,0.0,0.2801537528981098
1666089145991058083,0.0,0.0,0.0,0.0,0.0,0.2801537528981098
1666089146041972845,0.0,0.0,0.0,0.0,0.0,0.2880769885846316
1666089146091731679,0.0,0.0,0.0,0.0,0.0,0.2743598411972155
1666089146141501491,0.0,0.0,0.0,0.0,0.0,0.2743598411972155
1666089146190880675,0.0,0.0,0.0,0.0,0.0,0.2713993053158328
1666089146241483099,0.015,0.0,0.0,0.0,0.0,0.26582947490572445
1666089146290891658,0.03,0.0,0.0,0.0,0.0,0.2602596444956161
1666089146340862468,0.045,0.0,0.0,0.0,0.0,0.2492491523691136
1666089146391176419,0.06,0.0,0.0,0.0,0.0,0.2382386602426111
1666089146440821861,0.075,0.0,0.0,0.0,0.0,0.2277212829377015
1666089146490887004,0.09,0.0,0.0,0.0,0.0,0.2172039056327919
1666089146540867703,0.105,0.0,0.0,0.0,0.0,0.20764677522948524
1666089146590915357,0.12,0.0,0.0,0.0,0.0,0.19808964482617858
1666089146641967330,0.135,0.0,0.0,0.0,0.0,0.18894498651771144
1666089146690995165,0.15000000000000002,0.0,0.0,0.0,0.0,0.1801592030316192
1666089146740805719,0.16500000000000004,0.0,0.0,0.0,0.0,0.17168334130104995
1666089146791168229,0.18000000000000005,0.0,0.0,0.0,0.0,0.1632074795704807
1666089146840727884,0.19500000000000006,0.0,0.0,0.0,0.0,0.1549847227182985
1666089146891066319,0.21000000000000008,0.0,0.0,0.0,0.0,0.14676196586611628
1666089146941277535,0.2250000000000001,0.0,0.0,0.0,0.0,0.13853920901393407
1666089146990785656,0.2400000000000001,0.0,0.0,0.0,0.0,0.13095567875134773
1666089147040707175,0.2550000000000001,0.0,0.0,0.0,0.0,0.1233721484887614
1666089147091020862,0.27000000000000013,0.0,0.0,0.0,0.0,0.12325262330490595
1666089147141012089,0.28500000000000014,0.0,0.0,0.0,0.0,0.12313309812105051
1666089147191129632,0.30000000000000016,0.0,0.0,0.0,0.0,0.1230486470540514
1666089147241078770,0.31500000000000017,0.0,0.0,0.0,0.0,0.11496585083523413
1666089147290886124,0.3300000000000002,0.0,0.0,0.0,0.0,0.10688305461641685
1666089147341457859,0.3450000000000002,0.0,0.0,0.0,0.0,0.0987312116023972
1666089147390788813,0.3600000000000002,0.0,0.0,0.0,0.0,0.09057936858837755
1666089147441090790,0.3750000000000002,0.0,0.0,0.0,0.0,0.08205623611293394
1666089147490885945,0.39000000000000024,0.0,0.0,0.0,0.0,0.07353310363749034
1666089147540849996,0.40500000000000025,0.0,0.0,0.0,0.0,0.06500997116204674
1666089147590764424,0.42000000000000026,0.0,0.0,0.0,0.0,0.05582450719222613
1666089147640722931,0.4350000000000003,0.0,0.0,0.0,0.0,0.04568926800203792
1666089147691059211,0.4500000000000003,0.0,0.0,0.0,0.0,0.03408031184262135
1666089147740889590,0.4641572535037994,0.0,0.0,0.0,0.0,0.02312358282506466
1666089147791029518,0.4641572535037994,0.0,0.0,0.0,0.0,0.02312358282506466
1666089147841559444,0.45650151371955866,0.0,0.0,0.0,0.0,0.026312271133065224
1666089147890849881,0.45265609025955195,0.0,0.0,0.0,0.0,0.031829915940761566
1666089147940752712,0.45265609025955195,0.0,0.0,0.0,0.0,0.031829915940761566
1666089147991044243,0.4525739550590515,0.0,0.0,0.0,0.0,0.03540395200252533
1666089148040776234,0.4525739550590515,0.0,0.0,0.0,0.0,0.03540395200252533
1666089148091381070,0.4525739550590515,0.0,0.0,0.0,0.0,0.03540395200252533
1666089148140778587,0.45657241344451904,0.0,0.0,0.0,0.0,0.04023221507668495
1666089148191451692,0.4657256007194519,0.0,0.0,0.0,0.0,0.046877190470695496
1666089148241202996,0.4678802490234375,0.0,0.0,0.0,0.0,0.0533108189702034
1666089148290793720,0.4678802490234375,0.0,0.0,0.0,0.0,0.0533108189702034
1666089148340871662,0.4708980917930603,0.0,0.0,0.0,0.0,0.05967610329389572
1666089148391478233,0.4708980917930603,0.0,0.0,0.0,0.0,0.05967610329389572
1666089148440719216,0.4708980917930603,0.0,0.0,0.0,0.0,0.05967610329389572
1666089148493525709,0.4817456901073455,0.0,0.0,0.0,0.0,0.07456472516059875
1666089148540845333,0.4815324544906616,0.0,0.0,0.0,0.0,0.07445652037858963
1666089148590913232,0.4815324544906616,0.0,0.0,0.0,0.0,0.07445652037858963
1666089148641377868,0.48039996623992914,0.0,0.0,0.0,0.0,0.08826030045747757
1666089148690869617,0.48039996623992914,0.0,0.0,0.0,0.0,0.08826030045747757
1666089148741420807,0.49138357772475505,0.0,0.0,0.0,0.0,0.18826030045747758
1666089148790779466,0.5023671892095809,0.0,0.0,0.0,0.0,0.2882603004574776
1666089148840914787,0.49230679885845,0.0,0.0,0.0,0.0,0.3882603004574776
1666089148890720958,0.48224640850731915,0.0,0.0,0.0,0.0,0.4882603004574776
1666089148940797487,0.4666785681184858,0.0,0.0,0.0,0.0,0.5882603004574776
1666089148992824739,0.4511107277296524,0.0,0.0,0.0,0.0,0.6882603004574775
1666089149040710808,0.4661107277296524,0.0,0.0,0.0,0.0,0.6903551696496258
1666089149091717666,0.4811107277296524,0.0,0.0,0.0,0.0,0.6925663368800127
1666089149142403513,0.4961107277296524,0.0,0.0,0.0,0.0,0.7609664145119128
1666089149190959113,0.5111107277296524,0.0,0.0,0.0,0.0,0.8293664921438131
1666089149240930301,0.5206059217453003,0.0,0.0,0.0,0.0,0.8726646259971643
1666089149291027540,0.4285477697849273,0.0,0.0,0.0,0.0,0.6981317007977313
1666089149340848952,0.4303371085927414,0.0,0.0,0.0,0.0,0.7981317007977313
1666089149391127571,0.4316707551479339,0.0,0.0,0.0,0.0,0.8726646259971643
1666089149440773115,0.43943554162979126,0.0,0.0,0.0,0.0,0.8726646259971643
1666089149491190924,0.4544355416297913,0.0,0.0,0.0,0.0,0.8726646259971643
1666089149540752079,0.4694355416297913,0.0,0.0,0.0,0.0,0.8726646259971643
1666089149591353407,0.43698462843894953,0.0,0.0,0.0,0.0,0.6981317007977313
1666089149641003609,0.43698462843894953,0.0,0.0,0.0,0.0,0.6981317007977313
1666089149690891102,0.43446156382560724,0.0,0.0,0.0,0.0,0.6981317007977313
1666089149740825201,0.43446156382560724,0.0,0.0,0.0,0.0,0.6981317007977313
1666089149791518531,0.43034681677818293,0.0,0.0,0.0,0.0,0.6981317007977313
1666089149840845820,0.44534681677818294,0.0,0.0,0.0,0.0,0.657251252351978
1666089149890853311,0.46034681677818295,0.0,0.0,0.0,0.0,0.6163708039062247
1666089149941477183,0.4329266250133514,0.0,0.0,0.0,0.0,0.3490658503988654
1666089149990883726,0.4329266250133514,0.0,0.0,0.0,0.0,0.3490658503988654
1666089150040794241,0.43340981006622314,0.0,0.0,0.0,0.0,0.17453292519943245
1666089150092536003,0.434049516916275,0.0,0.0,0.0,0.0,0.17453292519943245
1666089150142236624,0.434049516916275,0.0,0.0,0.0,0.0,0.17453292519943245
1666089150191581840,0.44904951691627504,0.0,0.0,0.0,0.0,0.17453292519943245
1666089150240840856,0.44416636742578497,0.0,0.0,0.0,0.0,0.07453292519943244
1666089150291041250,0.4453305304050445,0.0,0.0,0.0,0.0,-4.996003610813204e-16
1666089150340867194,0.448813259601593,0.0,0.0,0.0,0.0,-0.0752502828836441
1666089150391071706,0.448813259601593,0.0,0.0,0.0,0.0,-0.0752502828836441
1666089150441307052,0.44685396552085876,0.0,0.0,0.0,0.0,-0.087504081428051
1666089150490887919,0.4618539655208588,0.0,0.0,0.0,0.0,-0.0862558886299093
1666089150542161423,0.4768539655208588,0.0,0.0,0.0,0.0,-0.08426598149356483
1666089150590803432,0.4918539655208588,0.0,0.0,0.0,0.0,-0.08227607435722037
1666089150640985992,0.5068539655208588,0.0,0.0,0.0,0.0,-0.08028616722087589
1666089150691059646,0.5083737373352051,0.0,0.0,0.0,0.0,-0.09152694046497345
1666089150740975440,0.5083737373352051,0.0,0.0,0.0,0.0,-0.09152694046497345
1666089150790750676,0.5083737373352051,0.0,0.0,0.0,0.0,-0.09152694046497345
1666089150840779595,0.4676069319248199,0.0,0.0,0.0,0.0,-0.11796077340841293
1666089150890842402,0.4676069319248199,0.0,0.0,0.0,0.0,-0.11796077340841293
1666089150941262976,0.3994133174419403,0.0,0.0,0.0,0.0,-0.006574563216418028
1666089150992101724,0.3994133174419403,0.0,0.0,0.0,0.0,-0.006574563216418028
1666089151041798163,0.3994133174419403,0.0,0.0,0.0,0.0,-0.006574563216418028
1666089151090808442,0.4144133174419403,0.0,0.0,0.0,0.0,-0.05761977906050442
1666089151140797965,0.42941331744194033,0.0,0.0,0.0,0.0,-0.10866499490459083
1666089151191664427,0.4371274411678314,0.0,0.0,0.0,0.0,-0.1339096873998642
1666089151240975996,0.3756607472896576,0.0,0.0,0.0,0.0,-0.024605875834822655
1666089151290934323,0.3756607472896576,0.0,0.0,0.0,0.0,-0.024605875834822655
1666089151341053336,0.3906607472896576,0.0,0.0,0.0,0.0,-0.05045724718422922
1666089151391195267,0.4056607472896576,0.0,0.0,0.0,0.0,-0.07630861853363578
1666089151440842983,0.42066074728965763,0.0,0.0,0.0,0.0,-0.10286238070679035
1666089151491822423,0.43566074728965765,0.0,0.0,0.0,0.0,-0.12941614287994493
1666089151541165044,0.36877158284187317,0.0,0.0,0.0,0.0,-0.03568733483552933
1666089151591053859,0.3837715828418732,0.0,0.0,0.0,0.0,-0.061808371925916275
1666089151640811603,0.3987715828418732,0.0,0.0,0.0,0.0,-0.08792940901630322
1666089151691214078,0.4137715828418732,0.0,0.0,0.0,0.0,-0.11962723888575531
1666089151741526773,0.42422726750373835,0.0,0.0,0.0,0.0,-0.15711042284965515
1666089151790811047,0.42422726750373835,0.0,0.0,0.0,0.0,-0.15711042284965515
1666089151842557620,0.4151900112628936,0.0,0.0,0.0,0.0,-0.15969310700893402
1666089151891237190,0.40749502182006836,0.0,0.0,0.0,0.0,-0.16222982108592987
1666089151940737205,0.40025269985198975,0.0,0.0,0.0,0.0,-0.1643349975347519
1666089151991051061,0.40025269985198975,0.0,0.0,0.0,0.0,-0.1643349975347519
1666089152041226401,0.2942401468753814,0.0,0.0,0.0,0.0,-0.055780597031116486
1666089152091773338,0.2942401468753814,0.0,0.0,0.0,0.0,-0.055780597031116486
1666089152140995170,0.2442317484048167,0.0,0.0,0.0,0.0,-0.1557805970311165
1666089152190853735,0.19422334993425197,0.0,0.0,0.0,0.0,-0.2557805970311165
1666089152241510094,0.14421495146368724,0.0,0.0,0.0,0.0,-0.35578059703111653
1666089152291474004,0.10345800779329492,0.0,0.0,0.0,0.0,-0.4557805970311165
1666089152340717437,0.0627010641229026,0.0,0.0,0.0,0.0,-0.5557805970311165
1666089152391332777,0.02995212986274535,0.0,0.0,0.0,0.0,-0.6557805970311165
1666089152441379859,0.0,0.0,0.0,0.0,0.0,-0.7472404583652469
1666089152490913144,0.0,0.0,0.0,0.0,0.0,-0.7785270263816365
1666089152541076759,0.0,0.0,0.0,0.0,0.0,-0.7785270263816365
1666089152590965724,0.0,0.0,0.0,0.0,0.0,-0.8222485343530075
1666089152640804338,0.0,0.0,0.0,0.0,0.0,-0.8121258573551353
1666089152690832832,0.0,0.0,0.0,0.0,0.0,-0.8121258573551353
1666089152740924456,0.0,0.0,0.0,0.0,0.0,-0.8121258573551353
1666089152792484067,0.0,0.0,0.0,0.0,0.0,-0.8043778965188477
1666089152841012680,0.015,0.0,0.0,0.0,0.0,-0.8070248669448571
1666089152890936700,0.03,0.0,0.0,0.0,0.0,-0.8096718373708665
1666089152941180074,0.045,0.0,0.0,0.0,0.0,-0.8123150863162277
1666089152991074566,0.06,0.0,0.0,0.0,0.0,-0.814958335261589
1666089153040692539,0.075,0.0,0.0,0.0,0.0,-0.7963122649080859
1666089153091093080,0.09,0.0,0.0,0.0,0.0,-0.7776661945545829
1666089153142313487,0.105,0.0,0.0,0.0,0.0,-0.7546959612978629
1666089153191063398,0.12,0.0,0.0,0.0,0.0,-0.7317257280411429
1666089153240969572,0.135,0.0,0.0,0.0,0.0,-0.7107042160579324
1666089153291891633,0.15000000000000002,0.0,0.0,0.0,0.0,-0.6896642330708361
1666089153341026596,0.16500000000000004,0.0,0.0,0.0,0.0,-0.6686242500837398
1666089153391274842,0.18000000000000005,0.0,0.0,0.0,0.0,-0.6495388688194673
1666089153442909582,0.19500000000000006,0.0,0.0,0.0,0.0,-0.6331204567945126
1666089153490920834,0.21000000000000008,0.0,0.0,0.0,0.0,-0.6167020447695578
1666089153541317654,0.2250000000000001,0.0,0.0,0.0,0.0,-0.6011838272363738
1666089153591141918,0.2400000000000001,0.0,0.0,0.0,0.0,-0.5856656097031897
1666089153641004391,0.2550000000000001,0.0,0.0,0.0,0.0,-0.5713042214510754
1666089153692047551,0.27000000000000013,0.0,0.0,0.0,0.0,-0.5569428331989611
1666089153741195853,0.28500000000000014,0.0,0.0,0.0,0.0,-0.5407696351386795
1666089153790959034,0.30000000000000016,0.0,0.0,0.0,0.0,-0.5219371759362436
1666089153841263393,0.31500000000000017,0.0,0.0,0.0,0.0,-0.5031047167338076
1666089153890873846,0.3300000000000002,0.0,0.0,0.0,0.0,-0.49068355515192985
1666089153940841524,0.3450000000000002,0.0,0.0,0.0,0.0,-0.4783401759517288
1666089153991088268,0.3600000000000002,0.0,0.0,0.0,0.0,-0.4659967967515277
1666089154040814081,0.3750000000000002,0.0,0.0,0.0,0.0,-0.44953123619901025
1666089154091452548,0.39000000000000024,0.0,0.0,0.0,0.0,-0.436863963033207
1666089154140700066,0.40500000000000025,0.0,0.0,0.0,0.0,-0.4241966898674038
1666089154191128322,0.42000000000000026,0.0,0.0,0.0,0.0,-0.4112022636687786
1666089154241541794,0.4350000000000003,0.0,0.0,0.0,0.0,-0.3982078374701534
1666089154290853459,0.4500000000000003,0.0,0.0,0.0,0.0,-0.38468283970046097
1666089154340747087,0.4650000000000003,0.0,0.0,0.0,0.0,-0.3711578419307685
1666089154391178472,0.4800000000000003,0.0,0.0,0.0,0.0,-0.35708693568661504
1666089154440762866,0.49500000000000033,0.0,0.0,0.0,0.0,-0.34301602944246157
1666089154491224732,0.5100000000000003,0.0,0.0,0.0,0.0,-0.32855605762506335
1666089154542013401,0.5250000000000004,0.0,0.0,0.0,0.0,-0.3140960858076651
1666089154591206808,0.5400000000000004,0.0,0.0,0.0,0.0,-0.29932411531683994
1666089154640791738,0.5550000000000004,0.0,0.0,0.0,0.0,-0.28393189079021947
1666089154690738248,0.5700000000000004,0.0,0.0,0.0,0.0,-0.268539666263599
1666089154740820808,0.5850000000000004,0.0,0.0,0.0,0.0,-0.2531474417369785
1666089154791096749,0.6000000000000004,0.0,0.0,0.0,0.0,-0.23562403514869523
1666089154841127570,0.6150000000000004,0.0,0.0,0.0,0.0,-0.21794177080688543
1666089154890838732,0.6300000000000004,0.0,0.0,0.0,0.0,-0.1840014133430805
1666089154941041353,0.6450000000000005,0.0,0.0,0.0,0.0,-0.15006105587927557
1666089154990996266,0.6600000000000005,0.0,0.0,0.0,0.0,-0.11612069841547062
1666089155040898131,0.6750000000000005,0.0,0.0,0.0,0.0,-0.05919087314056841
1666089155090786354,0.6900000000000005,0.0,0.0,0.0,0.0,-0.002261047865666138
1666089155140932267,0.6905957460403442,0.0,0.0,0.0,0.0,-4.996003610813204e-16
1666089155191027001,0.6478754878044127,0.0,0.0,0.0,0.0,0.03552531823515892
1666089155240916006,0.6370500922203064,0.0,0.0,0.0,0.0,-4.996003610813204e-16
1666089155290865044,0.6370500922203064,0.0,0.0,0.0,0.0,-4.996003610813204e-16
1666089155340817894,0.6211389899253845,0.0,0.0,0.0,0.0,-4.996003610813204e-16
1666089155390883747,0.6211389899253845,0.0,0.0,0.0,0.0,-4.996003610813204e-16
1666089155440727075,0.6211389899253845,0.0,0.0,0.0,0.0,-4.996003610813204e-16
1666089155491865680,0.5778745412826538,0.0,0.0,0.0,0.0,-0.06588122993707657
1666089155540732757,0.5778745412826538,0.0,0.0,0.0,0.0,-0.06588122993707657
1666089155591869100,0.5752038359642029,0.0,0.0,0.0,0.0,-0.06775064021348953
1666089155640885745,0.5702359676361084,0.0,0.0,0.0,0.0,-0.06989633291959763
1666089155690924571,0.5702359676361084,0.0,0.0,0.0,0.0,-0.06989633291959763
1666089155740868699,0.5655000805854797,0.0,0.0,0.0,0.0,-0.07073488086462021
1666089155790731147,0.5563656687736511,0.0,0.0,0.0,0.0,-0.07210514694452286
1666089155841208037,0.5563656687736511,0.0,0.0,0.0,0.0,-0.07210514694452286
1666089155890974540,0.5288354158401489,0.0,0.0,0.0,0.0,-0.07331337034702301
1666089155941380466,0.5044405460357666,0.0,0.0,0.0,0.0,-4.996003610813204e-16
1666089155991303044,0.5016528964042664,0.0,0.0,0.0,0.0,-0.0738905593752861
1666089156041157091,0.5021504163742065,0.0,0.0,0.0,0.0,-0.07348215579986572
1666089156090792977,0.5021504163742065,0.0,0.0,0.0,0.0,-0.07348215579986572
1666089156140876252,0.4758177697658539,0.0,0.0,0.0,0.0,-0.07365397363901138
1666089156190949049,0.4758177697658539,0.0,0.0,0.0,0.0,-0.07365397363901138
1666089156241980787,0.46575185656547546,0.0,0.0,0.0,0.0,-0.07382692396640778
1666089156290723180,0.46575185656547546,0.0,0.0,0.0,0.0,-0.07382692396640778
1666089156341027935,0.45943769812583923,0.0,0.0,0.0,0.0,-0.07390390336513519
1666089156390724684,0.45943769812583923,0.0,0.0,0.0,0.0,-0.07390390336513519
1666089156440819419,0.442916424800705,0.0,0.0,0.0,0.0,-0.1739039033651352
1666089156491149343,0.44195953011512756,0.0,0.0,0.0,0.0,-0.17453292519943345
1666089156540948517,0.44195953011512756,0.0,0.0,0.0,0.0,-0.17453292519943345
1666089156590706599,0.44195953011512756,0.0,0.0,0.0,0.0,-0.17453292519943345
1666089156640988398,0.4565199911594391,0.0,0.0,0.0,0.0,-0.0771436020731926
1666089156691651717,0.4565199911594391,0.0,0.0,0.0,0.0,-0.0771436020731926
1666089156740753357,0.4715199911594391,0.0,0.0,0.0,0.0,-0.07671135513419762
1666089156790834534,0.4720393717288971,0.0,0.0,0.0,0.0,-0.07669638842344284
1666089156840980996,0.475503146648407,0.0,0.0,0.0,0.0,-0.07560635358095169
1666089156890806701,0.475503146648407,0.0,0.0,0.0,0.0,-0.07560635358095169
1666089156940751563,0.475503146648407,0.0,0.0,0.0,0.0,-0.07560635358095169
1666089156991268089,0.4695316553115845,0.0,0.0,0.0,0.0,-4.996003610813204e-16
1666089157040720385,0.46476152539253235,0.0,0.0,0.0,0.0,-4.996003610813204e-16
1666089157090771032,0.4649036824703216,0.0,0.0,0.0,0.0,-4.996003610813204e-16
1666089157140818828,0.4649036824703216,0.0,0.0,0.0,0.0,-4.996003610813204e-16
1666089157192269348,0.4665717780590057,0.0,0.0,0.0,0.0,-0.06773433834314346
1666089157240944221,0.4665717780590057,0.0,0.0,0.0,0.0,-0.06773433834314346
1666089157290774971,0.44904077053070063,0.0,0.0,0.0,0.0,-0.06441616266965866
1666089157341100529,0.44015833735466003,0.0,0.0,0.0,0.0,-0.06219666451215744
1666089157391206556,0.43980294466018677,0.0,0.0,0.0,0.0,-0.06227694824337959
1666089157440824400,0.43980294466018677,0.0,0.0,0.0,0.0,-0.06227694824337959
1666089157491061345,0.4329644441604614,0.0,0.0,0.0,0.0,-0.0587780624628067
1666089157541131288,0.4209918677806854,0.0,0.0,0.0,0.0,-0.055643364787101746
1666089157590874063,0.4209918677806854,0.0,0.0,0.0,0.0,-0.055643364787101746
1666089157640883468,0.4209918677806854,0.0,0.0,0.0,0.0,-0.055643364787101746
1666089157690763818,0.4072688519954681,0.0,0.0,0.0,0.0,-0.049038611352443695
1666089157740976947,0.4100488722324371,0.0,0.0,0.0,0.0,-0.04386423900723457
1666089157790785317,0.4099067151546478,0.0,0.0,0.0,0.0,-0.04378744214773178
1666089157841319031,0.4099067151546478,0.0,0.0,0.0,0.0,-0.04378744214773178
1666089157891004680,0.41020190715789795,0.0,0.0,0.0,0.0,-0.03869570046663284
1666089157940754993,0.41020190715789795,0.0,0.0,0.0,0.0,-0.03869570046663284
1666089157990810537,0.4101047217845917,0.0,0.0,0.0,0.0,-0.03414259850978851
1666089158040706602,0.4251047217845917,0.0,0.0,0.0,0.0,0.03159347677035347
1666089158090721662,0.43923673033714294,0.0,0.0,0.0,0.0,0.09470651298761368
1666089158140727817,0.43923673033714294,0.0,0.0,0.0,0.0,0.09470651298761368
1666089158190876968,0.43923673033714294,0.0,0.0,0.0,0.0,0.09470651298761368
1666089158241190113,0.4065070327804575,0.0,0.0,0.0,0.0,-0.005293487012386328
1666089158290965534,0.3965615928173065,0.0,0.0,0.0,0.0,-0.016191575676202774
1666089158340978763,0.39634835720062256,0.0,0.0,0.0,0.0,-0.016093837097287178
1666089158390744951,0.39145123958587646,0.0,0.0,0.0,0.0,-0.013122694566845894
1666089158440751999,0.39145123958587646,0.0,0.0,0.0,0.0,-0.013122694566845894
1666089158490984800,0.39145123958587646,0.0,0.0,0.0,0.0,-0.013122694566845894
1666089158541069239,0.3914957642555237,0.0,0.0,0.0,0.0,-0.006723778322339058
1666089158590762855,0.3851422667503357,0.0,0.0,0.0,0.0,-0.006035022437572479
1666089158641831915,0.3849290609359741,0.0,0.0,0.0,0.0,-0.0061292704194784164
1666089158690715417,0.38326582312583923,0.0,0.0,0.0,0.0,-0.00532521540299058
1666089158741875952,0.39826582312583925,0.0,0.0,0.0,0.0,-6.925132851908367e-05
1666089158790740407,0.401485413312912,0.0,0.0,0.0,0.0,0.0010588853619992733
1666089158840924735,0.401485413312912,0.0,0.0,0.0,0.0,0.0010588853619992733
1666089158890714624,0.416485413312912,0.0,0.0,0.0,0.0,0.07174742207337159
1666089158941003296,0.431485413312912,0.0,0.0,0.0,0.0,0.1424359587847439
1666089158990780997,0.446485413312912,0.0,0.0,0.0,0.0,0.20041294943481594
1666089159041010356,0.46148541331291204,0.0,0.0,0.0,0.0,0.258389940084888
1666089159090888287,0.44646021723747253,0.0,0.0,0.0,0.0,0.3490658503988654
1666089159140778563,0.449526309967041,0.0,0.0,0.0,0.0,0.3490658503988654
1666089159190809217,0.449526309967041,0.0,0.0,0.0,0.0,0.3490658503988654
1666089159240776465,0.449526309967041,0.0,0.0,0.0,0.0,0.3490658503988654
1666089159291154066,0.45051300525665283,0.0,0.0,0.0,0.0,0.3490658503988654
1666089159340901905,0.45051300525665283,0.0,0.0,0.0,0.0,0.3490658503988654
1666089159391189416,0.45134538412094116,0.0,0.0,0.0,0.0,0.3490658503988654
1666089159440736037,0.4480695912440572,0.0,0.0,0.0,0.0,0.4490658503988654
1666089159491522120,0.4630695912440572,0.0,0.0,0.0,0.0,0.4700428214796164
1666089159541206641,0.47806959124405723,0.0,0.0,0.0,0.0,0.49101979256036743
1666089159590882810,0.43026712536811823,0.0,0.0,0.0,0.0,0.5235987755982984
1666089159640830422,0.44526712536811824,0.0,0.0,0.0,0.0,0.5670690294442643
1666089159692091575,0.42365755122343074,0.0,0.0,0.0,0.0,0.6670690294442643
1666089159740703610,0.41694504022598267,0.0,0.0,0.0,0.0,0.6981317007977313
1666089159791335973,0.39993354678153986,0.0,0.0,0.0,0.0,0.6981317007977313
1666089159842016675,0.39993354678153986,0.0,0.0,0.0,0.0,0.6981317007977313
1666089159890747758,0.4149335467815399,0.0,0.0,0.0,0.0,0.6981317007977313
1666089159940707603,0.4024495780467987,0.0,0.0,0.0,0.0,0.6981317007977313
1666089159991241381,0.4024495780467987,0.0,0.0,0.0,0.0,0.6981317007977313
1666089160041291797,0.4024495780467987,0.0,0.0,0.0,0.0,0.6981317007977313
1666089160092513775,0.40722668170928955,0.0,0.0,0.0,0.0,0.6981317007977313
1666089160140850532,0.4080365002155304,0.0,0.0,0.0,0.0,0.6981317007977313
1666089160191028207,0.40741461515426636,0.0,0.0,0.0,0.0,0.6981317007977313
1666089160240818777,0.40685680508613586,0.0,0.0,0.0,0.0,0.6981317007977313
1666089160290881771,0.40685680508613586,0.0,0.0,0.0,0.0,0.6981317007977313
1666089160341837784,0.4218568050861359,0.0,0.0,0.0,0.0,0.7279593524449041
1666089160391096639,0.4084881842136383,0.0,0.0,0.0,0.0,0.6981317007977313
1666089160440858394,0.4084881842136383,0.0,0.0,0.0,0.0,0.6981317007977313
1666089160493379323,0.40822514891624445,0.0,0.0,0.0,0.0,0.6981317007977313
1666089160540849073,0.4106701612472534,0.0,0.0,0.0,0.0,0.6981317007977313
1666089160591319311,0.4107675850391388,0.0,0.0,0.0,0.0,0.6981317007977313
1666089160640892086,0.4107675850391388,0.0,0.0,0.0,0.0,0.6981317007977313
1666089160690887694,0.4121805429458618,0.0,0.0,0.0,0.0,0.6981317007977313
1666089160741257016,0.41518181562423706,0.0,0.0,0.0,0.0,0.6981317007977313
1666089160790835582,0.41518181562423706,0.0,0.0,0.0,0.0,0.6981317007977313
1666089160840775834,0.41518181562423706,0.0,0.0,0.0,0.0,0.6981317007977313
1666089160890865672,0.4082264602184295,0.0,0.0,0.0,0.0,0.6981317007977313
1666089160940769085,0.4082264602184295,0.0,0.0,0.0,0.0,0.6981317007977313
1666089160992067574,0.4021083712577819,0.0,0.0,0.0,0.0,0.5235987755982984
1666089161040955602,0.4021083712577819,0.0,0.0,0.0,0.0,0.5235987755982984
1666089161091812002,0.39405691623687744,0.0,0.0,0.0,0.0,0.5235987755982984
1666089161142461409,0.3823165297508239,0.0,0.0,0.0,0.0,0.5235987755982984
1666089161190775286,0.3823165297508239,0.0,0.0,0.0,0.0,0.5235987755982984
1666089161241161925,0.3698940873146057,0.0,0.0,0.0,0.0,0.5235987755982984
1666089161291157106,0.3848940873146057,0.0,0.0,0.0,0.0,0.5235987755982984
1666089161340983937,0.39989408731460574,0.0,0.0,0.0,0.0,0.5235987755982984
1666089161391368105,0.34249764680862427,0.0,0.0,0.0,0.0,0.5235987755982984
1666089161441391843,0.3254087269306183,0.0,0.0,0.0,0.0,0.5235987755982984
1666089161490824496,0.17540872693061826,0.0,0.0,0.0,0.0,0.49005384705820654
1666089161541166350,0.02540872693061824,0.0,0.0,0.0,0.0,0.4565089185181147
1666089161590701096,0.0,0.0,0.0,0.0,0.0,0.46094365047909697
1666089161641245425,0.0,0.0,0.0,0.0,0.0,0.4489321769137925
1666089161690872274,0.0,0.0,0.0,0.0,0.0,0.4489321769137925
1666089161740905634,0.0,0.0,0.0,0.0,0.0,0.4555195552719208
1666089161790752858,0.0,0.0,0.0,0.0,0.0,0.4555195552719208
1666089161840821888,0.0,0.0,0.0,0.0,0.0,0.4555195552719208
1666089161891079551,0.0,0.0,0.0,0.0,0.0,0.0
1666089161940939482,0.0,0.0,0.0,0.0,0.0,0.1
1666089161991856537,0.0,0.0,0.0,0.0,0.0,0.2
1666089162041021353,0.0,0.0,0.0,0.0,0.0,0.30000000000000004
1666089162091577931,0.0,0.0,0.0,0.0,0.0,0.4
1666089162142132810,0.0,0.0,0.0,0.0,0.0,0.4287566746089532
1666089162190691039,0.0,0.0,0.0,0.0,0.0,0.4287566746089532
1666089162240942183,0.0,0.0,0.0,0.0,0.0,0.4143061159286282
1666089162291174519,0.0,0.0,0.0,0.0,0.0,0.4143061159286282
1666089162340871884,0.0,0.0,0.0,0.0,0.0,0.39500513465537707
1666089162390848748,0.0,0.0,0.0,0.0,0.0,0.3678534484571496
1666089162441749949,0.0,0.0,0.0,0.0,0.0,0.36304699265303797
1666089162491424962,0.0,0.0,0.0,0.0,0.0,0.3531012990739266
1666089162541702915,0.0,0.0,0.0,0.0,0.0,0.3531012990739266
1666089162590837997,0.0,0.0,0.0,0.0,0.0,0.3490658503988654
1666089162640961435,0.0,0.0,0.0,0.0,0.0,0.33755591744706187
1666089162690827289,0.0,0.0,0.0,0.0,0.0,0.33755591744706187
1666089162741135523,0.0,0.0,0.0,0.0,0.0,0.3325862178490565
1666089162790763408,0.0,0.0,0.0,0.0,0.0,0.32880873533778227
1666089162842787189,0.0,0.0,0.0,0.0,0.0,0.32880873533778227
1666089162890916698,0.0,0.0,0.0,0.0,0.0,0.3290925182181398
1666089162941234635,0.0,0.0,0.0,0.0,0.0,0.3290925182181398
1666089162992096733,0.0,0.0,0.0,0.0,0.0,0.32978372789086347
1666089163041035807,0.0,0.0,0.0,0.0,0.0,0.31754728288656225
1666089163090753027,0.0,0.0,0.0,0.0,0.0,0.31754728288656225
1666089163141099632,0.0,0.0,0.0,0.0,0.0,0.3150456674695384
1666089163191775690,0.0,0.0,0.0,0.0,0.0,0.3150456674695384
1666089163241384356,0.0,0.0,0.0,0.0,0.0,0.32306803219685987
1666089163290772025,0.0,0.0,0.0,0.0,0.0,0.3211651324675292
1666089163340764776,0.0,0.0,0.0,0.0,0.0,0.3211651324675292
1666089163390796057,0.0,0.0,0.0,0.0,0.0,0.32705395025882283
1666089163440797189,0.0,0.0,0.0,0.0,0.0,0.3282233629434375
1666089163490775568,0.0,0.0,0.0,0.0,0.0,0.3282233629434375
1666089163542340409,0.0,0.0,0.0,0.0,0.0,0.3315468361900053
1666089163590788927,0.0,0.0,0.0,0.0,0.0,0.3315468361900053
1666089163641451539,0.0,0.0,0.0,0.0,0.0,0.3315468361900053
1666089163691645957,0.0,0.0,0.0,0.0,0.0,0.34213817519777057
1666089163741074638,0.0,0.0,0.0,0.0,0.0,0.3362853294276151
1666089163790810905,0.0,0.0,0.0,0.0,0.0,0.3362853294276151
1666089163841076156,0.0,0.0,0.0,0.0,0.0,0.3312128202353368
1666089163890886474,0.0,0.0,0.0,0.0,0.0,0.3312128202353368
1666089163941704011,0.0,0.0,0.0,0.0,0.0,0.3312128202353368
1666089163990833461,0.0,0.0,0.0,0.0,0.0,0.34229502289798197
1666089164040818430,0.0,0.0,0.0,0.0,0.0,0.3379656375213417
1666089164090696396,0.0,0.0,0.0,0.0,0.0,0.3362332305908578
1666089164141309054,0.0,0.0,0.0,0.0,0.0,0.333391780453737
1666089164190739898,0.0,0.0,0.0,0.0,0.0,0.333391780453737
1666089164241620874,0.0,0.0,0.0,0.0,0.0,0.3423833044309713
1666089164290893487,0.0,0.0,0.0,0.0,0.0,0.3423833044309713
1666089164341104009,0.0,0.0,0.0,0.0,0.0,0.34619757745264834
1666089164390777786,0.0,0.0,0.0,0.0,0.0,0.34619757745264834
1666089164441310761,0.0,0.0,0.0,0.0,0.0,0.34138183903766983
1666089164491141114,0.0,0.0,0.0,0.0,0.0,0.34138183903766983
1666089164541637734,0.0,0.0,0.0,0.0,0.0,0.3429487458734131
1666089164590908251,0.0,0.0,0.0,0.0,0.0,0.3490658503988654
1666089164641124522,0.0,0.0,0.0,0.0,0.0,0.3490658503988654
1666089164691312395,0.0,0.0,0.0,0.0,0.0,0.3503544378111147
1666089164740864664,0.0,0.0,0.0,0.0,0.0,0.3490658503988654
1666089164791728806,0.0,0.0,0.0,0.0,0.0,0.3490658503988654
1666089164841278189,0.0,0.0,0.0,0.0,0.0,0.3490658503988654
1666089164891224226,0.0,0.0,0.0,0.0,0.0,0.3490658503988654
1666089164940762237,0.0,0.0,0.0,0.0,0.0,0.3490658503988654
1666089164990784811,0.0,0.0,0.0,0.0,0.0,0.3490658503988654
1666089165040933518,0.0,0.0,0.0,0.0,0.0,0.3490658503988654
1666089165090844664,0.0,0.0,0.0,0.0,0.0,0.35335761988303577
1666089165141123379,0.0,0.0,0.0,0.0,0.0,0.3490658503988654
1666089165190833150,0.0,0.0,0.0,0.0,0.0,0.3490658503988654
1666089165240846305,0.0,0.0,0.0,0.0,0.0,0.3490658503988654
1666089165290851907,0.0,0.0,0.0,0.0,0.0,0.3490658503988654
1666089165342656044,0.0,0.0,0.0,0.0,0.0,0.3490658503988654
1666089165391064666,0.0,0.0,0.0,0.0,0.0,0.3490658503988654
1666089165440750640,0.0,0.0,0.0,0.0,0.0,0.3490658503988654
1666089165490843606,0.0,0.0,0.0,0.0,0.0,0.3490658503988654
1666089165541774282,0.0,0.0,0.0,0.0,0.0,0.3428900881077833
1666089165592252340,0.0,0.0,0.0,0.0,0.0,0.3428900881077833
1666089165641283220,0.0,0.0,0.0,0.0,0.0,0.34243232028062837
1666089165691137267,0.0,0.0,0.0,0.0,0.0,0.34243232028062837
1666089165741130605,0.0,0.0,0.0,0.0,0.0,0.33597612488227135
1666089165791536093,0.0,0.0,0.0,0.0,0.0,0.32426203305471724
1666089165840963419,0.0,0.0,0.0,0.0,0.0,0.32426203305471724
1666089165890811717,0.0,0.0,0.0,0.0,0.0,0.32840098015111724
1666089165941419135,0.0,0.0,0.0,0.0,0.0,0.32840098015111724
1666089165991162073,0.0,0.0,0.0,0.0,0.0,0.32280005471954165
1666089166041361520,0.0,0.0,0.0,0.0,0.0,0.315179557352353
1666089166090950329,0.0,0.0,0.0,0.0,0.0,0.315179557352353
1666089166140962812,0.0,0.0,0.0,0.0,0.0,0.3026293404562243
1666089166191372370,0.0,0.0,0.0,0.0,0.0,0.29037410223694565
1666089166240886797,0.0,0.0,0.0,0.0,0.0,0.2921991500820142
1666089166291301066,0.0,0.0,0.0,0.0,0.0,0.2813075372927386
1666089166342074940,0.0,0.0,0.0,0.0,0.0,0.2813075372927386
1666089166390789441,0.0,0.0,0.0,0.0,0.0,0.2736585567475931
1666089166440843386,0.0,0.0,0.0,0.0,0.0,0.2736585567475931
1666089166492104227,0.0,0.0,0.0,0.0,0.0,0.2543090628816884
1666089166541070643,0.0,0.0,0.0,0.0,0.0,0.2543090628816884
1666089166591501506,0.0,0.0,0.0,0.0,0.0,0.21623672063550797
1666089166640726018,0.0,0.0,0.0,0.0,0.0,0.21623672063550797
1666089166690901525,0.0,0.0,0.0,0.0,0.0,0.17453292519943245
1666089166741350700,0.0,0.0,0.0,0.0,0.0,0.17453292519943245
1666089166790933483,0.0,0.0,0.0,0.0,0.0,0.17453292519943245
1666089166841126551,0.0,0.0,0.0,0.0,0.0,0.17453292519943245
1666089166891436014,0.0,0.0,0.0,0.0,0.0,0.17453292519943245
1666089166940998910,0.0,0.0,0.0,0.0,0.0,0.17453292519943245
1666089166990787345,0.0,0.0,0.0,0.0,0.0,0.17453292519943245
1666089167043162451,0.0,0.0,0.0,0.0,0.0,0.07453292519943244
1666089167091238659,0.0,0.0,0.0,0.0,0.0,-4.996003610813204e-16
1666089167140850573,0.0,0.0,0.0,0.0,0.0,-4.996003610813204e-16
1666089167192031910,0.0,0.0,0.0,0.0,0.0,-4.996003610813204e-16
1666089167241427391,0.0,0.0,0.0,0.0,0.0,-4.996003610813204e-16
1666089167291419183,0.0,0.0,0.0,0.0,0.0,-4.996003610813204e-16
1666089167340993891,0.0,0.0,0.0,0.0,0.0,-4.996003610813204e-16
1666089167391857381,0.0,0.0,0.0,0.0,0.0,-4.996003610813204e-16
1666089167442004627,0.0,0.0,0.0,0.0,0.0,-4.996003610813204e-16
1666089167490797425,0.0,0.0,0.0,0.0,0.0,-4.996003610813204e-16
1666089167540941833,0.0,0.0,0.0,0.0,0.0,-4.996003610813204e-16
1666089167590979366,0.0,0.0,0.0,0.0,0.0,-4.996003610813204e-16
1666089167641301264,0.0,0.0,0.0,0.0,0.0,-4.996003610813204e-16
1666089167690724721,0.0,0.0,0.0,0.0,0.0,-4.996003610813204e-16
1666089167744205145,0.0,0.0,0.0,0.0,0.0,-4.996003610813204e-16
1666089167790857476,0.0,0.0,0.0,0.0,0.0,-4.996003610813204e-16
1666089167841381770,0.0,0.0,0.0,0.0,0.0,0.0999999999999995
1666089167890803768,0.015,0.0,0.0,0.0,0.0,0.10291338554152911
1666089167941121465,0.03,0.0,0.0,0.0,0.0,0.10582677108305871
1666089167991573168,0.045,0.0,0.0,0.0,0.0,0.10874015662458832
1666089168041012304,0.06,0.0,0.0,0.0,0.0,0.1114729439457962
1666089168091105587,0.075,0.0,0.0,0.0,0.0,0.1142085398337911
1666089168142893882,0.09,0.0,0.0,0.0,0.0,0.11690103452900413
1666089168190983999,0.105,0.0,0.0,0.0,0.0,0.11956598551122063
1666089168241489817,0.12,0.0,0.0,0.0,0.0,0.12223093649343714
1666089168291422436,0.135,0.0,0.0,0.0,0.0,0.12488808229785624
1666089168341262190,0.15000000000000002,0.0,0.0,0.0,0.0,0.12756478620380857
1666089168390952807,0.16500000000000004,0.0,0.0,0.0,0.0,0.13028980469019155
1666089168440826405,0.18000000000000005,0.0,0.0,0.0,0.0,0.13301482317657454
1666089168491825958,0.19500000000000006,0.0,0.0,0.0,0.0,0.13592849631206572
1666089168541059674,0.21000000000000008,0.0,0.0,0.0,0.0,0.1388421694475569
1666089168591006817,0.2250000000000001,0.0,0.0,0.0,0.0,0.14175584258304808
1666089168641097477,0.2400000000000001,0.0,0.0,0.0,0.0,0.14484072013300775
1666089168690880856,0.2550000000000001,0.0,0.0,0.0,0.0,0.14792559768296742
1666089168741145366,0.1050000000000001,0.0,0.0,0.0,0.0,0.1635769668102998
1666089168790930430,0.0,0.0,0.0,0.0,0.0,0.17453292519943245
1666089168841051203,0.0,0.0,0.0,0.0,0.0,0.17453292519943245
1666089168891136126,0.0,0.0,0.0,0.0,0.0,0.17453292519943245
1666089168941106786,0.0,0.0,0.0,0.0,0.0,0.17453292519943245
1666089168991272927,0.0,0.0,0.0,0.0,0.0,0.17453292519943245
1666089169041380055,0.0,0.0,0.0,0.0,0.0,0.17453292519943245
1666089169090869376,0.0,0.0,0.0,0.0,0.0,0.17453292519943245
1666089169140893049,0.0,0.0,0.0,0.0,0.0,0.07453292519943244
1666089169192298730,0.0,0.0,0.0,0.0,0.0,0.17453292519943245
1666089169240921473,0.0,0.0,0.0,0.0,0.0,0.17453292519943245
1666089169290805129,0.0,0.0,0.0,0.0,0.0,0.17453292519943245
1666089169340828142,0.0,0.0,0.0,0.0,0.0,0.17453292519943245
1666089169390760198,0.0,0.0,0.0,0.0,0.0,0.17453292519943245
1666089169445082796,0.0,0.0,0.0,0.0,0.0,0.17453292519943245
1666089169491136870,0.0,0.0,0.0,0.0,0.0,0.17453292519943245
1666089169541410284,0.0,0.0,0.0,0.0,0.0,0.17453292519943245
1666089169590836771,0.0,0.0,0.0,0.0,0.0,0.17453292519943245
1666089169641095826,0.0,0.0,0.0,0.0,0.0,0.17453292519943245
1666089169691452429,0.0,0.0,0.0,0.0,0.0,0.17453292519943245
1666089169740888464,0.0,0.0,0.0,0.0,0.0,0.17453292519943245
1666089169790856185,0.0,0.0,0.0,0.0,0.0,0.17453292519943245
1666089169841122556,0.0,0.0,0.0,0.0,0.0,0.17453292519943245
1666089169890887496,0.0,0.0,0.0,0.0,0.0,0.17453292519943245
1666089169941429022,0.0,0.0,0.0,0.0,0.0,0.17453292519943245
1666089169990857315,0.0,0.0,0.0,0.0,0.0,0.17453292519943245
1666089170041240287,0.0,0.0,0.0,0.0,0.0,0.17453292519943245
1666089170090968505,0.0,0.0,0.0,0.0,0.0,0.17453292519943245
1666089170142240679,0.0,0.0,0.0,0.0,0.0,0.17453292519943245
1666089170190880982,0.0,0.0,0.0,0.0,0.0,0.17453292519943245
1666089170241097167,0.0,0.0,0.0,0.0,0.0,0.17453292519943245
1666089170291061105,0.0,0.0,0.0,0.0,0.0,0.17453292519943245
1666089170341080494,0.0,0.0,0.0,0.0,0.0,0.17453292519943245
1666089170390800361,0.0,0.0,0.0,0.0,0.0,0.17453292519943245
1666089170440846758,0.0,0.0,0.0,0.0,0.0,0.17453292519943245
1666089170492295173,0.0,0.0,0.0,0.0,0.0,0.17453292519943245
