%time,field.x,field.y,field.z
1666091802024346306,0.0,0.0,0.0
1666091802080163143,0.0,0.0,0.0
1666091802125052295,0.0,0.0,0.0
1666091802273439780,0.0,0.0,0.0
1666091802353089804,0.0,0.0,0.0
1666091802353149807,0.0,0.0,0.0
1666091802423339874,0.0,0.0,0.0
1666091802519441765,0.0,0.0,0.0
1666091802565970924,0.0,0.0,0.0
1666091802671767771,0.0,0.0,0.0
1666091802672450294,0.0,0.0,0.0
1666091802734944250,0.0,0.0,0.0
1666091802843104983,0.0,0.0,0.0
1666091802843134144,0.0,0.0,0.0
1666091802941415949,0.6609682440757751,-0.843090832233429,0.0
1666091803055145517,0.6561168432235718,-0.868414580821991,0.0
1666091803122011381,0.6560044288635254,-0.8859781622886658,0.0
1666091803191754068,0.6552814841270447,-0.8906109929084778,0.0
1666091803291889615,0.6869329810142517,-0.8732067346572876,0.0
1666091803293955304,0.6836276650428772,-0.8951674699783325,0.0
1666091803366791575,0.6823723316192627,-0.917303740978241,0.0
1666091803514862373,0.6945860981941223,-0.8878474235534668,0.0
1666091803516090198,0.701169490814209,-0.873776912689209,0.0
1666091803605644262,0.7002187371253967,-0.8527244329452515,0.0
1666091803679450874,0.7057784199714661,-0.8358281850814819,0.0
1666091803782436937,0.7130094766616821,-0.8201602697372437,0.0
1666091803878612566,0.7260642051696777,-0.8001753687858582,0.0
1666091803953750665,0.7340038418769836,-0.7736347913742065,0.0
1666091804118130375,0.7488358616828918,-0.7442030310630798,0.0
1666091804153996540,0.7615622878074646,-0.7128990888595581,0.0
1666091804279914503,0.7679792046546936,-0.6813634634017944,0.0
1666091804320158867,0.7765445709228516,-0.6473401784896851,0.0
1666091804375794645,0.7860382795333862,-0.6118794679641724,0.0
1666091804439828957,0.7964864373207092,-0.5720176100730896,0.0
1666091804519318945,0.8009090423583984,-0.5269790887832642,0.0
1666091804614824637,0.8091698884963989,-0.4820111095905304,0.0
1666091804710635599,0.8108168244361877,-0.43879690766334534,0.0
1666091804806639705,0.8207104802131653,-0.3951299786567688,0.0
1666091804922439445,0.8292324542999268,-0.3528967797756195,0.0
1666091805009865530,0.8395518064498901,-0.3125607371330261,0.0
1666091805081018172,0.8463121652603149,-0.27824559807777405,0.0
1666091805160834971,0.8508976101875305,-0.24672210216522217,0.0
1666091805162137861,0.8580092191696167,-0.22036929428577423,0.0
1666091805286244857,0.8612114191055298,-0.20050738751888275,0.0
1666091805375231393,0.8686432838439941,-0.18092292547225952,0.0
1666091805386388754,0.8744537830352783,-0.16727496683597565,0.0
1666091805455914665,0.8802773356437683,-0.1542586386203766,0.0
1666091805515749056,0.8843382596969604,-0.14627596735954285,0.0
1666091805661058324,0.8870728015899658,-0.14288148283958435,0.0
1666091805678349600,0.8890091776847839,-0.1418055146932602,0.0
1666091805750441854,0.8895184397697449,-0.1432928740978241,0.0
1666091805891996938,0.8884089589118958,-0.14837560057640076,0.0
1666091805923898858,0.886262834072113,-0.15416762232780457,0.0
1666091805989573877,0.8840728402137756,-0.16061192750930786,0.0
1666091806053761876,0.8792781829833984,-0.16941356658935547,0.0
1666091806165668891,0.8717906475067139,-0.17752037942409515,0.0
1666091806218720615,0.8639391660690308,-0.18545404076576233,0.0
1666091806349980688,0.8589245080947876,-0.19314002990722656,0.0
1666091806351237984,0.8535245060920715,-0.2029796689748764,0.0
1666091806459393676,0.846709132194519,-0.2100372314453125,0.0
1666091806540641443,0.8370355367660522,-0.21782560646533966,0.0
1666091806583660020,0.8240164518356323,-0.2250775396823883,0.0
1666091806678336568,0.8148093223571777,-0.22722285985946655,0.0
1666091806700978651,0.7874510288238525,-0.22610940039157867,0.0
1666091806787189562,0.7575672268867493,-0.22249971330165863,0.0
1666091806836536439,0.7314319610595703,-0.23007042706012726,0.0
1666091806941647045,0.7095584273338318,-0.24088920652866364,0.0
1666091806994085009,0.6936717629432678,-0.2516234517097473,0.0
1666091807085316415,0.6736175417900085,-0.25543496012687683,0.0
1666091807206519150,0.6534141302108765,-0.25852933526039124,0.0
1666091807255164893,0.6322100162506104,-0.2544018626213074,0.0
1666091807326140518,0.6149430274963379,-0.2513013184070587,0.0
1666091807406899168,0.597441554069519,-0.25183627009391785,0.0
1666091807452095328,0.5826073884963989,-0.2524273097515106,0.0
1666091807545225468,0.5693499445915222,-0.25083884596824646,0.0
1666091807634305003,0.5570155382156372,-0.24917632341384888,0.0
1666091807676153098,0.5486462712287903,-0.24418658018112183,0.0
1666091807734844642,0.5434785485267639,-0.238027885556221,0.0
1666091807790141642,0.5395758152008057,-0.23200087249279022,0.0
1666091807863847099,0.5357671976089478,-0.22612205147743225,0.0
1666091807938062499,0.5346183180809021,-0.21977025270462036,0.0
1666091808038537104,0.5361730456352234,-0.21189719438552856,0.0
1666091808104883828,0.539517879486084,-0.2026771754026413,0.0
1666091808167601657,0.5448546409606934,-0.19461679458618164,0.0
1666091808249225340,0.5503631830215454,-0.18587777018547058,0.0
1666091808309411924,0.558785080909729,-0.1749335080385208,0.0
1666091808365734225,0.5676672458648682,-0.16423234343528748,0.0
1666091808427903867,0.56938236951828,-0.15339012444019318,0.0
1666091808556454546,0.5720405578613281,-0.1419658064842224,0.0
1666091808621089057,0.5778265595436096,-0.13113732635974884,0.0
1666091808700708620,0.5855345726013184,-0.12008966505527496,0.0
1666091808761021808,0.5963248014450073,-0.11081784218549728,0.0
1666091808804157880,0.6104082465171814,-0.10346833616495132,0.0
1666091808885012886,0.6341724991798401,-0.09905225038528442,0.0
1666091808967471695,0.6535954475402832,-0.09621644020080566,0.0
1666091809030720903,0.6814925670623779,-0.09743261337280273,0.0
1666091809082117265,0.7023386359214783,-0.09703424572944641,0.0
1666091809163565285,0.7231251001358032,-0.09817583858966827,0.0
1666091809278958755,0.738377571105957,-0.1004134863615036,0.0
1666091809369127193,0.766355574131012,-0.10384059697389603,0.0
1666091809409583467,0.7877492904663086,-0.1069464460015297,0.0
1666091809473318244,0.794403612613678,-0.11995726823806763,0.0
1666091809525239534,0.8020077347755432,-0.13085368275642395,0.0
1666091809601907889,0.8161078095436096,-0.1408245712518692,0.0
1666091809665443222,0.8316482901573181,-0.15095087885856628,0.0
1666091809777552024,0.8371941447257996,-0.15839076042175293,0.0
1666091809813732615,0.8410627245903015,-0.16636386513710022,0.0
1666091809936724052,0.8524727821350098,-0.17789769172668457,0.0
1666091809938670238,0.86311274766922,-0.18896116316318512,0.0
1666091810004985443,0.870402991771698,-0.19418875873088837,0.0
1666091810120712490,0.8791121244430542,-0.20330418646335602,0.0
1666091810227336531,0.8871934413909912,-0.21009007096290588,0.0
1666091810333905033,0.8994415402412415,-0.22015278041362762,0.0
1666091810440844920,0.9152661561965942,-0.22588738799095154,0.0
1666091810484427625,0.9322651028633118,-0.22976626455783844,0.0
1666091810528325921,0.9519794583320618,-0.23134730756282806,0.0
1666091810640990615,0.9668123722076416,-0.2333545982837677,0.0
1666091810643690901,0.986304521560669,-0.23237712681293488,0.0
1666091810704845461,0.9983531832695007,-0.23141145706176758,0.0
1666091810827592013,1.013628363609314,-0.22853976488113403,0.0
1666091810894783431,1.030842900276184,-0.22477750480175018,0.0
1666091810896035688,1.0464743375778198,-0.22157929837703705,0.0
1666091810958406501,1.067388653755188,-0.21679402887821198,0.0
1666091811063002500,1.0865150690078735,-0.21058939397335052,0.0
1666091811064974426,1.1049623489379883,-0.2056979238986969,0.0
1666091811151098235,1.128534197807312,-0.2003726214170456,0.0
1666091811238981286,1.1519112586975098,-0.19497227668762207,0.0
1666091811307288408,1.1723018884658813,-0.19124312698841095,0.0
1666091811424702713,1.1887708902359009,-0.18821968138217926,0.0
1666091811525082150,1.20368492603302,-0.18705704808235168,0.0
1666091811572208628,1.2142510414123535,-0.18656721711158752,0.0
1666091811619032207,1.221681833267212,-0.188628152012825,0.0
1666091811749901702,1.228641152381897,-0.1907833069562912,0.0
1666091811836916534,1.2337933778762817,-0.19477403163909912,0.0
1666091811838599661,1.2367101907730103,-0.2009265273809433,0.0
1666091811970307119,1.235628366470337,-0.20402202010154724,0.0
1666091812053942889,1.2357293367385864,-0.2028011828660965,0.0
1666091812065267683,1.2344470024108887,-0.20240451395511627,0.0
1666091812148436314,1.2298314571380615,-0.20668120682239532,0.0
1666091812256082972,1.2249809503555298,-0.21047161519527435,0.0
1666091812348832560,1.2200132608413696,-0.21507404744625092,0.0
1666091812426270849,1.214638590812683,-0.21955865621566772,0.0
1666091812435000205,1.2120271921157837,-0.2206302285194397,0.0
1666091812512013910,1.197863221168518,-0.2236872911453247,0.0
1666091812613895822,1.1844749450683594,-0.22552597522735596,0.0
1666091812687681255,1.1683363914489746,-0.22486896812915802,0.0
1666091812768116014,1.148798942565918,-0.2255520522594452,0.0
1666091812867325878,1.1269599199295044,-0.22419223189353943,0.0
1666091812997020307,1.1061831712722778,-0.22469773888587952,0.0
1666091812998261812,1.0808744430541992,-0.22441241145133972,0.0
1666091813097702313,1.0596424341201782,-0.22563011944293976,0.0
1666091813161533034,1.0400798320770264,-0.2273995280265808,0.0
1666091813272832578,1.0279146432876587,-0.23283177614212036,0.0
1666091813368344714,1.0199328660964966,-0.23806476593017578,0.0
1666091813416215129,1.0140376091003418,-0.2440626621246338,0.0
1666091813460214629,1.0105576515197754,-0.2536299228668213,0.0
1666091813521712658,1.0023938417434692,-0.26062676310539246,0.0
1666091813610756006,0.9926298260688782,-0.2669420540332794,0.0
1666091813685126654,0.9809173345565796,-0.27472782135009766,0.0
1666091813788217674,0.9746020436286926,-0.2829824388027191,0.0
1666091813842295644,0.9655113816261292,-0.290561705827713,0.0
1666091813965284515,0.9538647532463074,-0.2973412573337555,0.0
1666091814048579325,0.929063081741333,-0.30053937435150146,0.0
1666091814155714965,0.9176294207572937,-0.30884212255477905,0.0
1666091814213464462,0.8997440338134766,-0.31456971168518066,0.0
1666091814340747074,0.887106716632843,-0.3198293149471283,0.0
1666091814342668500,0.8971729874610901,-0.31887274980545044,0.0
1666091814448189088,0.8947717547416687,-0.32198360562324524,0.0
1666091814508003064,0.9139557480812073,-0.31122657656669617,0.0
1666091814607138844,0.9211961627006531,-0.29719841480255127,0.0
1666091814654358402,0.9277686476707458,-0.2933005690574646,0.0
1666091814728309794,0.94501793384552,-0.28465428948402405,0.0
1666091814799052152,0.9791179299354553,-0.25116074085235596,0.0
1666091814860586454,0.9933131337165833,-0.2386186718940735,0.0
1666091814926883237,1.0234565734863281,-0.1960410177707672,0.0
1666091814997312545,1.039183497428894,-0.17923058569431305,0.0
1666091815070687977,1.0592811107635498,-0.15721558034420013,0.0
1666091815171826307,1.0900559425354004,-0.12750837206840515,0.0
1666091815266368729,1.1391205787658691,-0.06676224619150162,0.0
1666091815367352974,1.181553602218628,-0.005030311644077301,0.0
1666091815463828932,1.2115942239761353,0.04761142283678055,0.0
1666091815503395964,1.2385280132293701,0.08344106376171112,0.0
1666091815570605400,1.2589707374572754,0.1369655728340149,0.0
1666091815639727585,1.2736577987670898,0.17916730046272278,0.0
1666091815753756167,1.2874354124069214,0.21700623631477356,0.0
1666091815838519100,1.2954647541046143,0.25153958797454834,0.0
1666091815940584758,1.2942520380020142,0.2859237790107727,0.0
1666091816027162489,1.2873932123184204,0.3151838183403015,0.0
1666091816108568715,1.280138611793518,0.34053826332092285,0.0
1666091816172862564,1.2798899412155151,0.3652750849723816,0.0
1666091816212212605,1.2722389698028564,0.3813134431838989,0.0
1666091816266993944,1.2731096744537354,0.39936563372612,0.0
1666091816382658341,1.2669367790222168,0.4118075370788574,0.0
1666091816384710332,1.2533016204833984,0.4173784554004669,0.0
1666091816498115027,1.2481709718704224,0.4270184338092804,0.0
1666091816544371978,1.2363255023956299,0.43235915899276733,0.0
1666091816617885833,1.2218259572982788,0.4337141811847687,0.0
1666091816676345976,1.2056894302368164,0.4350983500480652,0.0
1666091816740662141,1.1869269609451294,0.43427276611328125,0.0
1666091816790933595,1.1687233448028564,0.43711432814598083,0.0
1666091816853890465,1.1519423723220825,0.4398249387741089,0.0
1666091816925726818,1.1332789659500122,0.4415235221385956,0.0
1666091817010434985,1.1112037897109985,0.4417865574359894,0.0
1666091817108963646,1.0904324054718018,0.45102831721305847,0.0
1666091817191024524,1.063429594039917,0.45527783036231995,0.0
1666091817273108035,1.0346187353134155,0.45738324522972107,0.0
1666091817339219592,1.012635350227356,0.4626558721065521,0.0
1666091817415119555,1.0037529468536377,0.46299079060554504,0.0
1666091817519838328,0.9940784573554993,0.45906010270118713,0.0
1666091817592869674,0.9856790900230408,0.46826574206352234,0.0
1666091817682231036,0.9802723526954651,0.47558245062828064,0.0
1666091817718696238,0.9759677648544312,0.48333364725112915,0.0
1666091817827541132,0.9710195064544678,0.4888308048248291,0.0
1666091817830152002,0.9665012359619141,0.4904946982860565,0.0
1666091817912080389,0.9583418369293213,0.49142858386039734,0.0
1666091817980946107,0.9448925852775574,0.4897196888923645,0.0
1666091818103197738,0.9346734881401062,0.48829761147499084,0.0
1666091818167667540,0.920235276222229,0.48585760593414307,0.0
1666091818256711931,0.9132235050201416,0.48520976305007935,0.0
1666091818384953370,0.9108932018280029,0.48493120074272156,0.0
1666091818387501839,0.9035861492156982,0.4847984313964844,0.0
1666091818458688307,0.9091071486473083,0.4661465585231781,0.0
1666091818580340062,0.9012229442596436,0.4480211138725281,0.0
1666091818628804059,0.9050018191337585,0.4390321969985962,0.0
1666091818706873483,0.8910319805145264,0.43828678131103516,0.0
1666091818784338566,0.8893459439277649,0.43417516350746155,0.0
1666091818858051845,0.8779200315475464,0.4320022165775299,0.0
1666091818981002170,0.8691761493682861,0.42609429359436035,0.0
1666091819066389337,0.8522735238075256,0.4238763749599457,0.0
1666091819180368944,0.837955892086029,0.42219793796539307,0.0
1666091819295732738,0.8307338953018188,0.4221884310245514,0.0
1666091819330652339,0.8232266902923584,0.4229316711425781,0.0
1666091819408023996,0.8213601112365723,0.425350159406662,0.0
1666091819495776063,0.8307164907455444,0.4245496094226837,0.0
1666091819614856760,0.846774697303772,0.4245196282863617,0.0
1666091819682796765,0.8668394088745117,0.4279497265815735,0.0
1666091819769090962,0.8781546354293823,0.42306506633758545,0.0
1666091819813039490,0.8918666243553162,0.4183215796947479,0.0
1666091819946423969,0.898586094379425,0.40390369296073914,0.0
1666091819947724989,0.9260979294776917,0.38729506731033325,0.0
1666091820078831045,0.952649712562561,0.3689008057117462,0.0
1666091820162065283,0.9790402054786682,0.3484157919883728,0.0
1666091820231429469,1.0281946659088135,0.30327486991882324,0.0
1666091820308964632,1.0678050518035889,0.2663647532463074,0.0
1666091820359283483,1.101779580116272,0.2339850217103958,0.0
1666091820466678612,1.1257275342941284,0.21753624081611633,0.0
1666091820469177550,1.1656502485275269,0.1869235783815384,0.0
1666091820598949141,1.2015368938446045,0.15510021150112152,0.0
1666091820705350183,1.2331502437591553,0.13007454574108124,0.0
1666091820748136275,1.2615267038345337,0.10580110549926758,0.0
1666091820816840933,1.2914435863494873,0.07337957620620728,0.0
1666091820920090558,1.319522738456726,0.05084165930747986,0.0
1666091820961268133,1.3439849615097046,0.02900189533829689,0.0
1666091821019078673,1.3610169887542725,0.004487478174269199,0.0
1666091821081925310,1.3730446100234985,-0.019910495728254318,0.0
1666091821170656670,1.3849759101867676,-0.04316771775484085,0.0
1666091821278292826,1.3909356594085693,-0.06477980315685272,0.0
1666091821346170778,1.3994808197021484,-0.08398619294166565,0.0
1666091821417569869,1.4058362245559692,-0.10269235074520111,0.0
1666091821482400746,1.4033021926879883,-0.11804226040840149,0.0
1666091821549918617,1.407846450805664,-0.13148631155490875,0.0
1666091821668445150,1.3970739841461182,-0.14308536052703857,0.0
1666091821732700743,1.4003440141677856,-0.15220533311367035,0.0
1666091821809459116,1.3852956295013428,-0.1589777171611786,0.0
1666091821882098470,1.3675504922866821,-0.1653209924697876,0.0
1666091821928225999,1.3713023662567139,-0.16875474154949188,0.0
1666091821999917872,1.3691245317459106,-0.1721474677324295,0.0
1666091822054142772,1.3607250452041626,-0.1768130213022232,0.0
1666091822147946217,1.3335784673690796,-0.1809007227420807,0.0
1666091822196751365,1.304693579673767,-0.1840290129184723,0.0
1666091822269045967,1.2909128665924072,-0.18829135596752167,0.0
1666091822350227326,1.269461750984192,-0.18982920050621033,0.0
1666091822418299902,1.2546945810317993,-0.19499614834785461,0.0
1666091822471945793,1.246119499206543,-0.19814766943454742,0.0
1666091822561678854,1.2320908308029175,-0.2021602839231491,0.0
1666091822614723139,1.2210716009140015,-0.2055383026599884,0.0
1666091822682803539,1.207883596420288,-0.2078613042831421,0.0
1666091822750695743,1.1899619102478027,-0.20995287597179413,0.0
1666091822836044608,1.1632922887802124,-0.2123517245054245,0.0
1666091822889383220,1.1376729011535645,-0.2136312574148178,0.0
1666091822971447398,1.107359766960144,-0.2183682769536972,0.0
1666091823022292950,1.0820671319961548,-0.21850380301475525,0.0
1666091823107178748,1.0567547082901,-0.2174529731273651,0.0
1666091823152467056,1.0316005945205688,-0.21630942821502686,0.0
1666091823211258444,1.0063557624816895,-0.212307870388031,0.0
1666091823329641263,0.9803386926651001,-0.212241530418396,0.0
1666091823331060519,0.9580074548721313,-0.2115265280008316,0.0
1666091823468084843,0.9459129571914673,-0.21134890615940094,0.0
1666091823521810450,0.925875723361969,-0.21210482716560364,0.0
1666091823606125008,0.9253302812576294,-0.19340108335018158,0.0
1666091823662329734,0.9213191866874695,-0.1977430284023285,0.0
1666091823735329769,0.915834903717041,-0.20441105961799622,0.0
1666091823812499143,0.9119964241981506,-0.21152466535568237,0.0
1666091823875791688,0.9116482138633728,-0.22051021456718445,0.0
1666091823932368070,0.908068835735321,-0.2237977236509323,0.0
1666091824012457286,0.9093741178512573,-0.2280280590057373,0.0
1666091824070336998,0.9125582575798035,-0.23310017585754395,0.0
1666091824137470287,0.9204608798027039,-0.23812028765678406,0.0
1666091824188241467,0.9285657405853271,-0.24195106327533722,0.0
1666091824268566355,0.9418969750404358,-0.2464975267648697,0.0
1666091824322165239,0.9567855596542358,-0.24980871379375458,0.0
1666091824408843593,0.9809879064559937,-0.2564409673213959,0.0
1666091824459949616,1.0097179412841797,-0.26385387778282166,0.0
1666091824533614378,1.0590627193450928,-0.2543993294239044,0.0
1666091824623071326,1.0783286094665527,-0.26289689540863037,0.0
1666091824662807040,1.0980490446090698,-0.27216461300849915,0.0
1666091824731673887,1.1229345798492432,-0.28207725286483765,0.0
1666091824796100004,1.1483449935913086,-0.28880295157432556,0.0
1666091824856715719,1.1738238334655762,-0.2899486720561981,0.0
1666091824976321068,1.1907137632369995,-0.2923763692378998,0.0
1666091824978110931,1.2107795476913452,-0.2908257246017456,0.0
1666091825045508688,1.2320866584777832,-0.28214892745018005,0.0
1666091825161128531,1.2528626918792725,-0.2716963589191437,0.0
1666091825217646692,1.2696597576141357,-0.27019304037094116,0.0
1666091825288246000,1.289690375328064,-0.26569533348083496,0.0
1666091825401502702,1.2994822263717651,-0.26177725195884705,0.0
1666091825512865424,1.3141109943389893,-0.25662457942962646,0.0
1666091825618234287,1.323561191558838,-0.25455179810523987,0.0
1666091825652867282,1.3302316665649414,-0.25239917635917664,0.0
1666091825737573291,1.3409558534622192,-0.25236043334007263,0.0
1666091825801569151,1.356545090675354,-0.25837603211402893,0.0
1666091825974818401,1.3641951084136963,-0.2637476623058319,0.0
1666091825976076087,1.3696153163909912,-0.2697061598300934,0.0
1666091826067274975,1.3676817417144775,-0.2770730257034302,0.0
1666091826170488079,1.3755806684494019,-0.2827985882759094,0.0
1666091826260696346,1.3677384853363037,-0.2888706624507904,0.0
1666091826410923713,1.3702198266983032,-0.30098676681518555,0.0
1666091826452474543,1.3485934734344482,-0.30670928955078125,0.0
1666091826498412637,1.3264044523239136,-0.31778138875961304,0.0
1666091826574654419,1.3011524677276611,-0.3304230570793152,0.0
1666091826675470056,1.249211311340332,-0.36460962891578674,0.0
1666091826790003444,1.1968128681182861,-0.3893583416938782,0.0
1666091826851972453,1.1737786531448364,-0.4102138876914978,0.0
1666091826937489133,1.1205425262451172,-0.43314307928085327,0.0
1666091827036154685,1.0733673572540283,-0.4422037601470947,0.0
1666091827120440864,1.037560224533081,-0.4517408013343811,0.0
1666091827215079879,0.9906211495399475,-0.4612608850002289,0.0
1666091827293946306,0.9462870955467224,-0.47083836793899536,0.0
1666091827359709214,0.8976198434829712,-0.48131802678108215,0.0
1666091827509588962,0.8530560731887817,-0.4916944205760956,0.0
1666091827552236417,0.8204386234283447,-0.5049236416816711,0.0
1666091827619426355,0.7892979979515076,-0.5141540169715881,0.0
1666091827732591171,0.7682858109474182,-0.5279418230056763,0.0
1666091827804160712,0.7602750062942505,-0.5462632179260254,0.0
1666091827818144978,0.7533374428749084,-0.5639687776565552,0.0
1666091827938814649,0.755276620388031,-0.5848180055618286,0.0
1666091827980106414,0.7597784996032715,-0.5995854139328003,0.0
1666091828077554760,0.7794590592384338,-0.6179429888725281,0.0
1666091828104444197,0.8010942935943604,-0.6233254671096802,0.0
1666091828176180090,0.825677216053009,-0.6246748566627502,0.0
1666091828294326994,0.8611718416213989,-0.6249088048934937,0.0
1666091828357813310,0.9008642435073853,-0.6114456057548523,0.0
1666091828422933920,0.9367281794548035,-0.5945645570755005,0.0
1666091828504058197,0.9804819822311401,-0.582315981388092,0.0
1666091828556120899,1.0182582139968872,-0.5493698716163635,0.0
1666091828670591237,1.0515390634536743,-0.5151529312133789,0.0
1666091828752308448,1.0860611200332642,-0.48130297660827637,0.0
1666091828837640244,1.1239479780197144,-0.44836553931236267,0.0
1666091828881949731,1.1538240909576416,-0.4104507565498352,0.0
1666091828946392788,1.1811742782592773,-0.3822871148586273,0.0
1666091828997339484,1.2068523168563843,-0.33425891399383545,0.0
1666091829114209056,1.2325550317764282,-0.2849661111831665,0.0
1666091829228364919,1.2490390539169312,-0.24899540841579437,0.0
1666091829311470058,1.256024718284607,-0.19873319566249847,0.0
1666091829372722385,1.265611171722412,-0.1592499166727066,0.0
1666091829428674471,1.2761592864990234,-0.11960587650537491,0.0
1666091829500612031,1.2805962562561035,-0.08416977524757385,0.0
1666091829557635346,1.2819429636001587,-0.05215294659137726,0.0
1666091829651722706,1.2848443984985352,-0.016440290957689285,0.0
1666091829704141524,1.2846674919128418,0.0189286507666111,0.0
1666091829775158675,1.2789757251739502,0.0503874197602272,0.0
1666091829836888697,1.270676612854004,0.07619879394769669,0.0
1666091829905209091,1.2625789642333984,0.10008890926837921,0.0
1666091830004265404,1.2602732181549072,0.12229058891534805,0.0
1666091830056341554,1.256416916847229,0.13874347507953644,0.0
1666091830136668364,1.2506998777389526,0.15183496475219727,0.0
1666091830196887514,1.2424278259277344,0.16433581709861755,0.0
1666091830265294824,1.2372374534606934,0.17458593845367432,0.0
1666091830330846134,1.2295429706573486,0.18346917629241943,0.0
1666091830403487250,1.218290090560913,0.18836639821529388,0.0
1666091830480191798,1.203153133392334,0.18962928652763367,0.0
1666091830561024072,1.1939815282821655,0.19060593843460083,0.0
1666091830624028170,1.1835689544677734,0.18906627595424652,0.0
1666091830707723545,1.1678340435028076,0.18100877106189728,0.0
1666091830789908140,1.1540398597717285,0.17366409301757812,0.0
1666091830854955421,1.13979172706604,0.1654987335205078,0.0
1666091830903050672,1.122523307800293,0.15583422780036926,0.0
1666091830970368737,1.105177879333496,0.14752356708049774,0.0
1666091831044631328,1.0874704122543335,0.14010754227638245,0.0
1666091831093476753,1.0722764730453491,0.13172465562820435,0.0
1666091831188480747,1.071457028388977,0.12545889616012573,0.0
1666091831242369172,1.0727827548980713,0.11906609684228897,0.0
1666091831320764248,1.0856801271438599,0.11158333718776703,0.0
1666091831377143444,1.097470760345459,0.10224861651659012,0.0
1666091831444937447,1.1113685369491577,0.09771734476089478,0.0
1666091831523783953,1.123127818107605,0.09368379414081573,0.0
1666091831584561367,1.1324135065078735,0.09556713700294495,0.0
1666091831699751355,1.1376445293426514,0.0974612683057785,0.0
1666091831761233520,1.1452451944351196,0.10217386484146118,0.0
1666091831866105971,1.1464401483535767,0.10576648265123367,0.0
1666091831921711270,1.1485462188720703,0.11207953095436096,0.0
1666091832012533346,1.1490378379821777,0.12098164856433868,0.0
1666091832058872546,1.1452511548995972,0.1302284151315689,0.0
1666091832153953167,1.1433131694793701,0.1264795958995819,0.0
1666091832193489881,1.1372138261795044,0.12459264695644379,0.0
1666091832260450311,1.1272944211959839,0.12666285037994385,0.0
1666091832345409935,1.1130543947219849,0.1302337795495987,0.0
1666091832393068386,1.0992265939712524,0.13489724695682526,0.0
1666091832446392531,1.0851353406906128,0.1382661759853363,0.0
1666091832557731956,1.077467918395996,0.14469431340694427,0.0
1666091832614607258,1.064026951789856,0.1731029748916626,0.0
1666091832696527813,1.0523167848587036,0.1971690058708191,0.0
1666091832751010885,1.0404834747314453,0.2156839370727539,0.0
1666091832819912514,1.0269256830215454,0.226298987865448,0.0
1666091832943716907,1.0081417560577393,0.24416838586330414,0.0
1666091833053124283,0.9941592812538147,0.2541411817073822,0.0
1666091833155455000,0.9771938920021057,0.2608962655067444,0.0
1666091833160897790,0.9658636450767517,0.26493412256240845,0.0
1666091833238253862,0.9501307606697083,0.2698298692703247,0.0
1666091833339221104,0.9450870752334595,0.27938464283943176,0.0
1666091833340692947,0.9355669021606445,0.28756898641586304,0.0
1666091833453032146,0.923480212688446,0.29883694648742676,0.0
1666091833589951829,0.9189245104789734,0.31103718280792236,0.0
1666091833591371820,0.9189028739929199,0.3198033273220062,0.0
1666091833654618791,0.9215455055236816,0.33093973994255066,0.0
1666091833734807172,0.9430943131446838,0.3287649154663086,0.0
1666091833858628150,0.9625466465950012,0.32866671681404114,0.0
1666091833943481912,0.9882098436355591,0.3280395567417145,0.0
1666091834027718144,1.0012645721435547,0.33937934041023254,0.0
1666091834029061960,1.0227340459823608,0.34253787994384766,0.0
1666091834108936442,1.044676661491394,0.34169432520866394,0.0
1666091834195278688,1.0599285364151,0.3451549708843231,0.0
1666091834285432878,1.083137035369873,0.33960336446762085,0.0
1666091834368865798,1.0931698083877563,0.330824077129364,0.0
1666091834478089267,1.1150232553482056,0.3174106776714325,0.0
1666091834560915255,1.1223750114440918,0.3026464581489563,0.0
1666091834639328071,1.1323940753936768,0.28597819805145264,0.0
1666091834707206576,1.1521632671356201,0.26925069093704224,0.0
1666091834758263872,1.172109842300415,0.24132515490055084,0.0
1666091834827342073,1.1911277770996094,0.2163902223110199,0.0
1666091834887886696,1.2084357738494873,0.1872161477804184,0.0
1666091834964160281,1.2262721061706543,0.1565968543291092,0.0
1666091835083170577,1.2283176183700562,0.13531172275543213,0.0
1666091835175781841,1.2281476259231567,0.09830644726753235,0.0
1666091835265491610,1.2270499467849731,0.06581161171197891,0.0
1666091835357690346,1.2284691333770752,0.025954559445381165,0.0
1666091835447913014,1.2217217683792114,-0.0027189869433641434,0.0
1666091835458659414,1.2184849977493286,-0.032033201307058334,0.0
1666091835528393227,1.2085448503494263,-0.05808126926422119,0.0
1666091835635136957,1.2214559316635132,-0.08126986026763916,0.0
1666091835735828324,1.216373085975647,-0.09936285018920898,0.0
1666091835817177172,1.2147735357284546,-0.11891428381204605,0.0
1666091835849850397,1.223315954208374,-0.13195349276065826,0.0
1666091835921527827,1.2273138761520386,-0.1403169333934784,0.0
1666091836050419294,1.2265841960906982,-0.14213444292545319,0.0
1666091836102614483,1.2245697975158691,-0.14216622710227966,0.0
1666091836208666959,1.2184133529663086,-0.13728725910186768,0.0
1666091836262428559,1.2105143070220947,-0.12948697805404663,0.0
1666091836363503724,1.1969362497329712,-0.119231678545475,0.0
1666091836408293657,1.1807644367218018,-0.10671364516019821,0.0
1666091836496443867,1.1619309186935425,-0.09037213027477264,0.0
1666091836547765221,1.142501950263977,-0.07616768032312393,0.0
1666091836627080924,1.1202179193496704,-0.05911695212125778,0.0
1666091836704941713,1.0959577560424805,-0.042926717549562454,0.0
1666091836746179358,1.0730798244476318,-0.027177229523658752,0.0
1666091836845708118,1.0487840175628662,-0.008857264183461666,0.0
1666091836893067648,1.02440345287323,0.002364662941545248,0.0
1666091836949651455,1.0014467239379883,0.02024856209754944,0.0
1666091837008573826,0.9826823472976685,0.03720623999834061,0.0
1666091837085343472,0.9604035019874573,0.046872660517692566,0.0
1666091837128956262,0.9452729225158691,0.05687548965215683,0.0
1666091837193321240,0.9313938021659851,0.06634990125894547,0.0
1666091837265381231,0.913397490978241,0.06991884112358093,0.0
1666091837343473015,0.8959241509437561,0.0744297206401825,0.0
1666091837468896791,0.8821431994438171,0.07917751371860504,0.0
1666091837524139178,0.8804280757904053,0.06943350285291672,0.0
1666091837664419206,0.8874720335006714,0.0633436068892479,0.0
1666091837720254420,0.8828350305557251,0.06426720321178436,0.0
1666091837777367224,0.8954319357872009,0.05903632938861847,0.0
1666091837902609402,0.8942215442657471,0.06019284948706627,0.0
1666091837969762836,0.9180348515510559,0.04722049459815025,0.0
1666091838026943294,0.9217584133148193,0.04795932024717331,0.0
1666091838110891694,0.9479798078536987,0.038753874599933624,0.0
1666091838183215955,0.9721081852912903,0.028432276099920273,0.0
1666091838255541503,0.9832848310470581,0.029856842011213303,0.0
1666091838326954897,1.0115636587142944,0.021957091987133026,0.0
1666091838369616110,1.0336494445800781,0.014664797112345695,0.0
1666091838427005507,1.0517058372497559,0.016661042347550392,0.0
1666091838526990926,1.061373233795166,0.019311191514134407,0.0
1666091838594015293,1.0700658559799194,0.02211650460958481,0.0
1666091838647888617,1.0779445171356201,0.025279346853494644,0.0
1666091838715951258,1.090047001838684,0.023804493248462677,0.0
1666091838772577847,1.0952003002166748,0.02718200534582138,0.0
1666091838834131962,1.1033473014831543,0.02650291472673416,0.0
1666091838909564885,1.1064512729644775,0.02974700927734375,0.0
1666091839017271146,1.1092294454574585,0.02745239995419979,0.0
1666091839097428210,1.1124354600906372,0.02684362605214119,0.0
1666091839193424346,1.1101351976394653,0.02977750077843666,0.0
1666091839297468848,1.107776403427124,0.02743358165025711,0.0
1666091839355999686,1.1038637161254883,0.02828986570239067,0.0
1666091839408957778,1.0960261821746826,0.0262738149613142,0.0
1666091839493900424,1.0862436294555664,0.028947507962584496,0.0
1666091839548552669,1.0731548070907593,0.03268303722143173,0.0
1666091839619108687,1.060053825378418,0.03217687830328941,0.0
1666091839698203128,1.0456079244613647,0.032766543328762054,0.0
1666091839765563678,1.0309683084487915,0.03451450914144516,0.0
1666091839807259042,1.014470100402832,0.032746750861406326,0.0
1666091839904684306,0.9956318736076355,0.03162642940878868,0.0
1666091839948481644,0.9788410067558289,0.030093858018517494,0.0
1666091840013904215,0.9592750072479248,0.027373408898711205,0.0
1666091840075864549,0.9384586215019226,0.028532953932881355,0.0
1666091840132164554,0.9159974455833435,0.029218802228569984,0.0
1666091840221653699,0.89573734998703,0.026638450101017952,0.0
1666091840309583951,0.8733068108558655,0.027383476495742798,0.0
1666091840390144949,0.8542261719703674,0.026428386569023132,0.0
1666091840432509248,0.839198648929596,0.02750406414270401,0.0
1666091840513508682,0.8264267444610596,0.028939638286828995,0.0
1666091840605182204,0.818416953086853,0.027635278180241585,0.0
1666091840717552250,0.8101860284805298,0.02755453996360302,0.0
1666091840812963682,0.794757604598999,0.030796287581324577,0.0
1666091840901051843,0.7929302453994751,0.03131870552897453,0.0
1666091840948238215,0.7798812389373779,0.03473196551203728,0.0
1666091841014901198,0.7823326587677002,0.03449534997344017,0.0
1666091841106222418,0.7815553545951843,0.03340966999530792,0.0
1666091841171015452,0.781451940536499,0.0309089757502079,0.0
1666091841242503387,0.7843920588493347,0.027884136885404587,0.0
1666091841351476895,0.7881178855895996,0.027447091415524483,0.0
1666091841392225476,0.7811067700386047,0.03053254447877407,0.0
1666091841441876073,0.791689932346344,0.03168004751205444,0.0
1666091841589249701,0.8005139827728271,0.0335303470492363,0.0
1666091841590483662,0.809445858001709,0.028816664591431618,0.0
1666091841752058280,0.8161748647689819,0.028032442554831505,0.0
1666091841753550130,0.8181818127632141,0.03028513491153717,0.0
1666091841859573121,0.8180016875267029,0.031704381108284,0.0
1666091841980844944,0.8133078217506409,0.03422214835882187,0.0
1666091842066728638,0.8071396350860596,0.03239716216921806,0.0
1666091842091458676,0.7990295886993408,0.033442094922065735,0.0
1666091842167214511,0.7913175821304321,0.03557361662387848,0.0
1666091842278071184,0.786221981048584,0.036101847887039185,0.0
1666091842312468913,0.781339168548584,0.035505954176187515,0.0
1666091842379044147,0.7778449058532715,0.03627962991595268,0.0
1666091842432734162,0.772151529788971,0.0364188551902771,0.0
1666091842507280870,0.7670909762382507,0.035895779728889465,0.0
1666091842582843799,0.764248788356781,0.03263073042035103,0.0
1666091842730684683,0.755449116230011,0.030139319598674774,0.0
1666091842731509904,0.7479008436203003,0.02682708390057087,0.0
1666091842809751402,0.7422490119934082,0.024066708981990814,0.0
1666091842925719753,0.7410244345664978,0.02109118364751339,0.0
1666091843018331701,0.744971513748169,0.024689672514796257,0.0
1666091843107016412,0.7490277886390686,0.022003769874572754,0.0
1666091843155916314,0.7538314461708069,0.016822386533021927,0.0
1666091843256509607,0.7666881680488586,0.01209758035838604,0.0
1666091843304088044,0.770022988319397,0.012790831737220287,0.0
1666091843362407665,0.7721628546714783,0.007438691332936287,0.0
1666091843441384904,0.7817666530609131,0.002104878891259432,0.0
1666091843570924742,0.7899616956710815,-0.006570521742105484,0.0
1666091843620818528,0.796515941619873,-0.007714985404163599,0.0
1666091843720157776,0.8005145192146301,-0.011747355572879314,0.0
1666091843777468617,0.8161801099777222,-0.019594108685851097,0.0
1666091843863723033,0.8367804884910583,-0.020447254180908203,0.0
1666091843952573974,0.850187361240387,-0.01923230104148388,0.0
1666091844024408681,0.8678359985351562,-0.0177081897854805,0.0
1666091844033576408,0.8900508880615234,-0.006449765060096979,0.0
1666091844107123417,0.9142278432846069,0.0013354216935113072,0.0
1666091844232160840,0.935716986656189,0.010000474750995636,0.0
1666091844316557749,0.951185941696167,0.017877481877803802,0.0
1666091844383677760,0.9590707421302795,0.02742437832057476,0.0
1666091844424741915,0.9724685549736023,0.03660032898187637,0.0
1666091844509453903,0.9834944009780884,0.04577167332172394,0.0
1666091844666252026,0.9935075044631958,0.05291202664375305,0.0
1666091844748625075,0.9963722229003906,0.05759364739060402,0.0
1666091844819985155,0.9979183077812195,0.05872887745499611,0.0
1666091844866022923,0.9988365173339844,0.05758819729089737,0.0
1666091844924420094,1.0017037391662598,0.05508141592144966,0.0
1666091844998993842,1.0014153718948364,0.05143803730607033,0.0
1666091845111951512,1.0000056028366089,0.04819236695766449,0.0
1666091845192971240,0.9969040155410767,0.04474183917045593,0.0
1666091845275361356,0.9945443272590637,0.041010838001966476,0.0
1666091845345498578,0.9824169874191284,0.0301655363291502,0.0
1666091845460068712,0.968802273273468,0.006423854269087315,0.0
1666091845508199823,0.9525961875915527,-0.04295416176319122,0.0
1666091845591400149,0.9356297850608826,-0.09855294227600098,0.0
1666091845661506715,0.9182965755462646,-0.150930717587471,0.0
1666091845725768346,0.9031979441642761,-0.19971513748168945,0.0
1666091845791623276,0.8904737830162048,-0.23490193486213684,0.0
1666091845863615509,0.8772584199905396,-0.2670503854751587,0.0
1666091845927228177,0.863750696182251,-0.30674225091934204,0.0
1666091846004839001,0.8468086123466492,-0.33985233306884766,0.0
1666091846061326575,0.8317030072212219,-0.3559828996658325,0.0
1666091846111106407,0.8141166567802429,-0.37808912992477417,0.0
1666091846250411442,0.7907450199127197,-0.44190356135368347,0.0
1666091846335546464,0.7739886045455933,-0.44202864170074463,0.0
1666091846399392582,0.7687562704086304,-0.4325922429561615,0.0
1666091846433373069,0.7667784690856934,-0.42357107996940613,0.0
1666091846526071742,0.7628093361854553,-0.4054250717163086,0.0
1666091846609972671,0.7548927068710327,-0.3779541850090027,0.0
1666091846709615863,0.7378594875335693,-0.3790186047554016,0.0
1666091846772752335,0.7235254645347595,-0.3746489882469177,0.0
1666091846854163709,0.7126238346099854,-0.38166937232017517,0.0
1666091846940380488,0.7017222046852112,-0.3886897563934326,0.0
1666091847001814419,0.7007666826248169,-0.26129305362701416,0.0
1666091847044219568,0.6908653378486633,-0.2547945976257324,0.0
1666091847197887427,0.6740434765815735,-0.09792087972164154,0.0
1666091847270470287,0.661471426486969,0.022907353937625885,0.0
1666091847334244474,0.6487057209014893,0.1304137110710144,0.0
1666091847451835396,0.6587928533554077,0.22311554849147797,0.0
1666091847517075231,0.6594123840332031,0.29609063267707825,0.0
1666091847628121718,0.6634423136711121,0.36001813411712646,0.0
1666091847690560100,0.6660708785057068,0.41246289014816284,0.0
1666091847777264205,0.6678749322891235,0.4340883493423462,0.0
1666091847825549319,0.6857568621635437,0.41224056482315063,0.0
1666091847888382300,0.6902284026145935,0.46585047245025635,0.0
1666091847993061029,0.6941115260124207,0.4976310133934021,0.0
1666091848075839278,0.7106713056564331,0.513437032699585,0.0
1666091848122477861,0.7226642370223999,0.4379352927207947,0.0
1666091848199775015,0.7200362682342529,0.36326533555984497,0.0
1666091848278211641,0.723534345626831,0.2726846933364868,0.0
1666091848337225940,0.7196600437164307,0.1838371902704239,0.0
1666091848408538305,0.7103190422058105,0.11204477399587631,0.0
1666091848471567916,0.6980445981025696,0.0383145809173584,0.0
1666091848520828770,0.6880730986595154,-0.03873511403799057,0.0
1666091848602479074,0.6820587515830994,-0.1154102012515068,0.0
1666091848663983748,0.6790531873703003,-0.1742091029882431,0.0
1666091848783929738,0.6851418018341064,-0.22406718134880066,0.0
1666091848874703854,0.6921821236610413,-0.2902491092681885,0.0
1666091848941328215,0.701129674911499,-0.3325461149215698,0.0
1666091849067493007,0.7071034908294678,-0.3436899185180664,0.0
1666091849068741755,0.7302070260047913,-0.3787785768508911,0.0
1666091849167548501,0.7434168457984924,-0.403380423784256,0.0
1666091849244348695,0.7630854249000549,-0.35316339135169983,0.0
1666091849367261095,0.7674810886383057,-0.286503404378891,0.0
1666091849458494904,0.7775740027427673,-0.20457544922828674,0.0
1666091849471673703,0.7844618558883667,-0.11932189762592316,0.0
1666091849543229770,0.7803967595100403,-0.04432981461286545,0.0
1666091849662765126,0.7689245343208313,0.032542191445827484,0.0
1666091849708503386,0.7511579394340515,0.1103237047791481,0.0
1666091849774429754,0.7380648851394653,0.19153790175914764,0.0
1666091849877118223,0.7431804537773132,0.24857142567634583,0.0
1666091849984873019,0.7503170967102051,0.2840562164783478,0.0
1666091849996329672,0.744749128818512,0.3148951232433319,0.0
1666091850072113906,0.7477408051490784,0.368018239736557,0.0
1666091850198389972,0.744844377040863,0.3652668595314026,0.0
1666091850246397027,0.7424433827400208,0.3918207585811615,0.0
1666091850317096618,0.7389659881591797,0.4133739769458771,0.0
1666091850390233072,0.7515361905097961,0.37641072273254395,0.0
1666091850512324328,0.7529850006103516,0.3324786424636841,0.0
1666091850587435546,0.7515127658843994,0.2804129123687744,0.0
1666091850663772544,0.7483927011489868,0.21263718605041504,0.0
1666091850760712522,0.7434953451156616,0.13145527243614197,0.0
1666091850768847554,0.7336353063583374,0.04937394708395004,0.0
1666091850842254698,0.7207136154174805,-0.014088883996009827,0.0
1666091850910363657,0.706211507320404,-0.0787668526172638,0.0
1666091851031613285,0.6915673017501831,-0.21109578013420105,0.0
1666091851133070133,0.6809914708137512,-0.3202407658100128,0.0
1666091851194768821,0.6789997220039368,-0.4190695881843567,0.0
1666091851269871742,0.672996461391449,-0.49474748969078064,0.0
1666091851381510332,0.6663599610328674,-0.5403696298599243,0.0
1666091851433045615,0.669340193271637,-0.5326531529426575,0.0
1666091851558927074,0.6575952172279358,-0.5595714449882507,0.0
1666091851561083508,0.6456727981567383,-0.5896179676055908,0.0
1666091851632340211,0.6398515105247498,-0.6114263534545898,0.0
1666091851720912219,0.6533308029174805,-0.5512996315956116,0.0
1666091851826425575,0.6664655804634094,-0.47837603092193604,0.0
1666091851891339182,0.6778295636177063,-0.38807767629623413,0.0
1666091851989982150,0.6854836344718933,-0.2896326780319214,0.0
1666091852072940138,0.6866968274116516,-0.1989089548587799,0.0
1666091852117140743,0.6874377727508545,-0.11652231216430664,0.0
1666091852164228927,0.6876684427261353,-0.09862607717514038,0.0
1666091852262828229,0.687899112701416,-0.08072984218597412,0.0
1666091852349116513,0.6881297826766968,-0.06283360719680786,0.0
1666091852409740737,0.6669286489486694,0.12683454155921936,0.0
1666091852453620306,0.670734703540802,0.2649676203727722,0.0
1666091852548537780,0.667417049407959,0.3762139081954956,0.0
1666091852586647417,0.6694653630256653,0.47294947504997253,0.0
1666091852669912704,0.6728056073188782,0.5384484529495239,0.0
1666091852719318074,0.6760518550872803,0.5801045894622803,0.0
1666091852781466751,0.6748387813568115,0.6046954989433289,0.0
1666091852841211617,0.6698492169380188,0.6251252889633179,0.0
1666091852909079664,0.6725045442581177,0.6643057465553284,0.0
1666091852976147181,0.6692624092102051,0.6778601408004761,0.0
1666091853040183661,0.6698165535926819,0.6810991764068604,0.0
1666091853126708079,0.6814253926277161,0.6189682483673096,0.0
1666091853204252928,0.6875893473625183,0.5368182063102722,0.0
1666091853250126606,0.6967157125473022,0.4446290135383606,0.0
1666091853313949142,0.7021342515945435,0.34292688965797424,0.0
1666091853376205140,0.7030999660491943,0.2617858052253723,0.0
1666091853452140177,0.6900020241737366,0.16879357397556305,0.0
1666091853574811468,0.6863179802894592,0.06329996138811111,0.0
1666091853632634307,0.686381995677948,0.03958709165453911,0.0
1666091853705397687,0.6864460110664368,0.015874221920967102,0.0
1666091853767239140,0.6865100264549255,-0.007838647812604904,0.0
1666091853845035484,0.6811487674713135,-0.1840689778327942,0.0
1666091853946840126,0.7014926075935364,-0.27155178785324097,0.0
1666091854006617368,0.6932973265647888,-0.325954794883728,0.0
1666091854076134403,0.6912980675697327,-0.3662821054458618,0.0
1666091854159443861,0.6803722977638245,-0.41527631878852844,0.0
1666091854216563221,0.6734858751296997,-0.4584828317165375,0.0
1666091854323702223,0.6623342633247375,-0.4714813828468323,0.0
1666091854364137958,0.6762999892234802,-0.44374221563339233,0.0
1666091854449686246,0.681403398513794,-0.3871951103210449,0.0
1666091854517991628,0.6930164694786072,-0.29587486386299133,0.0
1666091854646954393,0.6956627368927002,-0.20751923322677612,0.0
1666091854728009583,0.693303108215332,-0.11556682735681534,0.0
1666091854845880975,0.6927499771118164,-0.017548568546772003,0.0
1666091854941982495,0.6905167102813721,0.0940086767077446,0.0
1666091855005390149,0.6841756701469421,0.1962178647518158,0.0
1666091855050160783,0.6717087030410767,0.28787297010421753,0.0
1666091855137588279,0.6710631251335144,0.36826252937316895,0.0
1666091855185380165,0.6639455556869507,0.4308115541934967,0.0
1666091855292595751,0.6674118041992188,0.4907436966896057,0.0
1666091855345075570,0.6826538443565369,0.5188792943954468,0.0
1666091855437570009,0.6813092827796936,0.5408331751823425,0.0
1666091855483180822,0.6819172501564026,0.5587838888168335,0.0
1666091855577097602,0.6891505718231201,0.5623813271522522,0.0
1666091855630982741,0.6934612989425659,0.5680360794067383,0.0
1666091855696094835,0.6976032853126526,0.5703732967376709,0.0
1666091855764974163,0.7061490416526794,0.5576560497283936,0.0
1666091855837188272,0.713178277015686,0.5475128293037415,0.0
1666091855886927421,0.7231173515319824,0.5300949811935425,0.0
1666091855966954618,0.7363559007644653,0.5176001787185669,0.0
1666091856055620329,0.749884843826294,0.4884435534477234,0.0
1666091856169207638,0.7600489258766174,0.4608457386493683,0.0
1666091856208634585,0.7712435722351074,0.42994603514671326,0.0
1666091856311776832,0.7816440463066101,0.4033381938934326,0.0
1666091856395107437,0.7913175821304321,0.3753822147846222,0.0
1666091856478649703,0.8012571334838867,0.3414226472377777,0.0
1666091856557527075,0.8094027042388916,0.3128463625907898,0.0
1666091856604508036,0.8239553570747375,0.2908104658126831,0.0
1666091856672760261,0.8299075365066528,0.2606528699398041,0.0
1666091856736425930,0.8393328785896301,0.23470692336559296,0.0
1666091856803081563,0.8433860540390015,0.21247224509716034,0.0
1666091856878772430,0.8441680073738098,0.19405709207057953,0.0
1666091857001922666,0.8450524806976318,0.17792873084545135,0.0
1666091857039782614,0.8444017767906189,0.16431567072868347,0.0
1666091857099696880,0.846204400062561,0.15784746408462524,0.0
1666091857191530225,0.8438794016838074,0.15137827396392822,0.0
1666091857284029096,0.8489740490913391,0.14560340344905853,0.0
1666091857370328208,0.8474881052970886,0.14586246013641357,0.0
1666091857499541957,0.8445077538490295,0.14625999331474304,0.0
1666091857613285067,0.8414445519447327,0.14617718756198883,0.0
1666091857700617131,0.8396639823913574,0.14640343189239502,0.0
1666091857811455231,0.8392527103424072,0.14747783541679382,0.0
1666091857812236148,0.8331361413002014,0.14700636267662048,0.0
1666091857938818706,0.8353379964828491,0.140778049826622,0.0
