%time,field.x,field.y,field.z
1666091792132287483,0.10101975538669099,-0.46928256261917833,0.0
1666091792152259046,0.10101975538669099,-0.46928256261917833,0.0
1666091792172263480,0.10101975538669099,-0.46928256261917833,0.0
1666091792192249179,0.10101975538669099,-0.46928256261917833,0.0
1666091792213198234,0.10101975538669099,-0.46928256261917833,0.0
1666091792232194718,0.10101975538669099,-0.46928256261917833,0.0
1666091792252150358,0.10101975538669099,-0.46928256261917833,0.0
1666091792272249901,0.10101975538669099,-0.46928256261917833,0.0
1666091792292245451,0.10101975538669099,-0.46928256261917833,0.0
1666091792336064229,0.10101975538669099,-0.46928256261917833,0.0
1666091792336070923,0.10093446411027668,-0.46928293477493926,0.0
1666091792384021027,0.10084917283386237,-0.4692833069307002,0.0
1666091792384029455,0.10080652716382803,-0.46928348556550986,0.0
1666091792432034817,0.10076388149379369,-0.46928366420031953,0.0
1666091792432043049,0.10076388149379369,-0.46928366420031953,0.0
1666091792476028093,0.10076388149379369,-0.46928366420031953,0.0
1666091792476036682,0.10076388149379369,-0.46928366420031953,0.0
1666091792476045573,0.10076388149379369,-0.46928366420031953,0.0
1666091792524037354,0.10076388149379369,-0.46928366420031953,0.0
1666091792524052997,0.10076388149379369,-0.46928366420031953,0.0
1666091792533026425,0.10076388149379369,-0.46928366420031953,0.0
1666091792552972655,0.10076388149379369,-0.46928366420031953,0.0
1666091792596059368,0.10076388149379369,-0.46928366420031953,0.0
1666091792596068113,0.10076388149379369,-0.46928366420031953,0.0
1666091792640040120,0.10076388149379369,-0.46928366420031953,0.0
1666091792640050404,0.10076388149379369,-0.46928366420031953,0.0
1666091792684031250,0.10076388149379369,-0.46928366420031953,0.0
1666091792684043465,0.10076388149379369,-0.46928366420031953,0.0
1666091792728027158,0.10076388149379369,-0.46928366420031953,0.0
1666091792728044733,0.10076388149379369,-0.46928366420031953,0.0
1666091792772031745,0.10076388149379369,-0.46928366420031953,0.0
1666091792772036408,0.10076388149379369,-0.46928366420031953,0.0
1666091792816022965,0.10076388149379369,-0.46928366420031953,0.0
1666091792816037095,0.10076388149379369,-0.46928366420031953,0.0
1666091792816053021,0.10076388149379369,-0.46928366420031953,0.0
1666091792860032785,0.10076388149379369,-0.46928366420031953,0.0
1666091792860040305,0.10076388149379369,-0.46928366420031953,0.0
1666091792872886760,0.10076388149379369,-0.46928366420031953,0.0
1666091792892876579,0.10076388149379369,-0.46928366420031953,0.0
1666091792936019300,0.10076388149379369,-0.46928366420031953,0.0
1666091792936027258,0.10076388149379369,-0.46928366420031953,0.0
1666091792980020683,0.10072123566007654,-0.4692837981765982,0.0
1666091792980031406,0.10072123566007654,-0.4692837981765982,0.0
1666091793024091692,0.10072123566007654,-0.4692837981765982,0.0
1666091793024103460,0.10072123566007654,-0.4692837981765982,0.0
1666091793068048751,0.10072123566007654,-0.4692837981765982,0.0
1666091793068058783,0.10072123566007654,-0.4692837981765982,0.0
1666091793112061148,0.10072123566007654,-0.4692837981765982,0.0
1666091793112072248,0.10072123566007654,-0.4692837981765982,0.0
1666091793156115739,0.1006785898263594,-0.4692839321528769,0.0
1666091793156129011,0.10059329815892512,-0.46928420010543426,0.0
1666091793156136509,0.10042271473312162,-0.4692847062381325,0.0
1666091793200046070,0.10025213114103701,-0.46928515282595257,0.0
1666091793200058993,0.10012419328913635,-0.4692854207787548,0.0
1666091793212732060,0.09991096322743896,-0.46928568128854925,0.0
1666091793232847805,0.09965508697802729,-0.46928577060621346,0.0
1666091793276072410,0.09939921081045719,-0.4692855473120767,0.0
1666091793276081169,0.09910068939245337,-0.4692848178851966,0.0
1666091793320053070,0.09875952378795363,-0.46928344835132885,0.0
1666091793320060690,0.09841836374865168,-0.4692810665662488,0.0
1666091793364045686,0.09807720891078171,-0.46927802980570477,0.0
1666091793364055960,0.09782134811368508,-0.46927521635591757,0.0
1666091793408041256,0.09769342094195499,-0.46927354169750496,0.0
1666091793408051180,0.09765077959060263,-0.46927290905391045,0.0
1666091793456090436,0.09760813928561074,-0.4692722094302459,0.0
1666091793456103802,0.09760813928561074,-0.4692722094302459,0.0
1666091793456112177,0.09760813928561074,-0.4692722094302459,0.0
1666091793500082206,0.09760813928561074,-0.4692722094302459,0.0
1666091793500095002,0.09760813928561074,-0.4692722094302459,0.0
1666091793512604650,0.09760813928561074,-0.4692722094302459,0.0
1666091793532630700,0.09760813928561074,-0.4692722094302459,0.0
1666091793576051498,0.09760813928561074,-0.4692722094302459,0.0
1666091793576061498,0.09760813928561074,-0.4692722094302459,0.0
1666091793620177877,0.09760813928561074,-0.4692722094302459,0.0
1666091793620208668,0.09760813928561074,-0.4692722094302459,0.0
1666091793664070645,0.09760813928561074,-0.4692722094302459,0.0
1666091793664082131,0.09760813928561074,-0.4692722094302459,0.0
1666091793708039651,0.09760813928561074,-0.4692722094302459,0.0
1666091793708046367,0.09760813928561074,-0.4692722094302459,0.0
1666091793752035678,0.09760813928561074,-0.4692722094302459,0.0
1666091793752045875,0.09760813928561074,-0.4692722094302459,0.0
1666091793796041062,0.09760813928561074,-0.4692722094302459,0.0
1666091793796051398,0.09760813928561074,-0.4692722094302459,0.0
1666091793796057392,0.09760813928561074,-0.4692722094302459,0.0
1666091793840090568,0.09760813928561074,-0.4692722094302459,0.0
1666091793840107956,0.09760813928561074,-0.4692722094302459,0.0
1666091793854761559,0.09760813928561074,-0.4692722094302459,0.0
1666091793873592510,0.09760813928561074,-0.4692722094302459,0.0
1666091793916058676,0.09760813928561074,-0.4692722094302459,0.0
1666091793916069408,0.09760813928561074,-0.4692722094302459,0.0
1666091793964039121,0.09760813928561074,-0.4692722094302459,0.0
1666091793964050310,0.09760813928561074,-0.4692722094302459,0.0
1666091794012046192,0.09760813928561074,-0.4692722094302459,0.0
1666091794012053972,0.09760813928561074,-0.4692722094302459,0.0
1666091794060355520,0.09760813928561074,-0.4692722094302459,0.0
1666091794060408663,0.09760813928561074,-0.4692722094302459,0.0
1666091794060427258,0.09760813928561074,-0.4692722094302459,0.0
1666091794104111469,0.09756550040238235,-0.46927142794441223,0.0
1666091794104123431,0.09752286151915396,-0.4692706464585786,0.0
1666091794114722205,0.09752286151915396,-0.4692706464585786,0.0
1666091794139404946,0.09752286151915396,-0.4692706464585786,0.0
1666091794184055621,0.09752286151915396,-0.4692706464585786,0.0
1666091794184071770,0.09752286151915396,-0.4692706464585786,0.0
1666091794228309115,0.09752286151915396,-0.4692706464585786,0.0
1666091794228357454,0.09752286151915396,-0.4692706464585786,0.0
1666091794272195394,0.09752286151915396,-0.4692706464585786,0.0
1666091794272218984,0.09752286151915396,-0.4692706464585786,0.0
1666091794316063210,0.09752286151915396,-0.4692706464585786,0.0
1666091794316079362,0.09752286151915396,-0.4692706464585786,0.0
1666091794316095733,0.09748022263592557,-0.4692698649727449,0.0
1666091794360147162,0.09743758375269718,-0.46926908348691126,0.0
1666091794360171047,0.09743758375269718,-0.46926908348691126,0.0
1666091794374365180,0.09743758375269718,-0.46926908348691126,0.0
1666091794394332299,0.09739494486946879,-0.4692683020010776,0.0
1666091794436222614,0.09739494486946879,-0.4692683020010776,0.0
1666091794436266270,0.09739494486946879,-0.4692683020010776,0.0
1666091794480099063,0.09739494486946879,-0.4692683020010776,0.0
1666091794480132119,0.09739494486946879,-0.4692683020010776,0.0
1666091794524062871,0.09739494486946879,-0.4692683020010776,0.0
1666091794524075679,0.09739494486946879,-0.4692683020010776,0.0
1666091794568062950,0.09739494486946879,-0.4692683020010776,0.0
1666091794568079040,0.09739494486946879,-0.4692683020010776,0.0
1666091794616043273,0.09739494486946879,-0.4692683020010776,0.0
1666091794616053736,0.09739494486946879,-0.4692683020010776,0.0
1666091794616060872,0.09739494486946879,-0.4692683020010776,0.0
1666091794660050470,0.09739494486946879,-0.4692683020010776,0.0
1666091794660064164,0.09739494486946879,-0.4692683020010776,0.0
1666091794674237801,0.09739494486946879,-0.4692683020010776,0.0
1666091794694262094,0.09739494486946879,-0.4692683020010776,0.0
1666091794736041496,0.09739494486946879,-0.4692683020010776,0.0
1666091794736055047,0.09739494486946879,-0.4692683020010776,0.0
1666091794780044714,0.09739494486946879,-0.4692683020010776,0.0
1666091794780055559,0.09739494486946879,-0.4692683020010776,0.0
1666091794824046922,0.09739494486946879,-0.4692683020010776,0.0
1666091794824057104,0.09739494486946879,-0.4692683020010776,0.0
1666091794868048817,0.09739494486946879,-0.4692683020010776,0.0
1666091794868061382,0.09739494486946879,-0.4692683020010776,0.0
1666091794912048673,0.09739494486946879,-0.4692683020010776,0.0
1666091794912055993,0.09739494486946879,-0.4692683020010776,0.0
1666091794956053406,0.09739494486946879,-0.4692683020010776,0.0
1666091794956067420,0.09739494486946879,-0.4692683020010776,0.0
1666091794956073609,0.09739494486946879,-0.4692683020010776,0.0
1666091795000078170,0.09739494486946879,-0.4692683020010776,0.0
1666091795000091843,0.09739494486946879,-0.4692683020010776,0.0
1666091795014202431,0.09739494486946879,-0.4692683020010776,0.0
1666091795034250077,0.09739494486946879,-0.4692683020010776,0.0
1666091795076038486,0.09739494486946879,-0.4692683020010776,0.0
1666091795076052618,0.09739494486946879,-0.4692683020010776,0.0
1666091795120060328,0.09739494486946879,-0.4692683020010776,0.0
1666091795120072107,0.09739494486946879,-0.4692683020010776,0.0
1666091795168079256,0.09739494486946879,-0.4692683020010776,0.0
1666091795168092669,0.09739494486946879,-0.4692683020010776,0.0
1666091795212070936,0.09739494486946879,-0.4692683020010776,0.0
1666091795212086779,0.09739494486946879,-0.4692683020010776,0.0
1666091795260143746,0.09739494486946879,-0.4692683020010776,0.0
1666091795260165595,0.09739494486946879,-0.4692683020010776,0.0
1666091795260178339,0.09739494486946879,-0.4692683020010776,0.0
1666091795304071190,0.09739494486946879,-0.4692683020010776,0.0
1666091795304090523,0.09739494486946879,-0.4692683020010776,0.0
1666091795314173887,0.09739494486946879,-0.4692683020010776,0.0
1666091795334154840,0.09739494486946879,-0.4692683020010776,0.0
1666091795376235112,0.09739494486946879,-0.4692683020010776,0.0
1666091795376269094,0.09739494486946879,-0.4692683020010776,0.0
1666091795420088395,0.09739494486946879,-0.4692683020010776,0.0
1666091795420100043,0.09739494486946879,-0.4692683020010776,0.0
1666091795468125985,0.09739494486946879,-0.4692683020010776,0.0
1666091795468143763,0.09739494486946879,-0.4692683020010776,0.0
1666091795512069903,0.09739494486946879,-0.4692683020010776,0.0
1666091795512085744,0.09739494486946879,-0.4692683020010776,0.0
1666091795556063923,0.09739494486946879,-0.4692683020010776,0.0
1666091795556075752,0.09739494486946879,-0.4692683020010776,0.0
1666091795556080125,0.09739494486946879,-0.4692683020010776,0.0
1666091795600110487,0.09739494486946879,-0.4692683020010776,0.0
1666091795600131187,0.09739494486946879,-0.4692683020010776,0.0
1666091795614302253,0.09739494486946879,-0.4692683020010776,0.0
1666091795634333972,0.09739494486946879,-0.4692683020010776,0.0
1666091795676070199,0.09739494486946879,-0.4692683020010776,0.0
1666091795676084979,0.09739494486946879,-0.4692683020010776,0.0
1666091795720105437,0.09739494486946879,-0.4692683020010776,0.0
1666091795720121292,0.09739494486946879,-0.4692683020010776,0.0
1666091795764059918,0.09739494486946879,-0.4692683020010776,0.0
1666091795764076011,0.09739494486946879,-0.4692683020010776,0.0
1666091795808136042,0.09739494486946879,-0.4692683020010776,0.0
1666091795808157996,0.09739494486946879,-0.4692683020010776,0.0
1666091795852080242,0.09739494486946879,-0.4692683020010776,0.0
1666091795852090046,0.09739494486946879,-0.4692683020010776,0.0
1666091795896120326,0.09739494486946879,-0.4692683020010776,0.0
1666091795896140469,0.09739494486946879,-0.4692683020010776,0.0
1666091795896149255,0.09739494486946879,-0.4692683020010776,0.0
1666091795940105415,0.09739494486946879,-0.4692683020010776,0.0
1666091795940119796,0.09739494486946879,-0.4692683020010776,0.0
1666091795954868331,0.09739494486946879,-0.4692683020010776,0.0
1666091795973803177,0.09739494486946879,-0.4692683020010776,0.0
1666091796016073453,0.09739494486946879,-0.4692683020010776,0.0
1666091796016087377,0.09739494486946879,-0.4692683020010776,0.0
1666091796060235419,0.09739494486946879,-0.4692683020010776,0.0
1666091796060264306,0.09739494486946879,-0.4692683020010776,0.0
1666091796104076207,0.09739494486946879,-0.4692683020010776,0.0
1666091796104095689,0.09739494486946879,-0.4692683020010776,0.0
1666091796148073279,0.09739494486946879,-0.4692683020010776,0.0
1666091796148089194,0.09739494486946879,-0.4692683020010776,0.0
1666091796192073581,0.09739494486946879,-0.4692683020010776,0.0
1666091796192085935,0.09739494486946879,-0.4692683020010776,0.0
1666091796236111383,0.09739494486946879,-0.4692683020010776,0.0
1666091796236131866,0.09739494486946879,-0.4692683020010776,0.0
1666091796236141640,0.09739494486946879,-0.4692683020010776,0.0
1666091796280070188,0.09739494486946879,-0.4692683020010776,0.0
1666091796280086067,0.09739494486946879,-0.4692683020010776,0.0
1666091796294782232,0.09739494486946879,-0.4692683020010776,0.0
1666091796315139584,0.09739494486946879,-0.4692683020010776,0.0
1666091796356153932,0.09739494486946879,-0.4692683020010776,0.0
1666091796356172147,0.09739494486946879,-0.4692683020010776,0.0
1666091796400052257,0.09739494486946879,-0.4692683020010776,0.0
1666091796400064132,0.09739494486946879,-0.4692683020010776,0.0
1666091796444074978,0.09739494486946879,-0.4692683020010776,0.0
1666091796444088512,0.09739494486946879,-0.4692683020010776,0.0
1666091796488084078,0.09739494486946879,-0.4692683020010776,0.0
1666091796488102243,0.09739494486946879,-0.4692683020010776,0.0
1666091796532056362,0.09739494486946879,-0.4692683020010776,0.0
1666091796532070180,0.09739494486946879,-0.4692683020010776,0.0
1666091796576096204,0.09739494486946879,-0.4692683020010776,0.0
1666091796576111810,0.09739494486946879,-0.4692683020010776,0.0
1666091796576124088,0.09739494486946879,-0.4692683020010776,0.0
1666091796620085711,0.09739494486946879,-0.4692683020010776,0.0
1666091796620099977,0.09739494486946879,-0.4692683020010776,0.0
1666091796634557870,0.09739494486946879,-0.4692683020010776,0.0
1666091796655503102,0.09739494486946879,-0.4692683020010776,0.0
1666091796696117459,0.09739494486946879,-0.4692683020010776,0.0
1666091796696134330,0.09739494486946879,-0.4692683020010776,0.0
1666091796740111877,0.09739494486946879,-0.4692683020010776,0.0
1666091796740128391,0.09739494486946879,-0.4692683020010776,0.0
1666091796784087962,0.09739494486946879,-0.4692683020010776,0.0
1666091796784108110,0.09739494486946879,-0.4692683020010776,0.0
1666091796832138960,0.09739494486946879,-0.4692683020010776,0.0
1666091796832159235,0.09739494486946879,-0.4692683020010776,0.0
1666091796880216904,0.09739494486946879,-0.4692683020010776,0.0
1666091796880248699,0.09739494486946879,-0.4692683020010776,0.0
1666091796880271624,0.09739494486946879,-0.4692683020010776,0.0
1666091796924041031,0.09739494486946879,-0.4692683020010776,0.0
1666091796924051656,0.09739494486946879,-0.4692683020010776,0.0
1666091796934671075,0.09739494486946879,-0.4692683020010776,0.0
1666091796955559484,0.09739494486946879,-0.4692683020010776,0.0
1666091796996112888,0.09739494486946879,-0.4692683020010776,0.0
1666091797040072196,0.09739494486946879,-0.4692683020010776,0.0
1666091797040087197,0.09739494486946879,-0.4692683020010776,0.0
1666091797040096530,0.09739494486946879,-0.4692683020010776,0.0
1666091797084095824,0.09739494486946879,-0.4692683020010776,0.0
1666091797084116638,0.09739494486946879,-0.4692683020010776,0.0
1666091797096595041,0.09739494486946879,-0.4692683020010776,0.0
1666091797117956332,0.09739494486946879,-0.4692683020010776,0.0
1666091797160218540,0.09739494486946879,-0.4692683020010776,0.0
1666091797160238659,0.09739494486946879,-0.4692683020010776,0.0
1666091797208113416,0.09739494486946879,-0.4692683020010776,0.0
1666091797208140330,0.09739494486946879,-0.4692683020010776,0.0
1666091797256060380,0.09739494486946879,-0.4692683020010776,0.0
1666091797256072428,0.09739494486946879,-0.4692683020010776,0.0
1666091797256082654,0.09739494486946879,-0.4692683020010776,0.0
1666091797304069006,0.09739494486946879,-0.4692683020010776,0.0
1666091797304081907,0.09739494486946879,-0.4692683020010776,0.0
1666091797315385362,0.09739494486946879,-0.4692683020010776,0.0
1666091797335626696,0.09739494486946879,-0.4692683020010776,0.0
1666091797376182402,0.09739494486946879,-0.4692683020010776,0.0
1666091797376220766,0.09739494486946879,-0.4692683020010776,0.0
1666091797420085354,0.09739494486946879,-0.4692683020010776,0.0
1666091797420102624,0.09739494486946879,-0.4692683020010776,0.0
1666091797464158734,0.09739494486946879,-0.4692683020010776,0.0
1666091797464182021,0.09739494486946879,-0.4692683020010776,0.0
1666091797508160858,0.09739494486946879,-0.4692683020010776,0.0
1666091797508180324,0.09739494486946879,-0.4692683020010776,0.0
1666091797552070522,0.09739494486946879,-0.4692683020010776,0.0
1666091797552085646,0.09739494486946879,-0.4692683020010776,0.0
1666091797596071564,0.09739494486946879,-0.4692683020010776,0.0
1666091797596086852,0.09739494486946879,-0.4692683020010776,0.0
1666091797596094943,0.09739494486946879,-0.4692683020010776,0.0
1666091797640131266,0.09739494486946879,-0.4692683020010776,0.0
1666091797640150730,0.09739494486946879,-0.4692683020010776,0.0
1666091797655280666,0.09739494486946879,-0.4692683020010776,0.0
1666091797675377166,0.09739494486946879,-0.4692683020010776,0.0
1666091797716223696,0.09739494486946879,-0.4692683020010776,0.0
1666091797716243104,0.09739494486946879,-0.4692683020010776,0.0
1666091797764194444,0.09739494486946879,-0.4692683020010776,0.0
1666091797764225661,0.09739494486946879,-0.4692683020010776,0.0
1666091797808168944,0.09739494486946879,-0.4692683020010776,0.0
1666091797808190676,0.09739494486946879,-0.4692683020010776,0.0
1666091797852068104,0.09739494486946879,-0.4692683020010776,0.0
1666091797852080410,0.09739494486946879,-0.4692683020010776,0.0
1666091797897557021,0.09739494486946879,-0.4692683020010776,0.0
1666091797897583264,0.09739494486946879,-0.4692683020010776,0.0
1666091797897599854,0.09739494486946879,-0.4692683020010776,0.0
1666091797940105839,0.09739494486946879,-0.4692683020010776,0.0
1666091797940119716,0.09739494486946879,-0.4692683020010776,0.0
1666091797955295371,0.09739494486946879,-0.4692683020010776,0.0
1666091797975065690,0.09739494486946879,-0.4692683020010776,0.0
1666091798016091639,0.09739494486946879,-0.4692683020010776,0.0
1666091798016107439,0.09739494486946879,-0.4692683020010776,0.0
1666091798060060273,0.09739494486946879,-0.4692683020010776,0.0
1666091798060074361,0.09739494486946879,-0.4692683020010776,0.0
1666091798104171663,0.09739494486946879,-0.4692683020010776,0.0
1666091798104191252,0.09739494486946879,-0.4692683020010776,0.0
1666091798148206465,0.09739494486946879,-0.4692683020010776,0.0
1666091798148240265,0.09739494486946879,-0.4692683020010776,0.0
1666091798192058560,0.09739494486946879,-0.4692683020010776,0.0
1666091798192069186,0.09739494486946879,-0.4692683020010776,0.0
1666091798236120919,0.09739494486946879,-0.4692683020010776,0.0
1666091798236148532,0.09739494486946879,-0.4692683020010776,0.0
1666091798280150786,0.09739494486946879,-0.4692683020010776,0.0
1666091798280175587,0.09739494486946879,-0.4692683020010776,0.0
1666091798280382701,0.09739494486946879,-0.4692683020010776,0.0
1666091798324099389,0.09739494486946879,-0.4692683020010776,0.0
1666091798324118730,0.09739494486946879,-0.4692683020010776,0.0
1666091798336129500,0.09739494486946879,-0.4692683020010776,0.0
1666091798356050720,0.09739494486946879,-0.4692683020010776,0.0
1666091798396157530,0.09739494486946879,-0.4692683020010776,0.0
1666091798444149673,0.09739494486946879,-0.4692683020010776,0.0
1666091798444169556,0.09739494486946879,-0.4692683020010776,0.0
1666091798444181070,0.09739494486946879,-0.4692683020010776,0.0
1666091798488059995,0.09739494486946879,-0.4692683020010776,0.0
1666091798488075547,0.09739494486946879,-0.4692683020010776,0.0
1666091798496149101,0.09739494486946879,-0.4692683020010776,0.0
1666091798516099088,0.09739494486946879,-0.4692683020010776,0.0
1666091798556336254,0.09739494486946879,-0.4692683020010776,0.0
1666091798600065564,0.09739494486946879,-0.4692683020010776,0.0
1666091798600084009,0.09739494486946879,-0.4692683020010776,0.0
1666091798600092531,0.09739494486946879,-0.4692683020010776,0.0
1666091798644112420,0.09739494486946879,-0.4692683020010776,0.0
1666091798644131578,0.09739494486946879,-0.4692683020010776,0.0
1666091798656944659,0.09739494486946879,-0.4692683020010776,0.0
1666091798676432533,0.09739494486946879,-0.4692683020010776,0.0
1666091798724234277,0.09739494486946879,-0.4692683020010776,0.0
1666091798724300548,0.09739494486946879,-0.4692683020010776,0.0
1666091798772178044,0.09739494486946879,-0.4692683020010776,0.0
1666091798772210352,0.09739494486946879,-0.4692683020010776,0.0
1666091798816102288,0.09739494486946879,-0.4692683020010776,0.0
1666091798816120105,0.09739494486946879,-0.4692683020010776,0.0
1666091798816129279,0.09739494486946879,-0.4692683020010776,0.0
1666091798860119480,0.09739494486946879,-0.4692683020010776,0.0
1666091798860131225,0.09739494486946879,-0.4692683020010776,0.0
1666091798875976843,0.09739494486946879,-0.4692683020010776,0.0
1666091798899359895,0.09739494486946879,-0.4692683020010776,0.0
1666091798940082280,0.09739494486946879,-0.4692683020010776,0.0
1666091798940097844,0.09739494486946879,-0.4692683020010776,0.0
1666091798984056971,0.09739494486946879,-0.4692683020010776,0.0
1666091798984067886,0.09739494486946879,-0.4692683020010776,0.0
1666091799028169770,0.09739494486946879,-0.4692683020010776,0.0
1666091799028199686,0.09739494486946879,-0.4692683020010776,0.0
1666091799072093864,0.09739494486946879,-0.4692683020010776,0.0
1666091799072114030,0.09739494486946879,-0.4692683020010776,0.0
1666091799116083542,0.09739494486946879,-0.4692683020010776,0.0
1666091799116109743,0.09739494486946879,-0.4692683020010776,0.0
1666091799160083203,0.09739494486946879,-0.4692683020010776,0.0
1666091799160098120,0.09739494486946879,-0.4692683020010776,0.0
1666091799160106878,0.09739494486946879,-0.4692683020010776,0.0
1666091799204112562,0.09739494486946879,-0.4692683020010776,0.0
1666091799204134620,0.09739494486946879,-0.4692683020010776,0.0
1666091799215769466,0.09739494486946879,-0.4692683020010776,0.0
1666091799235878864,0.09739494486946879,-0.4692683020010776,0.0
1666091799276065690,0.09739494486946879,-0.4692683020010776,0.0
1666091799320101083,0.09739494486946879,-0.4692683020010776,0.0
1666091799320123174,0.09739494486946879,-0.4692683020010776,0.0
1666091799320135694,0.09739494486946879,-0.4692683020010776,0.0
1666091799364160816,0.09739494486946879,-0.4692683020010776,0.0
1666091799364187026,0.09739494486946879,-0.4692683020010776,0.0
1666091799376166488,0.09739494486946879,-0.4692683020010776,0.0
1666091799396028352,0.09739494486946879,-0.4692683020010776,0.0
1666091799436218304,0.09739494486946879,-0.4692683020010776,0.0
1666091799480107789,0.09739494486946879,-0.4692683020010776,0.0
1666091799480126406,0.09739494486946879,-0.4692683020010776,0.0
1666091799480132775,0.09739494486946879,-0.4692683020010776,0.0
1666091799524169308,0.09739494486946879,-0.4692683020010776,0.0
1666091799524194906,0.09739494486946879,-0.4692683020010776,0.0
1666091799536496049,0.09739494486946879,-0.4692683020010776,0.0
1666091799555597399,0.09739494486946879,-0.4692683020010776,0.0
1666091799596181872,0.09739494486946879,-0.4692683020010776,0.0
1666091799644090287,0.09739494486946879,-0.4692683020010776,0.0
1666091799644106859,0.09739494486946879,-0.4692683020010776,0.0
1666091799644112650,0.09739494486946879,-0.4692683020010776,0.0
1666091799688136210,0.09739494486946879,-0.4692683020010776,0.0
1666091799688155869,0.09739494486946879,-0.4692683020010776,0.0
1666091799697179402,0.09739494486946879,-0.4692683020010776,0.0
1666091799716638579,0.09739494486946879,-0.4692683020010776,0.0
1666091799760181875,0.09739494486946879,-0.4692683020010776,0.0
1666091799760205807,0.09739494486946879,-0.4692683020010776,0.0
1666091799804240154,0.09739494486946879,-0.4692683020010776,0.0
1666091799804275169,0.09739494486946879,-0.4692683020010776,0.0
1666091799852237903,0.09739494486946879,-0.4692683020010776,0.0
1666091799852274465,0.09739494486946879,-0.4692683020010776,0.0
1666091799896363576,0.09739494486946879,-0.4692683020010776,0.0
1666091799896413295,0.09739494486946879,-0.4692683020010776,0.0
1666091799940789352,0.09739494486946879,-0.4692683020010776,0.0
1666091799940841723,0.09739494486946879,-0.4692683020010776,0.0
1666091799940855144,0.09739494486946879,-0.4692683020010776,0.0
1666091799984155917,0.09739494486946879,-0.4692683020010776,0.0
1666091799984182260,0.09739494486946879,-0.4692683020010776,0.0
1666091799996728235,0.09739494486946879,-0.4692683020010776,0.0
1666091800016902272,0.09739494486946879,-0.4692683020010776,0.0
1666091800060145725,0.09739494486946879,-0.4692683020010776,0.0
1666091800060169336,0.09739494486946879,-0.4692683020010776,0.0
1666091800104260535,0.09739494486946879,-0.4692683020010776,0.0
1666091800104342821,0.09739494486946879,-0.4692683020010776,0.0
1666091800148203900,0.09739494486946879,-0.4692683020010776,0.0
1666091800148235983,0.09739494486946879,-0.4692683020010776,0.0
1666091800197307394,0.09739494486946879,-0.4692683020010776,0.0
1666091800197342896,0.09739494486946879,-0.4692683020010776,0.0
1666091800244206856,0.09739494486946879,-0.4692683020010776,0.0
1666091800244236873,0.09739494486946879,-0.4692683020010776,0.0
1666091800244259196,0.09739494486946879,-0.4692683020010776,0.0
1666091800288090143,0.09739494486946879,-0.4692683020010776,0.0
1666091800288108036,0.09739494486946879,-0.4692683020010776,0.0
1666091800296768727,0.09739494486946879,-0.4692683020010776,0.0
1666091800316214299,0.09739494486946879,-0.4692683020010776,0.0
1666091800360093061,0.09739494486946879,-0.4692683020010776,0.0
1666091800360109157,0.09739494486946879,-0.4692683020010776,0.0
1666091800404110867,0.09739494486946879,-0.4692683020010776,0.0
1666091800404132450,0.09739494486946879,-0.4692683020010776,0.0
1666091800448195577,0.09739494486946879,-0.4692683020010776,0.0
1666091800448207708,0.09739494486946879,-0.4692683020010776,0.0
1666091800492086022,0.09739494486946879,-0.4692683020010776,0.0
1666091800492103551,0.09739494486946879,-0.4692683020010776,0.0
1666091800540083523,0.09739494486946879,-0.4692683020010776,0.0
1666091800540167387,0.09739494486946879,-0.4692683020010776,0.0
1666091800580315164,0.09739494486946879,-0.4692683020010776,0.0
1666091800580356764,0.09739494486946879,-0.4692683020010776,0.0
1666091800581185988,0.09739494486946879,-0.4692683020010776,0.0
1666091800624162845,0.09739494486946879,-0.4692683020010776,0.0
1666091800624185365,0.09739494486946879,-0.4692683020010776,0.0
1666091800637959832,0.09739494486946879,-0.4692683020010776,0.0
1666091800657285915,0.09739494486946879,-0.4692683020010776,0.0
1666091800700157246,0.09739494486946879,-0.4692683020010776,0.0
1666091800700181055,0.09739494486946879,-0.4692683020010776,0.0
1666091800744087822,0.09739494486946879,-0.4692683020010776,0.0
1666091800744100509,0.09739494486946879,-0.4692683020010776,0.0
1666091800788067901,0.09739494486946879,-0.4692683020010776,0.0
1666091800788082255,0.09739494486946879,-0.4692683020010776,0.0
1666091800832091965,0.09739494486946879,-0.4692683020010776,0.0
1666091800832113249,0.09739494486946879,-0.4692683020010776,0.0
1666091800876095580,0.09739494486946879,-0.4692683020010776,0.0
1666091800876134279,0.09739494486946879,-0.4692683020010776,0.0
1666091800920247586,0.09739494486946879,-0.4692683020010776,0.0
1666091800920282988,0.09739494486946879,-0.4692683020010776,0.0
1666091800920299300,0.09739494486946879,-0.4692683020010776,0.0
1666091800964255194,0.09739494486946879,-0.4692683020010776,0.0
1666091800964325065,0.09739494486946879,-0.4692683020010776,0.0
1666091800976942989,0.09739494486946879,-0.4692683020010776,0.0
1666091800997277197,0.09739494486946879,-0.4692683020010776,0.0
1666091801040094959,0.09739494486946879,-0.4692683020010776,0.0
1666091801040110174,0.09739494486946879,-0.4692683020010776,0.0
1666091801084089764,0.09739494486946879,-0.4692683020010776,0.0
1666091801084100623,0.09739494486946879,-0.4692683020010776,0.0
1666091801128096362,0.09739494486946879,-0.4692683020010776,0.0
1666091801128111996,0.09739494486946879,-0.4692683020010776,0.0
1666091801172082721,0.09739494486946879,-0.4692683020010776,0.0
1666091801172101238,0.09739494486946879,-0.4692683020010776,0.0
1666091801216109020,0.09739494486946879,-0.4692683020010776,0.0
1666091801216121208,0.09739494486946879,-0.4692683020010776,0.0
1666091801260096812,0.09739494486946879,-0.4692683020010776,0.0
1666091801260110682,0.09739494486946879,-0.4692683020010776,0.0
1666091801260120953,0.09739494486946879,-0.4692683020010776,0.0
1666091801304155060,0.09739494486946879,-0.4692683020010776,0.0
1666091801304175934,0.09739494486946879,-0.4692683020010776,0.0
1666091801316909598,0.09739494486946879,-0.4692683020010776,0.0
1666091801337813726,0.09739494486946879,-0.4692683020010776,0.0
1666091801384085942,0.09739494486946879,-0.4692683020010776,0.0
1666091801384096075,0.09739494486946879,-0.4692683020010776,0.0
1666091801428098157,0.09739494486946879,-0.4692683020010776,0.0
1666091801428107742,0.09739494486946879,-0.4692683020010776,0.0
1666091801472142806,0.09739494486946879,-0.4692683020010776,0.0
1666091801472167570,0.09739494486946879,-0.4692683020010776,0.0
1666091801516116333,0.09739494486946879,-0.4692683020010776,0.0
1666091801516127461,0.09739494486946879,-0.4692683020010776,0.0
1666091801560084604,0.09739494486946879,-0.4692683020010776,0.0
1666091801560099935,0.09739494486946879,-0.4692683020010776,0.0
1666091801560110503,0.09739494486946879,-0.4692683020010776,0.0
1666091801608074373,0.09739494486946879,-0.4692683020010776,0.0
1666091801608091346,0.09739494486946879,-0.4692683020010776,0.0
1666091801618089253,0.09739494486946879,-0.4692683020010776,0.0
1666091801637173765,0.09739494486946879,-0.4692683020010776,0.0
1666091801680065340,0.09739494486946879,-0.4692683020010776,0.0
1666091801680077480,0.09739494486946879,-0.4692683020010776,0.0
1666091801728069292,0.09739494486946879,-0.4692683020010776,0.0
1666091801728085696,0.09739494486946879,-0.4692683020010776,0.0
1666091801772111013,0.09739494486946879,-0.4692683020010776,0.0
1666091801772134011,0.09739494486946879,-0.4692683020010776,0.0
1666091801816047409,0.09739494486946879,-0.4692683020010776,0.0
1666091801816059386,0.09739494486946879,-0.4692683020010776,0.0
1666091801860186925,0.09739494486946879,-0.4692683020010776,0.0
1666091801860202640,0.09739494486946879,-0.4692683020010776,0.0
1666091801860210283,0.09739494486946879,-0.4692683020010776,0.0
1666091801904058662,0.09739494486946879,-0.4692683020010776,0.0
1666091801904075168,0.09739494486946879,-0.4692683020010776,0.0
1666091801917584772,0.09739494486946879,-0.4692683020010776,0.0
1666091801937817624,0.09739494486946879,-0.4692683020010776,0.0
1666091801984078076,0.09739494486946879,-0.4692683020010776,0.0
1666091801984091490,0.09739494486946879,-0.4692683020010776,0.0
1666091802032143470,0.09739494486946879,-0.4692683020010776,0.0
1666091802032162282,0.09739494486946879,-0.4692683020010776,0.0
1666091802076278188,0.09739494486946879,-0.4692683020010776,0.0
1666091802076363606,0.09739494486946879,-0.4692683020010776,0.0
1666091802120137241,0.09739494486946879,-0.4692683020010776,0.0
1666091802120157434,0.09739494486946879,-0.4692683020010776,0.0
1666091802120164492,0.09739494486946879,-0.4692683020010776,0.0
1666091802164307338,0.09739494486946879,-0.4692683020010776,0.0
1666091802164364211,0.09739494486946879,-0.4692683020010776,0.0
1666091802178819897,0.09739494486946879,-0.4692683020010776,0.0
1666091802198438873,0.09739494486946879,-0.4692683020010776,0.0
1666091802244385710,0.09739494486946879,-0.4692683020010776,0.0
1666091802244406006,0.09739494486946879,-0.4692683020010776,0.0
1666091802292208487,0.09739494486946879,-0.4692683020010776,0.0
1666091802292254298,0.09739494486946879,-0.4692683020010776,0.0
1666091802332174636,0.09739494486946879,-0.4692683020010776,0.0
1666091802332196465,0.09739494486946879,-0.4692683020010776,0.0
1666091802376312319,0.09739494486946879,-0.4692683020010776,0.0
1666091802376350553,0.09739494486946879,-0.4692683020010776,0.0
1666091802420097714,0.09739494486946879,-0.4692683020010776,0.0
1666091802420109384,0.09739494486946879,-0.4692683020010776,0.0
1666091802420117269,0.09739494486946879,-0.4692683020010776,0.0
1666091802468270233,0.09739494486946879,-0.4692683020010776,0.0
1666091802468309852,0.09739494486946879,-0.4692683020010776,0.0
1666091802478780909,0.09739494486946879,-0.4692683020010776,0.0
1666091802497641510,0.09739494486946879,-0.4692683020010776,0.0
1666091802540132145,0.09739494486946879,-0.4692683020010776,0.0
1666091802540147332,0.09739494486946879,-0.4692683020010776,0.0
1666091802588382348,0.09739494486946879,-0.4692683020010776,0.0
1666091802588444796,0.09739494486946879,-0.4692683020010776,0.0
1666091802632100808,0.09739494486946879,-0.4692683020010776,0.0
1666091802632115843,0.09739494486946879,-0.4692683020010776,0.0
1666091802676091227,0.09739494486946879,-0.4692683020010776,0.0
1666091802676121164,0.09739494486946879,-0.4692683020010776,0.0
1666091802720105041,0.09739494486946879,-0.4692683020010776,0.0
1666091802720122463,0.09739494486946879,-0.4692683020010776,0.0
1666091802720146742,0.09739494486946879,-0.4692683020010776,0.0
1666091802764243680,0.09739494486946879,-0.4692683020010776,0.0
1666091802764275724,0.09739494486946879,-0.4692683020010776,0.0
1666091802778867370,0.09739494486946879,-0.4692683020010776,0.0
1666091802798601375,0.09739494486946879,-0.4692683020010776,0.0
1666091802840123011,0.09739494486946879,-0.4692683020010776,0.0
1666091802840141332,0.09739494486946879,-0.4692683020010776,0.0
1666091802888114936,0.09739494486946879,-0.4692683020010776,0.0
1666091802888130097,0.09739494486946879,-0.4692683020010776,0.0
1666091802932264836,0.09739494486946879,-0.4692683020010776,0.0
1666091802932313199,0.09739494486946879,-0.4692683020010776,0.0
1666091802976105194,0.09739494486946879,-0.4692683020010776,0.0
1666091802976119944,0.09739494486946879,-0.4692683020010776,0.0
1666091803020239337,0.09739494486946879,-0.4692683020010776,0.0
1666091803020266321,0.09739494486946879,-0.4692683020010776,0.0
1666091803020279374,0.09739494486946879,-0.4692683020010776,0.0
1666091803064181585,0.09739494486946879,-0.4692683020010776,0.0
1666091803064210332,0.09739494486946879,-0.4692683020010776,0.0
1666091803079222164,0.09739494486946879,-0.4692683020010776,0.0
1666091803099797428,0.09739494486946879,-0.4692683020010776,0.0
1666091803144839052,0.09739494486946879,-0.4692683020010776,0.0
1666091803144986905,0.09777869358512445,-0.4692754023504743,0.0
1666091803188226624,0.09803452606222822,-0.4692801359167388,0.0
1666091803188259047,0.09811980355459614,-0.46928171377216027,0.0
1666091803232160316,0.09850355102516223,-0.4692888810982344,0.0
1666091803232175083,0.09888729723894912,-0.4692961154007676,0.0
1666091803276103765,0.09961214880232783,-0.4693099067051145,0.0
1666091803276116635,0.10020908138303541,-0.46932147261935014,0.0
1666091803320400941,0.10080601193601837,-0.4693331427177985,0.0
1666091803320444468,0.10170140469663054,-0.469350804141257,0.0
1666091803321031990,0.10272469999991556,-0.4693715244241933,0.0
1666091803364306451,0.10396116404426722,-0.4693974246537291,0.0
1666091803364339977,0.10502706948696723,-0.46942031054770805,0.0
1666091803377997366,0.10609295037917148,-0.4694443126425038,0.0
1666091803399400858,0.10762776910873395,-0.4694810187053137,0.0
1666091803440102529,0.10933301850651628,-0.46952597005991,0.0
1666091803440125332,0.11116606545789008,-0.46957781205699145,0.0
1666091803484116496,0.1128711296846431,-0.46962931075177206,0.0
1666091803484129998,0.11461868631897454,-0.4696863671663995,0.0
1666091803528074206,0.11692014165332752,-0.46976754010659166,0.0
1666091803528093262,0.11913613097811285,-0.4698518951720426,0.0
1666091803572347570,0.12143703086243855,-0.4699475268851465,0.0
1666091803572379267,0.12382276974438378,-0.4700554454085431,0.0
1666091803616093157,0.12620778346626693,-0.47017835174257994,0.0
1666091803616102926,0.1287625063877887,-0.47032207749989086,0.0
1666091803660164001,0.1314016294310571,-0.4704834931801167,0.0
1666091803660189281,0.1342101452157913,-0.47066904993360564,0.0
1666091803660216822,0.13701765093363608,-0.4708693094305974,0.0
1666091803704127687,0.13999407583320012,-0.4710983328449323,0.0
1666091803704148766,0.14301158947515888,-0.4713485386089835,0.0
1666091803718878763,0.14615400627752453,-0.47163894548754964,0.0
1666091803740298153,0.14937935993238857,-0.47195803613436577,0.0
1666091803780164531,0.15277216671650007,-0.4723164306897862,0.0
1666091803780194194,0.15611994509733312,-0.47269431098337966,0.0
1666091803824321115,0.15980366675989285,-0.4731368289000438,0.0
1666091803824415469,0.16339935912759002,-0.4735961720420278,0.0
1666091803868240429,0.1672873265427432,-0.47412253686022715,0.0
1666091803868262767,0.17117104002671088,-0.4746794211548329,0.0
1666091803912500585,0.17500541865548608,-0.47527781208400927,0.0
1666091803912570656,0.17912920595554652,-0.4759568038672398,0.0
1666091803956043072,0.18333107305042098,-0.47668561368313317,0.0
1666091803956055451,0.1877360471790411,-0.4774901048061847,0.0
1666091804000235324,0.19204977692108077,-0.47831845603541373,0.0
1666091804000267370,0.19643973196440428,-0.47920123446655016,0.0
1666091804000275359,0.20103082347355355,-0.48016454555846305,0.0
1666091804044051191,0.20569754189022743,-0.4811820547238008,0.0
1666091804044068184,0.2105604189839783,-0.48229937583845917,0.0
1666091804058751380,0.2154151762595721,-0.48345146606811007,0.0
1666091804078885054,0.22017831339024058,-0.4846196419530219,0.0
1666091804124055293,0.225221714697354,-0.4858976920427551,0.0
1666091804124065401,0.2302957145636485,-0.4872278845020093,0.0
1666091804168238396,0.23560484977743165,-0.48866934964178466,0.0
1666091804168296255,0.2408188341090405,-0.4901349345402548,0.0
1666091804212178142,0.24597095757294526,-0.4916610630379742,0.0
1666091804212212792,0.25159775581008825,-0.49338564423946324,0.0
1666091804256115190,0.2572074297719778,-0.49516513764022174,0.0
1666091804256138231,0.26267599601468283,-0.49696522621808525,0.0
1666091804300181221,0.26812346437239687,-0.4988281873370333,0.0
1666091804300213270,0.27354776638615147,-0.5007575611480367,0.0
1666091804300238270,0.27938736531378155,-0.502917694383559,0.0
1666091804344616318,0.285317190724791,-0.5052010686683082,0.0
1666091804344637534,0.2908043930159706,-0.5074437067366842,0.0
1666091804358771949,0.29622009924085696,-0.5097470010747512,0.0
1666091804378683768,0.3017582933765021,-0.5121965666956302,0.0
1666091804420142542,0.30501463927846584,-0.5136895011593385,0.0
1666091804420164347,0.3081350570990099,-0.5151711844774851,0.0
1666091804468573442,0.3101256657937229,-0.5161485285771565,0.0
1666091804468711037,0.3116092934284847,-0.5169002393278614,0.0
1666091804516126589,0.3133101370436615,-0.517789040931109,0.0
1666091804516150153,0.31387140002396824,-0.5180959415838106,0.0
1666091804564118369,0.3143545896018984,-0.5183677606611746,0.0
1666091804564142290,0.31513017331190424,-0.5188155441249256,0.0
1666091804564158126,0.3159742655501346,-0.5193151366612039,0.0
1666091804612225723,0.3166309371798932,-0.5197126745054222,0.0
1666091804612258194,0.3172481591583225,-0.5200929862438054,0.0
1666091804619600555,0.31786304644301483,-0.5204770612574835,0.0
1666091804639569692,0.3182950855296615,-0.5207513473846792,0.0
1666091804684394966,0.3183668758215706,-0.5207974005530817,0.0
1666091804684445265,0.31822373087124867,-0.5207046186339028,0.0
1666091804728190766,0.3181166890360396,-0.5206345457342716,0.0
1666091804728214665,0.3179032435291191,-0.5204934299004114,0.0
1666091804772296238,0.3174776872356488,-0.5202091896973254,0.0
1666091804772345481,0.3170889635627406,-0.5199465972351858,0.0
1666091804816105193,0.3166664574956023,-0.5196578425379186,0.0
1666091804816129875,0.3165263994275761,-0.5195604633876351,0.0
1666091804860127971,0.3165961725647941,-0.5196095189648414,0.0
1666091804860151658,0.3166656965167505,-0.5196589270657628,0.0
1666091804860161542,0.3167003286667054,-0.5196838127900354,0.0
1666091804904168034,0.3168728574112829,-0.5198091162591467,0.0
1666091804904197130,0.31721664205026767,-0.5200614664727496,0.0
1666091804918884537,0.31745648723230974,-0.5202392018314203,0.0
1666091804940467995,0.31769555461685783,-0.520417982016888,0.0
1666091804988219902,0.3178655562444131,-0.5205466932196071,0.0
1666091804988238912,0.3181029280726804,-0.5207277185885906,0.0
1666091805036454773,0.31820440102469194,-0.5208056378144448,0.0
1666091805036510792,0.31837313654918903,-0.5209360044123506,0.0
1666091805084078076,0.3184068015759388,-0.5209621836227476,0.0
1666091805084089640,0.3183732189595989,-0.520935898779913,0.0
1666091805084095142,0.3183062192106327,-0.52088311834821,0.0
1666091805128102928,0.3182728440686103,-0.5208565705615215,0.0
1666091805128118375,0.3182728440686103,-0.5208565705615215,0.0
1666091805139892447,0.3182728440686103,-0.5208565705615215,0.0
1666091805158644395,0.31823970655223777,-0.5208297267523332,0.0
1666091805206259470,0.3182727595729083,-0.5208566745334594,0.0
1666091805206297566,0.3183716641691541,-0.5209378289947608,0.0
1666091805248066815,0.3183716641691541,-0.5209378289947608,0.0
1666091805248079655,0.31843729737184245,-0.5209922993815518,0.0
1666091805292085363,0.31860088016658,-0.521129075828145,0.0
1666091805292093897,0.31866619855548,-0.5211839233294902,0.0
1666091805336475674,0.31876404678662773,-0.5212663483827744,0.0
1666091805336550599,0.3188292309629415,-0.52132135532316,0.0
1666091805384159436,0.3188943767212846,-0.5213764077572769,0.0
1666091805384179042,0.3188943767212846,-0.5213764077572769,0.0
1666091805384194219,0.31892690632220816,-0.5214039851057142,0.0
1666091805428070226,0.31892690632220816,-0.5214039851057142,0.0
1666091805428086966,0.31892690632220816,-0.5214039851057142,0.0
1666091805439831406,0.31892690632220816,-0.5214039851057142,0.0
1666091805459366292,0.31892690632220816,-0.5214039851057142,0.0
1666091805500136552,0.31892690632220816,-0.5214039851057142,0.0
1666091805500154148,0.31892690632220816,-0.5214039851057142,0.0
1666091805548113045,0.31899190773052954,-0.5214592079021712,0.0
1666091805548132012,0.3190244084346902,-0.5214868193003996,0.0
1666091805592068536,0.31905688985453984,-0.5215144533816695,0.0
1666091805592076984,0.31905688985453984,-0.5215144533816695,0.0
1666091805636312829,0.3190893326582836,-0.5215421327886053,0.0
1666091805636365955,0.31912176096467726,-0.5215698291787584,0.0
1666091805680537912,0.31912176096467726,-0.5215698291787584,0.0
1666091805680617041,0.3191541796012315,-0.5215975368868383,0.0
1666091805680712103,0.3191541796012315,-0.5215975368868383,0.0
1666091805724140497,0.3191865934013846,-0.5216252502526156,0.0
1666091805724158234,0.31921900720153773,-0.521652963618393,0.0
1666091805739391699,0.31921900720153773,-0.521652963618393,0.0
1666091805759108648,0.31921900720153773,-0.521652963618393,0.0
1666091805803705255,0.3192514161643024,-0.5216806826410235,0.0
1666091805803727196,0.3192514161643024,-0.5216806826410235,0.0
1666091805844037600,0.3192514161643024,-0.5216806826410235,0.0
1666091805844048620,0.3192514161643024,-0.5216806826410235,0.0
1666091805888133853,0.3192514161643024,-0.5216806826410235,0.0
1666091805888150314,0.3192514161643024,-0.5216806826410235,0.0
1666091805932480550,0.3192514161643024,-0.5216806826410235,0.0
1666091805932566237,0.3192514161643024,-0.5216806826410235,0.0
1666091805976081179,0.3192514161643024,-0.5216806826410235,0.0
1666091805976096610,0.3192514161643024,-0.5216806826410235,0.0
1666091806020259996,0.3192514161643024,-0.5216806826410235,0.0
1666091806020307784,0.3192514161643024,-0.5216806826410235,0.0
1666091806020328223,0.3192514161643024,-0.5216806826410235,0.0
1666091806068069238,0.3192514161643024,-0.5216806826410235,0.0
1666091806068085242,0.3192514161643024,-0.5216806826410235,0.0
1666091806079169351,0.3192514161643024,-0.5216806826410235,0.0
1666091806099625307,0.3192837960820096,-0.5217084355870356,0.0
1666091806140062223,0.3192837960820096,-0.5217084355870356,0.0
1666091806140076434,0.31931617599971673,-0.5217361885330477,0.0
1666091806188143955,0.31931617599971673,-0.5217361885330477,0.0
1666091806188172401,0.31938093583513105,-0.5217916944250719,0.0
1666091806236282150,0.3194133157528382,-0.521819447371084,0.0
1666091806236328821,0.3194133157528382,-0.521819447371084,0.0
1666091806284211320,0.3194133157528382,-0.521819447371084,0.0
1666091806284241402,0.3194133157528382,-0.521819447371084,0.0
1666091806284257641,0.3194133157528382,-0.521819447371084,0.0
1666091806332118375,0.3194133157528382,-0.521819447371084,0.0
1666091806332138938,0.3194133157528382,-0.521819447371084,0.0
1666091806340871546,0.3194456811346989,-0.5218472172673763,0.0
1666091806360643292,0.3195104118984203,-0.5219027570599608,0.0
1666091806408180737,0.3195427724330268,-0.5219305326046548,0.0
1666091806408204659,0.3195427724330268,-0.5219305326046548,0.0
1666091806456129165,0.3195751281193934,-0.5219583137969046,0.0
1666091806456150154,0.3196398297936756,-0.522013887474823,0.0
1666091806500462072,0.3196398297936756,-0.522013887474823,0.0
1666091806500537877,0.3196398297936756,-0.522013887474823,0.0
1666091806548055584,0.3197044926544473,-0.5220695063094847,0.0
1666091806548067625,0.31973681437554563,-0.5220973270109193,0.0
1666091806548078997,0.31976912638341826,-0.5221251589930678,0.0
1666091806596393352,0.31976912638341826,-0.5221251589930678,0.0
1666091806596411393,0.31983371152264006,-0.5221808680598702,0.0
1666091806600072959,0.31989827721179476,-0.5222365996677446,0.0
1666091806620667056,0.31989827721179476,-0.5222365996677446,0.0
1666091806668101787,0.3199305357265814,-0.5222644936331643,0.0
1666091806668121143,0.3199305357265814,-0.5222644936331643,0.0
1666091806712427128,0.31996276988701117,-0.5222924157388239,0.0
1666091806712497212,0.3199305503509797,-0.5222644767592257,0.0
1666091806756276923,0.3199627601325048,-0.5222924269838614,0.0
1666091806756326538,0.3199627601325048,-0.5222924269838614,0.0
1666091806804403133,0.3199627601325048,-0.5222924269838614,0.0
1666091806804446126,0.3198983796110259,-0.5222364815748772,0.0
1666091806809144262,0.31993056498911715,-0.5222644598972036,0.0
1666091806852330377,0.3199627405989709,-0.5222924494526415,0.0
1666091806852405952,0.32012356978744944,-0.5224324533783371,0.0
1666091806861827563,0.3201878819106862,-0.522488477401194,0.0
1666091806880927787,0.32028430608115505,-0.5225725639345811,0.0
1666091806928118100,0.3204128129206848,-0.522684746613829,0.0
1666091806928170645,0.32044492004316855,-0.5227128147054793,0.0
1666091806976120282,0.3204128570495325,-0.5226846962147274,0.0
1666091806976137168,0.3204769142825295,-0.5227410114989143,0.0
1666091807024136756,0.32060487136175125,-0.5228538208389807,0.0
1666091807024155717,0.3206687612222197,-0.5229103259366411,0.0
1666091807024170804,0.3207006617340618,-0.5229386286295745,0.0
1666091807068109512,0.3208599418077548,-0.5230803924655877,0.0
1666091807068124142,0.32092355477041534,-0.5231372091120379,0.0
1666091807080926340,0.3209870585357778,-0.5231941477818246,0.0
1666091807100313515,0.32111372762707885,-0.5233084014585188,0.0
1666091807144178440,0.3213033419252377,-0.5234802126366311,0.0
1666091807144195879,0.3213979689462684,-0.5235663166007589,0.0
1666091807192119879,0.3213664918082919,-0.523537543786022,0.0
1666091807192140128,0.32139789351143117,-0.5235663989090165,0.0
1666091807240266643,0.32155454902693714,-0.5237110577370857,0.0
1666091807240296016,0.32171085060694127,-0.5238560989145666,0.0
1666091807288247532,0.32171085060694127,-0.5238560989145666,0.0
1666091807288283291,0.3217730360529149,-0.5239144745142753,0.0
1666091807288354299,0.321866099985882,-0.5240022655737766,0.0
1666091807336081337,0.32189703945639314,-0.5240316157739048,0.0
1666091807336097243,0.32195876450824673,-0.5240904779715019,0.0
1666091807339967733,0.3219895395746255,-0.5241200005115765,0.0
1666091807360453775,0.3220202217414931,-0.5241496195885267,0.0
1666091807408165094,0.32208139967056465,-0.5242090502315218,0.0
1666091807408185762,0.32214227601176915,-0.5242687897612642,0.0
1666091807456184894,0.32223327717244554,-0.5243587172570773,0.0
1666091807456366681,0.3222937244715724,-0.5244188908755538,0.0
1666091807504299668,0.3223238323735649,-0.5244490935131984,0.0
1666091807504338807,0.3224437992156717,-0.5245703655962352,0.0
1666091807504350675,0.3224736689805429,-0.5246008037668374,0.0
1666091807552072063,0.32250342165132445,-0.5246313564044394,0.0
1666091807552082400,0.3225330621412483,-0.524662017885815,0.0
1666091807560811478,0.32268040605381265,-0.5248161506159765,0.0
1666091807583350605,0.32268040605381265,-0.5248161506159765,0.0
1666091807624093723,0.3227096480762229,-0.5248471923493114,0.0
1666091807624115536,0.3227970485413851,-0.5249406232030862,0.0
1666091807672087799,0.322913146938914,-0.5250656036952456,0.0
1666091807672112458,0.32288423705358515,-0.5250342524015985,0.0
1666091807720421876,0.32291302634576813,-0.5250657144698503,0.0
1666091807720464985,0.3229988326059251,-0.525160611527052,0.0
1666091807764067890,0.3230557823583425,-0.5252241053537746,0.0
1666091807764079499,0.3230274462747959,-0.5251922344979293,0.0
1666091807764083988,0.3230274462747959,-0.5251922344979293,0.0
1666091807812471856,0.32316770265756317,-0.525352843570431,0.0
1666091807812536338,0.3232235018478986,-0.525417350862191,0.0
1666091807820660095,0.3232235018478986,-0.525417350862191,0.0
1666091807840629907,0.3233063020028804,-0.525514881883321,0.0
1666091807884373814,0.3233884192506352,-0.5256129885771234,0.0
1666091807884446503,0.3233884192506352,-0.5256129885771234,0.0
1666091807928210119,0.32344255674163525,-0.5256788966373324,0.0
1666091807928230098,0.32346947566830225,-0.5257119731617896,0.0
1666091807972261836,0.3234962500156142,-0.5257451668269849,0.0
1666091807972296036,0.3235228734596985,-0.5257784816481336,0.0
1666091808020126648,0.3236287847708178,-0.5259122043294788,0.0
1666091808020151824,0.3236551106229314,-0.52594575480777,0.0
1666091808068104647,0.3236290019777674,-0.5259120350252858,0.0
1666091808068134732,0.32373287066349593,-0.526047350425201,0.0
1666091808068149031,0.3237845093005123,-0.5261152340867065,0.0
1666091808112096448,0.3237845093005123,-0.5261152340867065,0.0
1666091808112126480,0.32381003740398623,-0.5261493954832835,0.0
1666091808120533446,0.3238861738151641,-0.5262522128584719,0.0
1666091808143806017,0.323961878879245,-0.5263553482501674,0.0
1666091808184211223,0.323961878879245,-0.5263553482501674,0.0
1666091808184234159,0.3239867585586882,-0.526389984742973,0.0
1666091808232110634,0.32406097987738214,-0.5264941930036772,0.0
1666091808232129041,0.3240363729968685,-0.526459362176606,0.0
1666091808276749042,0.3240853189142124,-0.5265292122840337,0.0
1666091808276852626,0.32406097412664153,-0.5264941977670271,0.0
1666091808320129517,0.3241093944513301,-0.526564413238893,0.0
1666091808320157926,0.3240853192711541,-0.5265292128016433,0.0
1666091808364106324,0.3240853192711541,-0.5265292128016433,0.0
1666091808364133705,0.3241328039902218,-0.5266000643491731,0.0
1666091808364143570,0.32420360387157343,-0.5267066267372293,0.0
1666091808412476258,0.3241801404748259,-0.5266710155859402,0.0
1666091808412556551,0.3241801404748259,-0.5266710155859402,0.0
1666091808420315408,0.32427292239400474,-0.5268141605362622,0.0
1666091808442952744,0.32431906323640286,-0.5268858945100479,0.0
1666091808484123972,0.32431906323640286,-0.5268858945100479,0.0
1666091808484141610,0.32431906323640286,-0.5268858945100479,0.0
1666091808528130191,0.3243870493782797,-0.5269942737066695,0.0
1666091808528144748,0.32436449461976535,-0.5269580802272646,0.0
1666091808572485557,0.3244094018186476,-0.5270305928732021,0.0
1666091808572510010,0.3244540936708251,-0.527103238442105,0.0
1666091808616105407,0.3244763444276169,-0.5271396196035113,0.0
1666091808616123066,0.32443203355763556,-0.5270667410254942,0.0
1666091808660741642,0.32445404891282065,-0.5271032651164363,0.0
1666091808660822633,0.3245198270459082,-0.5272129984429837,0.0
1666091808704109089,0.3245198270459082,-0.5272129984429837,0.0
1666091808704126860,0.32447626897491927,-0.5271396674482816,0.0
1666091808704143707,0.32449797757761806,-0.5271763746907814,0.0
1666091808748267443,0.32458455559139066,-0.5273233549917076,0.0
1666091808748306575,0.3246061359296452,-0.527360137787739,0.0
1666091808761647995,0.3245846133962714,-0.5273233211387844,0.0
1666091808781636904,0.3245846133962714,-0.5273233211387844,0.0
1666091808828126245,0.32462734965185086,-0.5273971340969378,0.0
1666091808828147952,0.32460605241875096,-0.5273601866620422,0.0
1666091808872144712,0.3245848326148312,-0.5273231947033933,0.0
1666091808872166015,0.3245636838694368,-0.5272861620738443,0.0
1666091808918699096,0.32464802018577366,-0.5274344400124458,0.0
1666091808918778255,0.32464802018577366,-0.5274344400124458,0.0
1666091808960161669,0.32462707211476033,-0.527397293499771,0.0
1666091808960181895,0.3246479747871245,-0.5274344655776133,0.0
1666091809004242464,0.3246897022559269,-0.5275088534709806,0.0
1666091809004279101,0.3246688774823683,-0.5274716376962433,0.0
1666091809004293525,0.3246688774823683,-0.5274716376962433,0.0
1666091809048193957,0.3246273579061815,-0.5273971335679981,0.0
1666091809048216693,0.3246688254585607,-0.527471666664217,0.0
1666091809061887190,0.3247102539798194,-0.5275462214625777,0.0
1666091809081963403,0.3246688775177205,-0.5274716377598239,0.0
1666091809124096494,0.3246688775177205,-0.5274716377598239,0.0
1666091809124114341,0.32468953970910686,-0.5275089440452218,0.0
1666091809168088659,0.32468953970910686,-0.5275089440452218,0.0
1666091809168125688,0.3246689231113555,-0.5274716125440434,0.0
1666091809212166048,0.3246689231113555,-0.5274716125440434,0.0
1666091809212184180,0.3246689231113555,-0.5274716125440434,0.0
1666091809256160026,0.32468949408469905,-0.5275089692052803,0.0
1666091809256180048,0.3246689491962358,-0.5274715981918996,0.0
1666091809300093566,0.3246689491962358,-0.5274715981918996,0.0
1666091809300112019,0.3247099737328019,-0.5275463760477918,0.0
1666091809344606036,0.3247714517988277,-0.5276585750368487,0.0
1666091809344677601,0.3247919314313096,-0.5276959818508867,0.0
1666091809344712265,0.3247919314313096,-0.5276959818508867,0.0
1666091809388243250,0.32483285151833646,-0.5277708169149277,0.0
1666091809388282252,0.32485329196727225,-0.5278082451546723,0.0
1666091809401274275,0.32485329196727225,-0.5278082451546723,0.0
1666091809421175006,0.32485329196727225,-0.5278082451546723,0.0
1666091809468287160,0.32489406830596534,-0.5278831586416761,0.0
1666091809468319998,0.3249144433992,-0.5279206224997096,0.0
1666091809512425188,0.32497552944312047,-0.52803303540371,0.0
1666091809512480433,0.32501624039194527,-0.5281079844462528,0.0
1666091809556414938,0.32501624039194527,-0.5281079844462528,0.0
1666091809556454398,0.3250569120919644,-0.5281829547947238,0.0
1666091809600168208,0.3250975445320275,-0.5282579464285693,0.0
1666091809600194993,0.32511783457009175,-0.5282954564197506,0.0
1666091809644254064,0.32511783457009175,-0.5282954564197506,0.0
1666091809644273400,0.3251380918667919,-0.5283329841030454,0.0
1666091809644315645,0.3251583229592922,-0.5283705259194548,0.0
1666091809688263197,0.3251381180808521,-0.5283329699882282,0.0
1666091809688301533,0.3251381180808521,-0.5283329699882282,0.0
1666091809702282364,0.32517840980248963,-0.5284081452334873,0.0
1666091809721468663,0.32517840980248963,-0.5284081452334873,0.0
1666091809764153272,0.32515831644351334,-0.5283705295185782,0.0
1666091809764174045,0.3251783901041939,-0.5284081557491888,0.0
1666091809812232832,0.3252585796551,-0.5285587166911845,0.0
1666091809812408076,0.3252585796551,-0.5285587166911845,0.0
1666091809860212484,0.3252585796551,-0.5285587166911845,0.0
1666091809860254630,0.3252585796551,-0.5285587166911845,0.0
1666091809905807956,0.3252983850794375,-0.5286341505597424,0.0
1666091809905857648,0.3252983850794375,-0.5286341505597424,0.0
1666091809906337358,0.3252983850794375,-0.5286341505597424,0.0
1666091809952127169,0.32531813622617634,-0.5286719470845241,0.0
1666091809952148277,0.3253968768234135,-0.528823270842328,0.0
1666091809961907354,0.3253968768234135,-0.528823270842328,0.0
1666091809982498602,0.32541644963958205,-0.528861160022186,0.0
1666091810028453151,0.3254748901708804,-0.5289749706985271,0.0
1666091810028525623,0.3255525459112625,-0.5291268540330799,0.0
1666091810072467145,0.3255331982773091,-0.5290888493735829,0.0
1666091810072546688,0.3255139103647799,-0.5290508143697925,0.0
1666091810120153661,0.325552366651808,-0.5291269448782652,0.0
1666091810120172058,0.32557152167988884,-0.5291650469777125,0.0
1666091810168242985,0.3255333579957994,-0.5290887693692745,0.0
1666091810168316862,0.325590363763381,-0.5292033054256502,0.0
1666091810168850627,0.3256281542305268,-0.5292797686254602,0.0
1666091810212126035,0.3256281542305268,-0.5292797686254602,0.0
1666091810212143829,0.3256094126202611,-0.5292414614834666,0.0
1666091810221485945,0.3256467352981188,-0.5293181541040362,0.0
1666091810242540915,0.32566530958406953,-0.5293565426568155,0.0
1666091810284245632,0.32568381013510384,-0.5293949667988944,0.0
1666091810284267811,0.32568381013510384,-0.5293949667988944,0.0
1666091810332110956,0.32568381013510384,-0.5293949667988944,0.0
1666091810332133221,0.3257384855020549,-0.5295106334319241,0.0
1666091810376237846,0.32575662983391557,-0.5295492270622846,0.0
1666091810376272133,0.32577470677958303,-0.5295878523016807,0.0
1666091810424126793,0.3257567040223209,-0.5295491924282454,0.0
1666091810424145241,0.3258104490059039,-0.5296652942907942,0.0
1666091810424151113,0.3258460762364264,-0.5297427890698286,0.0
1666091810472162798,0.3258106249275342,-0.5296652136547145,0.0
1666091810472187955,0.3258282286395311,-0.5297040568575563,0.0
1666091810482068407,0.3258282286395311,-0.5297040568575563,0.0
1666091810501538423,0.3258630424079938,-0.5297819204681694,0.0
1666091810544314079,0.3258630424079938,-0.5297819204681694,0.0
1666091810544331835,0.3258802452080914,-0.5298209428816247,0.0
1666091810588353057,0.32589734578891316,-0.5298600101981262,0.0
1666091810588377469,0.32591433720667135,-0.5298991251160686,0.0
1666091810632182165,0.32591433720667135,-0.5298991251160686,0.0
1666091810632276772,0.3258976261220383,-0.5298598896125869,0.0
1666091810676916578,0.3259474304823046,-0.5299777356623557,0.0
1666091810676944019,0.3259474304823046,-0.5299777356623557,0.0
1666091810720145070,0.3259474304823046,-0.5299777356623557,0.0
1666091810720193150,0.3259311724569272,-0.5299383102683324,0.0
1666091810764093474,0.32597959538638793,-0.5300567306451689,0.0
1666091810764109505,0.32609181016740735,-0.5303333592987667,0.0
1666091810764115515,0.3262028168638502,-0.530610474946855,0.0
1666091810808223943,0.32626580681342027,-0.5307690032647743,0.0
1666091810808245844,0.3264534478433135,-0.5312451140668605,0.0
1666091810821743070,0.32663967540014927,-0.5317217795145672,0.0
1666091810842248016,0.32690149302962496,-0.5323978353686976,0.0
1666091810888259840,0.3271154546852846,-0.5329552245381203,0.0
1666091810888295989,0.32735797984295617,-0.5335930057930683,0.0
1666091810932167627,0.3277185931409497,-0.534550878778991,0.0
1666091810932194655,0.32807435360964743,-0.5355105647155151,0.0
