%time,field.linear.x,field.linear.y,field.linear.z,field.angular.x,field.angular.y,field.angular.z
1666091792132287483,0.0,0.0,0.0,0.0,0.0,0.0
1666091792152259046,0.0,0.0,0.0,0.0,0.0,0.0
1666091792172263480,0.0,0.0,0.0,0.0,0.0,0.0
1666091792192249179,0.0,0.0,0.0,0.0,0.0,-0.015184364492350668
1666091792213198234,0.0,0.0,0.0,0.0,0.0,-0.004363323129985824
1666091792232194718,0.0,0.0,0.0,0.0,0.0,0.0
1666091792252150358,0.0,0.0,0.0,0.0,0.0,0.0
1666091792272249901,0.0,0.0,0.0,0.0,0.0,0.0
1666091792292245451,0.0,0.0,0.0,0.0,0.0,0.0
1666091792336064229,0.0,0.0,0.0,0.0,0.0,0.0
1666091792336070923,-0.004264604416675866,0.0,0.0,0.0,0.0,0.0
1666091792384021027,-0.004264604416675866,0.0,0.0,0.0,0.0,0.0
1666091792384029455,-0.002132302208337933,0.0,0.0,0.0,0.0,-0.0031415926535897933
1666091792432034817,-0.002132302208337933,0.0,0.0,0.0,0.0,-0.008028514559173916
1666091792432043049,0.0,0.0,0.0,0.0,0.0,-0.01308996938995747
1666091792476028093,0.0,0.0,0.0,0.0,0.0,-0.017453292519943295
1666091792476036682,0.0,0.0,0.0,0.0,0.0,-0.01361356816555577
1666091792476045573,0.0,0.0,0.0,0.0,0.0,0.0
1666091792524037354,0.0,0.0,0.0,0.0,0.0,0.0
1666091792524052997,0.0,0.0,0.0,0.0,0.0,0.0
1666091792533026425,0.0,0.0,0.0,0.0,0.0,0.0
1666091792552972655,0.0,0.0,0.0,0.0,0.0,0.0
1666091792596059368,0.0,0.0,0.0,0.0,0.0,0.0
1666091792596068113,0.0,0.0,0.0,0.0,0.0,0.0
1666091792640040120,0.0,0.0,0.0,0.0,0.0,0.0
1666091792640050404,0.0,0.0,0.0,0.0,0.0,0.0
1666091792684031250,0.0,0.0,0.0,0.0,0.0,0.0
1666091792684043465,0.0,0.0,0.0,0.0,0.0,0.0
1666091792728027158,0.0,0.0,0.0,0.0,0.0,0.0
1666091792728044733,0.0,0.0,0.0,0.0,0.0,0.0
1666091792772031745,0.0,0.0,0.0,0.0,0.0,0.0
1666091792772036408,0.0,0.0,0.0,0.0,0.0,0.0
1666091792816022965,0.0,0.0,0.0,0.0,0.0,0.0
1666091792816037095,0.0,0.0,0.0,0.0,0.0,0.0
1666091792816053021,0.0,0.0,0.0,0.0,0.0,0.0
1666091792860032785,0.0,0.0,0.0,0.0,0.0,0.0
1666091792860040305,0.0,0.0,0.0,0.0,0.0,0.0
1666091792872886760,0.0,0.0,0.0,0.0,0.0,0.0
1666091792892876579,0.0,0.0,0.0,0.0,0.0,0.0
1666091792936019300,0.0,0.0,0.0,0.0,0.0,0.0
1666091792936027258,0.0,0.0,0.0,0.0,0.0,0.0
1666091792980020683,-0.002132302208337933,0.0,0.0,0.0,0.0,0.0
1666091792980031406,0.0,0.0,0.0,0.0,0.0,0.0
1666091793024091692,0.0,0.0,0.0,0.0,0.0,0.0
1666091793024103460,0.0,0.0,0.0,0.0,0.0,0.0
1666091793068048751,0.0,0.0,0.0,0.0,0.0,0.0
1666091793068058783,0.0,0.0,0.0,0.0,0.0,0.0
1666091793112061148,0.0,0.0,0.0,0.0,0.0,0.0
1666091793112072248,0.0,0.0,0.0,0.0,0.0,0.0
1666091793156115739,-0.002132302208337933,0.0,0.0,0.0,0.0,0.0
1666091793156129011,-0.004264604416675866,0.0,0.0,0.0,0.0,-0.01291543646475804
1666091793156136509,-0.008529208833351731,0.0,0.0,0.0,0.0,-0.01902408884673819
1666091793200046070,-0.008529208833351731,0.0,0.0,0.0,0.0,-0.034208453339088854
1666091793200058993,-0.006396906625013799,0.0,0.0,0.0,0.0,-0.043807764225057666
1666091793212732060,-0.010661511041689664,0.0,0.0,0.0,0.0,-0.05480333851262195
1666091793232847805,-0.012793813250027599,0.0,0.0,0.0,0.0,-0.06667157742618339
1666091793276072410,-0.012793813250027599,0.0,0.0,0.0,0.0,-0.0804596785169386
1666091793276081169,-0.014926115458365532,0.0,0.0,0.0,0.0,-0.09145525280450287
1666091793320053070,-0.017058417666703463,0.0,0.0,0.0,0.0,-0.10437068926926091
1666091793320060690,-0.017058417666703463,0.0,0.0,0.0,0.0,-0.10925761117484502
1666091793364045686,-0.017058417666703463,0.0,0.0,0.0,0.0,-0.10698868314725239
1666091793364055960,-0.012793813250027599,0.0,0.0,0.0,0.0,-0.10663961729685353
1666091793408041256,-0.006396906625013799,0.0,0.0,0.0,0.0,-0.09477137838329208
1666091793408051180,-0.002132302208337933,0.0,0.0,0.0,0.0,-0.06946410422937431
1666091793456090436,-0.002132302208337933,0.0,0.0,0.0,0.0,-0.044331363000655974
1666091793456103802,0.0,0.0,0.0,0.0,0.0,-0.02129301687433082
1666091793456112177,0.0,0.0,0.0,0.0,0.0,-0.008552113334772213
1666091793500082206,0.0,0.0,0.0,0.0,0.0,0.0
1666091793500095002,0.0,0.0,0.0,0.0,0.0,0.0
1666091793512604650,0.0,0.0,0.0,0.0,0.0,0.0
1666091793532630700,0.0,0.0,0.0,0.0,0.0,0.0
1666091793576051498,0.0,0.0,0.0,0.0,0.0,0.0
1666091793576061498,0.0,0.0,0.0,0.0,0.0,0.0
1666091793620177877,0.0,0.0,0.0,0.0,0.0,0.0
1666091793620208668,0.0,0.0,0.0,0.0,0.0,0.0
1666091793664070645,0.0,0.0,0.0,0.0,0.0,0.0
1666091793664082131,0.0,0.0,0.0,0.0,0.0,0.0
1666091793708039651,0.0,0.0,0.0,0.0,0.0,0.0
1666091793708046367,0.0,0.0,0.0,0.0,0.0,0.0
1666091793752035678,0.0,0.0,0.0,0.0,0.0,0.0
1666091793752045875,0.0,0.0,0.0,0.0,0.0,0.0
1666091793796041062,0.0,0.0,0.0,0.0,0.0,0.0
1666091793796051398,0.0,0.0,0.0,0.0,0.0,0.0
1666091793796057392,0.0,0.0,0.0,0.0,0.0,0.0
1666091793840090568,0.0,0.0,0.0,0.0,0.0,0.0
1666091793840107956,0.0,0.0,0.0,0.0,0.0,0.0
1666091793854761559,0.0,0.0,0.0,0.0,0.0,0.0
1666091793873592510,0.0,0.0,0.0,0.0,0.0,0.0
1666091793916058676,0.0,0.0,0.0,0.0,0.0,0.0
1666091793916069408,0.0,0.0,0.0,0.0,0.0,0.0
1666091793964039121,0.0,0.0,0.0,0.0,0.0,0.0
1666091793964050310,0.0,0.0,0.0,0.0,0.0,0.0
1666091794012046192,0.0,0.0,0.0,0.0,0.0,0.0
1666091794012053972,0.0,0.0,0.0,0.0,0.0,0.0
1666091794060355520,0.0,0.0,0.0,0.0,0.0,0.0
1666091794060408663,0.0,0.0,0.0,0.0,0.0,0.0
1666091794060427258,0.0,0.0,0.0,0.0,0.0,0.0
1666091794104111469,-0.002132302208337933,0.0,0.0,0.0,0.0,0.0
1666091794104123431,-0.002132302208337933,0.0,0.0,0.0,0.0,0.0
1666091794114722205,0.0,0.0,0.0,0.0,0.0,0.0
1666091794139404946,0.0,0.0,0.0,0.0,0.0,0.0
1666091794184055621,0.0,0.0,0.0,0.0,0.0,0.0
1666091794184071770,0.0,0.0,0.0,0.0,0.0,0.0
1666091794228309115,0.0,0.0,0.0,0.0,0.0,0.0
1666091794228357454,0.0,0.0,0.0,0.0,0.0,0.0
1666091794272195394,0.0,0.0,0.0,0.0,0.0,0.0
1666091794272218984,0.0,0.0,0.0,0.0,0.0,0.0
1666091794316063210,0.0,0.0,0.0,0.0,0.0,0.0
1666091794316079362,0.0,0.0,0.0,0.0,0.0,0.0
1666091794316095733,-0.002132302208337933,0.0,0.0,0.0,0.0,0.0
1666091794360147162,-0.002132302208337933,0.0,0.0,0.0,0.0,0.0
1666091794360171047,0.0,0.0,0.0,0.0,0.0,0.0
1666091794374365180,0.0,0.0,0.0,0.0,0.0,0.0
1666091794394332299,-0.002132302208337933,0.0,0.0,0.0,0.0,0.0
1666091794436222614,0.0,0.0,0.0,0.0,0.0,0.0
1666091794436266270,0.0,0.0,0.0,0.0,0.0,0.0
1666091794480099063,0.0,0.0,0.0,0.0,0.0,0.0
1666091794480132119,0.0,0.0,0.0,0.0,0.0,0.0
1666091794524062871,0.0,0.0,0.0,0.0,0.0,0.0
1666091794524075679,0.0,0.0,0.0,0.0,0.0,0.0
1666091794568062950,0.0,0.0,0.0,0.0,0.0,0.0
1666091794568079040,0.0,0.0,0.0,0.0,0.0,0.0
1666091794616043273,0.0,0.0,0.0,0.0,0.0,0.0
1666091794616053736,0.0,0.0,0.0,0.0,0.0,0.0
1666091794616060872,0.0,0.0,0.0,0.0,0.0,0.0
1666091794660050470,0.0,0.0,0.0,0.0,0.0,0.0
1666091794660064164,0.0,0.0,0.0,0.0,0.0,0.0
1666091794674237801,0.0,0.0,0.0,0.0,0.0,0.0
1666091794694262094,0.0,0.0,0.0,0.0,0.0,0.0
1666091794736041496,0.0,0.0,0.0,0.0,0.0,0.0
1666091794736055047,0.0,0.0,0.0,0.0,0.0,0.0
1666091794780044714,0.0,0.0,0.0,0.0,0.0,0.0
1666091794780055559,0.0,0.0,0.0,0.0,0.0,0.0
1666091794824046922,0.0,0.0,0.0,0.0,0.0,0.0
1666091794824057104,0.0,0.0,0.0,0.0,0.0,0.0
1666091794868048817,0.0,0.0,0.0,0.0,0.0,0.0
1666091794868061382,0.0,0.0,0.0,0.0,0.0,0.0
1666091794912048673,0.0,0.0,0.0,0.0,0.0,0.0
1666091794912055993,0.0,0.0,0.0,0.0,0.0,0.0
1666091794956053406,0.0,0.0,0.0,0.0,0.0,0.0
1666091794956067420,0.0,0.0,0.0,0.0,0.0,0.0
1666091794956073609,0.0,0.0,0.0,0.0,0.0,0.0
1666091795000078170,0.0,0.0,0.0,0.0,0.0,0.0
1666091795000091843,0.0,0.0,0.0,0.0,0.0,0.0
1666091795014202431,0.0,0.0,0.0,0.0,0.0,0.0
1666091795034250077,0.0,0.0,0.0,0.0,0.0,0.0
1666091795076038486,0.0,0.0,0.0,0.0,0.0,0.0
1666091795076052618,0.0,0.0,0.0,0.0,0.0,0.0
1666091795120060328,0.0,0.0,0.0,0.0,0.0,0.0
1666091795120072107,0.0,0.0,0.0,0.0,0.0,0.0
1666091795168079256,0.0,0.0,0.0,0.0,0.0,0.0
1666091795168092669,0.0,0.0,0.0,0.0,0.0,0.0
1666091795212070936,0.0,0.0,0.0,0.0,0.0,0.0
1666091795212086779,0.0,0.0,0.0,0.0,0.0,0.0
1666091795260143746,0.0,0.0,0.0,0.0,0.0,0.0
1666091795260165595,0.0,0.0,0.0,0.0,0.0,0.0
1666091795260178339,0.0,0.0,0.0,0.0,0.0,0.0
1666091795304071190,0.0,0.0,0.0,0.0,0.0,0.0
1666091795304090523,0.0,0.0,0.0,0.0,0.0,0.0
1666091795314173887,0.0,0.0,0.0,0.0,0.0,0.0
1666091795334154840,0.0,0.0,0.0,0.0,0.0,0.0
1666091795376235112,0.0,0.0,0.0,0.0,0.0,0.0
1666091795376269094,0.0,0.0,0.0,0.0,0.0,0.0
1666091795420088395,0.0,0.0,0.0,0.0,0.0,0.0
1666091795420100043,0.0,0.0,0.0,0.0,0.0,0.0
1666091795468125985,0.0,0.0,0.0,0.0,0.0,0.0
1666091795468143763,0.0,0.0,0.0,0.0,0.0,0.0
1666091795512069903,0.0,0.0,0.0,0.0,0.0,0.0
1666091795512085744,0.0,0.0,0.0,0.0,0.0,0.0
1666091795556063923,0.0,0.0,0.0,0.0,0.0,0.0
1666091795556075752,0.0,0.0,0.0,0.0,0.0,0.0
1666091795556080125,0.0,0.0,0.0,0.0,0.0,0.0
1666091795600110487,0.0,0.0,0.0,0.0,0.0,0.0
1666091795600131187,0.0,0.0,0.0,0.0,0.0,0.0
1666091795614302253,0.0,0.0,0.0,0.0,0.0,0.0
1666091795634333972,0.0,0.0,0.0,0.0,0.0,0.0
1666091795676070199,0.0,0.0,0.0,0.0,0.0,0.0
1666091795676084979,0.0,0.0,0.0,0.0,0.0,0.0
1666091795720105437,0.0,0.0,0.0,0.0,0.0,0.0
1666091795720121292,0.0,0.0,0.0,0.0,0.0,0.0
1666091795764059918,0.0,0.0,0.0,0.0,0.0,0.0
1666091795764076011,0.0,0.0,0.0,0.0,0.0,0.0
1666091795808136042,0.0,0.0,0.0,0.0,0.0,0.0
1666091795808157996,0.0,0.0,0.0,0.0,0.0,0.0
1666091795852080242,0.0,0.0,0.0,0.0,0.0,0.0
1666091795852090046,0.0,0.0,0.0,0.0,0.0,0.0
1666091795896120326,0.0,0.0,0.0,0.0,0.0,0.0
1666091795896140469,0.0,0.0,0.0,0.0,0.0,0.0
1666091795896149255,0.0,0.0,0.0,0.0,0.0,0.0
1666091795940105415,0.0,0.0,0.0,0.0,0.0,0.0
1666091795940119796,0.0,0.0,0.0,0.0,0.0,0.0
1666091795954868331,0.0,0.0,0.0,0.0,0.0,0.0
1666091795973803177,0.0,0.0,0.0,0.0,0.0,0.0
1666091796016073453,0.0,0.0,0.0,0.0,0.0,0.0
1666091796016087377,0.0,0.0,0.0,0.0,0.0,0.0
1666091796060235419,0.0,0.0,0.0,0.0,0.0,0.0
1666091796060264306,0.0,0.0,0.0,0.0,0.0,0.0
1666091796104076207,0.0,0.0,0.0,0.0,0.0,0.0
1666091796104095689,0.0,0.0,0.0,0.0,0.0,0.0
1666091796148073279,0.0,0.0,0.0,0.0,0.0,0.0
1666091796148089194,0.0,0.0,0.0,0.0,0.0,0.0
1666091796192073581,0.0,0.0,0.0,0.0,0.0,0.0
1666091796192085935,0.0,0.0,0.0,0.0,0.0,0.0
1666091796236111383,0.0,0.0,0.0,0.0,0.0,0.0
1666091796236131866,0.0,0.0,0.0,0.0,0.0,0.0
1666091796236141640,0.0,0.0,0.0,0.0,0.0,0.0
1666091796280070188,0.0,0.0,0.0,0.0,0.0,0.0
1666091796280086067,0.0,0.0,0.0,0.0,0.0,0.0
1666091796294782232,0.0,0.0,0.0,0.0,0.0,0.0
1666091796315139584,0.0,0.0,0.0,0.0,0.0,0.0
1666091796356153932,0.0,0.0,0.0,0.0,0.0,0.0
1666091796356172147,0.0,0.0,0.0,0.0,0.0,0.0
1666091796400052257,0.0,0.0,0.0,0.0,0.0,0.0
1666091796400064132,0.0,0.0,0.0,0.0,0.0,0.0
1666091796444074978,0.0,0.0,0.0,0.0,0.0,0.0
1666091796444088512,0.0,0.0,0.0,0.0,0.0,0.0
1666091796488084078,0.0,0.0,0.0,0.0,0.0,0.0
1666091796488102243,0.0,0.0,0.0,0.0,0.0,0.0
1666091796532056362,0.0,0.0,0.0,0.0,0.0,0.0
1666091796532070180,0.0,0.0,0.0,0.0,0.0,0.0
1666091796576096204,0.0,0.0,0.0,0.0,0.0,0.0
1666091796576111810,0.0,0.0,0.0,0.0,0.0,0.0
1666091796576124088,0.0,0.0,0.0,0.0,0.0,0.0
1666091796620085711,0.0,0.0,0.0,0.0,0.0,0.0
1666091796620099977,0.0,0.0,0.0,0.0,0.0,0.0
1666091796634557870,0.0,0.0,0.0,0.0,0.0,0.0
1666091796655503102,0.0,0.0,0.0,0.0,0.0,0.0
1666091796696117459,0.0,0.0,0.0,0.0,0.0,0.0
1666091796696134330,0.0,0.0,0.0,0.0,0.0,0.0
1666091796740111877,0.0,0.0,0.0,0.0,0.0,0.0
1666091796740128391,0.0,0.0,0.0,0.0,0.0,0.0
1666091796784087962,0.0,0.0,0.0,0.0,0.0,0.0
1666091796784108110,0.0,0.0,0.0,0.0,0.0,0.0
1666091796832138960,0.0,0.0,0.0,0.0,0.0,0.0
1666091796832159235,0.0,0.0,0.0,0.0,0.0,0.0
1666091796880216904,0.0,0.0,0.0,0.0,0.0,0.0
1666091796880248699,0.0,0.0,0.0,0.0,0.0,0.0
1666091796880271624,0.0,0.0,0.0,0.0,0.0,0.0
1666091796924041031,0.0,0.0,0.0,0.0,0.0,0.0
1666091796924051656,0.0,0.0,0.0,0.0,0.0,0.0
1666091796934671075,0.0,0.0,0.0,0.0,0.0,0.0
1666091796955559484,0.0,0.0,0.0,0.0,0.0,0.0
1666091796996112888,0.0,0.0,0.0,0.0,0.0,0.0
1666091797040072196,0.0,0.0,0.0,0.0,0.0,0.0
1666091797040087197,0.0,0.0,0.0,0.0,0.0,0.0
1666091797040096530,0.0,0.0,0.0,0.0,0.0,0.0
1666091797084095824,0.0,0.0,0.0,0.0,0.0,0.0
1666091797084116638,0.0,0.0,0.0,0.0,0.0,0.0
1666091797096595041,0.0,0.0,0.0,0.0,0.0,0.0
1666091797117956332,0.0,0.0,0.0,0.0,0.0,0.0
1666091797160218540,0.0,0.0,0.0,0.0,0.0,0.0
1666091797160238659,0.0,0.0,0.0,0.0,0.0,0.0
1666091797208113416,0.0,0.0,0.0,0.0,0.0,0.0
1666091797208140330,0.0,0.0,0.0,0.0,0.0,0.0
1666091797256060380,0.0,0.0,0.0,0.0,0.0,0.0
1666091797256072428,0.0,0.0,0.0,0.0,0.0,0.0
1666091797256082654,0.0,0.0,0.0,0.0,0.0,0.0
1666091797304069006,0.0,0.0,0.0,0.0,0.0,0.0
1666091797304081907,0.0,0.0,0.0,0.0,0.0,0.0
1666091797315385362,0.0,0.0,0.0,0.0,0.0,0.0
1666091797335626696,0.0,0.0,0.0,0.0,0.0,0.0
1666091797376182402,0.0,0.0,0.0,0.0,0.0,0.0
1666091797376220766,0.0,0.0,0.0,0.0,0.0,0.0
1666091797420085354,0.0,0.0,0.0,0.0,0.0,0.0
1666091797420102624,0.0,0.0,0.0,0.0,0.0,0.0
1666091797464158734,0.0,0.0,0.0,0.0,0.0,0.0
1666091797464182021,0.0,0.0,0.0,0.0,0.0,0.0
1666091797508160858,0.0,0.0,0.0,0.0,0.0,0.0
1666091797508180324,0.0,0.0,0.0,0.0,0.0,0.0
1666091797552070522,0.0,0.0,0.0,0.0,0.0,0.0
1666091797552085646,0.0,0.0,0.0,0.0,0.0,0.0
1666091797596071564,0.0,0.0,0.0,0.0,0.0,0.0
1666091797596086852,0.0,0.0,0.0,0.0,0.0,0.0
1666091797596094943,0.0,0.0,0.0,0.0,0.0,0.0
1666091797640131266,0.0,0.0,0.0,0.0,0.0,0.0
1666091797640150730,0.0,0.0,0.0,0.0,0.0,0.0
1666091797655280666,0.0,0.0,0.0,0.0,0.0,0.0
1666091797675377166,0.0,0.0,0.0,0.0,0.0,0.0
1666091797716223696,0.0,0.0,0.0,0.0,0.0,0.0
1666091797716243104,0.0,0.0,0.0,0.0,0.0,0.0
1666091797764194444,0.0,0.0,0.0,0.0,0.0,0.0
1666091797764225661,0.0,0.0,0.0,0.0,0.0,0.0
1666091797808168944,0.0,0.0,0.0,0.0,0.0,0.0
1666091797808190676,0.0,0.0,0.0,0.0,0.0,0.0
1666091797852068104,0.0,0.0,0.0,0.0,0.0,0.0
1666091797852080410,0.0,0.0,0.0,0.0,0.0,0.0
1666091797897557021,0.0,0.0,0.0,0.0,0.0,0.0
1666091797897583264,0.0,0.0,0.0,0.0,0.0,0.0
1666091797897599854,0.0,0.0,0.0,0.0,0.0,0.0
1666091797940105839,0.0,0.0,0.0,0.0,0.0,0.0
1666091797940119716,0.0,0.0,0.0,0.0,0.0,0.0
1666091797955295371,0.0,0.0,0.0,0.0,0.0,0.0
1666091797975065690,0.0,0.0,0.0,0.0,0.0,0.0
1666091798016091639,0.0,0.0,0.0,0.0,0.0,0.0
1666091798016107439,0.0,0.0,0.0,0.0,0.0,0.0
1666091798060060273,0.0,0.0,0.0,0.0,0.0,0.0
1666091798060074361,0.0,0.0,0.0,0.0,0.0,0.0
1666091798104171663,0.0,0.0,0.0,0.0,0.0,0.0
1666091798104191252,0.0,0.0,0.0,0.0,0.0,0.0
1666091798148206465,0.0,0.0,0.0,0.0,0.0,0.0
1666091798148240265,0.0,0.0,0.0,0.0,0.0,0.0
1666091798192058560,0.0,0.0,0.0,0.0,0.0,0.0
1666091798192069186,0.0,0.0,0.0,0.0,0.0,0.0
1666091798236120919,0.0,0.0,0.0,0.0,0.0,0.0
1666091798236148532,0.0,0.0,0.0,0.0,0.0,0.0
1666091798280150786,0.0,0.0,0.0,0.0,0.0,0.0
1666091798280175587,0.0,0.0,0.0,0.0,0.0,0.0
1666091798280382701,0.0,0.0,0.0,0.0,0.0,0.0
1666091798324099389,0.0,0.0,0.0,0.0,0.0,0.0
1666091798324118730,0.0,0.0,0.0,0.0,0.0,0.0
1666091798336129500,0.0,0.0,0.0,0.0,0.0,0.0
1666091798356050720,0.0,0.0,0.0,0.0,0.0,0.0
1666091798396157530,0.0,0.0,0.0,0.0,0.0,0.0
1666091798444149673,0.0,0.0,0.0,0.0,0.0,0.0
1666091798444169556,0.0,0.0,0.0,0.0,0.0,0.0
1666091798444181070,0.0,0.0,0.0,0.0,0.0,0.0
1666091798488059995,0.0,0.0,0.0,0.0,0.0,0.0
1666091798488075547,0.0,0.0,0.0,0.0,0.0,0.0
1666091798496149101,0.0,0.0,0.0,0.0,0.0,0.0
1666091798516099088,0.0,0.0,0.0,0.0,0.0,0.0
1666091798556336254,0.0,0.0,0.0,0.0,0.0,0.0
1666091798600065564,0.0,0.0,0.0,0.0,0.0,0.0
1666091798600084009,0.0,0.0,0.0,0.0,0.0,0.0
1666091798600092531,0.0,0.0,0.0,0.0,0.0,0.0
1666091798644112420,0.0,0.0,0.0,0.0,0.0,0.0
1666091798644131578,0.0,0.0,0.0,0.0,0.0,0.0
1666091798656944659,0.0,0.0,0.0,0.0,0.0,0.0
1666091798676432533,0.0,0.0,0.0,0.0,0.0,0.0
1666091798724234277,0.0,0.0,0.0,0.0,0.0,0.0
1666091798724300548,0.0,0.0,0.0,0.0,0.0,0.0
1666091798772178044,0.0,0.0,0.0,0.0,0.0,0.0
1666091798772210352,0.0,0.0,0.0,0.0,0.0,0.0
1666091798816102288,0.0,0.0,0.0,0.0,0.0,0.0
1666091798816120105,0.0,0.0,0.0,0.0,0.0,0.0
1666091798816129279,0.0,0.0,0.0,0.0,0.0,0.0
1666091798860119480,0.0,0.0,0.0,0.0,0.0,0.0
1666091798860131225,0.0,0.0,0.0,0.0,0.0,0.0
1666091798875976843,0.0,0.0,0.0,0.0,0.0,0.0
1666091798899359895,0.0,0.0,0.0,0.0,0.0,0.0
1666091798940082280,0.0,0.0,0.0,0.0,0.0,0.0
1666091798940097844,0.0,0.0,0.0,0.0,0.0,0.0
1666091798984056971,0.0,0.0,0.0,0.0,0.0,0.0
1666091798984067886,0.0,0.0,0.0,0.0,0.0,0.0
1666091799028169770,0.0,0.0,0.0,0.0,0.0,0.0
1666091799028199686,0.0,0.0,0.0,0.0,0.0,0.0
1666091799072093864,0.0,0.0,0.0,0.0,0.0,0.0
1666091799072114030,0.0,0.0,0.0,0.0,0.0,0.0
1666091799116083542,0.0,0.0,0.0,0.0,0.0,0.0
1666091799116109743,0.0,0.0,0.0,0.0,0.0,0.0
1666091799160083203,0.0,0.0,0.0,0.0,0.0,0.0
1666091799160098120,0.0,0.0,0.0,0.0,0.0,0.0
1666091799160106878,0.0,0.0,0.0,0.0,0.0,0.0
1666091799204112562,0.0,0.0,0.0,0.0,0.0,0.0
1666091799204134620,0.0,0.0,0.0,0.0,0.0,0.0
1666091799215769466,0.0,0.0,0.0,0.0,0.0,0.0
1666091799235878864,0.0,0.0,0.0,0.0,0.0,0.0
1666091799276065690,0.0,0.0,0.0,0.0,0.0,0.0
1666091799320101083,0.0,0.0,0.0,0.0,0.0,0.0
1666091799320123174,0.0,0.0,0.0,0.0,0.0,0.0
1666091799320135694,0.0,0.0,0.0,0.0,0.0,0.0
1666091799364160816,0.0,0.0,0.0,0.0,0.0,0.0
1666091799364187026,0.0,0.0,0.0,0.0,0.0,0.0
1666091799376166488,0.0,0.0,0.0,0.0,0.0,0.0
1666091799396028352,0.0,0.0,0.0,0.0,0.0,0.0
1666091799436218304,0.0,0.0,0.0,0.0,0.0,0.0
1666091799480107789,0.0,0.0,0.0,0.0,0.0,0.0
1666091799480126406,0.0,0.0,0.0,0.0,0.0,0.0
1666091799480132775,0.0,0.0,0.0,0.0,0.0,0.0
1666091799524169308,0.0,0.0,0.0,0.0,0.0,0.0
1666091799524194906,0.0,0.0,0.0,0.0,0.0,0.0
1666091799536496049,0.0,0.0,0.0,0.0,0.0,0.0
1666091799555597399,0.0,0.0,0.0,0.0,0.0,0.0
1666091799596181872,0.0,0.0,0.0,0.0,0.0,0.0
1666091799644090287,0.0,0.0,0.0,0.0,0.0,0.0
1666091799644106859,0.0,0.0,0.0,0.0,0.0,0.0
1666091799644112650,0.0,0.0,0.0,0.0,0.0,0.0
1666091799688136210,0.0,0.0,0.0,0.0,0.0,0.0
1666091799688155869,0.0,0.0,0.0,0.0,0.0,0.0
1666091799697179402,0.0,0.0,0.0,0.0,0.0,0.0
1666091799716638579,0.0,0.0,0.0,0.0,0.0,0.0
1666091799760181875,0.0,0.0,0.0,0.0,0.0,0.0
1666091799760205807,0.0,0.0,0.0,0.0,0.0,0.0
1666091799804240154,0.0,0.0,0.0,0.0,0.0,0.0
1666091799804275169,0.0,0.0,0.0,0.0,0.0,0.0
1666091799852237903,0.0,0.0,0.0,0.0,0.0,0.0
1666091799852274465,0.0,0.0,0.0,0.0,0.0,0.0
1666091799896363576,0.0,0.0,0.0,0.0,0.0,0.0
1666091799896413295,0.0,0.0,0.0,0.0,0.0,0.0
1666091799940789352,0.0,0.0,0.0,0.0,0.0,0.0
1666091799940841723,0.0,0.0,0.0,0.0,0.0,0.0
1666091799940855144,0.0,0.0,0.0,0.0,0.0,0.0
1666091799984155917,0.0,0.0,0.0,0.0,0.0,0.0
1666091799984182260,0.0,0.0,0.0,0.0,0.0,0.0
1666091799996728235,0.0,0.0,0.0,0.0,0.0,0.0
1666091800016902272,0.0,0.0,0.0,0.0,0.0,0.0
1666091800060145725,0.0,0.0,0.0,0.0,0.0,0.0
1666091800060169336,0.0,0.0,0.0,0.0,0.0,0.0
1666091800104260535,0.0,0.0,0.0,0.0,0.0,0.0
1666091800104342821,0.0,0.0,0.0,0.0,0.0,0.0
1666091800148203900,0.0,0.0,0.0,0.0,0.0,0.0
1666091800148235983,0.0,0.0,0.0,0.0,0.0,0.0
1666091800197307394,0.0,0.0,0.0,0.0,0.0,0.0
1666091800197342896,0.0,0.0,0.0,0.0,0.0,0.0
1666091800244206856,0.0,0.0,0.0,0.0,0.0,0.0
1666091800244236873,0.0,0.0,0.0,0.0,0.0,0.0
1666091800244259196,0.0,0.0,0.0,0.0,0.0,0.0
1666091800288090143,0.0,0.0,0.0,0.0,0.0,0.0
1666091800288108036,0.0,0.0,0.0,0.0,0.0,0.0
1666091800296768727,0.0,0.0,0.0,0.0,0.0,0.0
1666091800316214299,0.0,0.0,0.0,0.0,0.0,0.0
1666091800360093061,0.0,0.0,0.0,0.0,0.0,0.0
1666091800360109157,0.0,0.0,0.0,0.0,0.0,0.0
1666091800404110867,0.0,0.0,0.0,0.0,0.0,0.0
1666091800404132450,0.0,0.0,0.0,0.0,0.0,0.0
1666091800448195577,0.0,0.0,0.0,0.0,0.0,0.0
1666091800448207708,0.0,0.0,0.0,0.0,0.0,0.0
1666091800492086022,0.0,0.0,0.0,0.0,0.0,0.0
1666091800492103551,0.0,0.0,0.0,0.0,0.0,0.0
1666091800540083523,0.0,0.0,0.0,0.0,0.0,0.0
1666091800540167387,0.0,0.0,0.0,0.0,0.0,0.0
1666091800580315164,0.0,0.0,0.0,0.0,0.0,0.0
1666091800580356764,0.0,0.0,0.0,0.0,0.0,0.0
1666091800581185988,0.0,0.0,0.0,0.0,0.0,0.0
1666091800624162845,0.0,0.0,0.0,0.0,0.0,0.0
1666091800624185365,0.0,0.0,0.0,0.0,0.0,0.0
1666091800637959832,0.0,0.0,0.0,0.0,0.0,0.0
1666091800657285915,0.0,0.0,0.0,0.0,0.0,0.0
1666091800700157246,0.0,0.0,0.0,0.0,0.0,0.0
1666091800700181055,0.0,0.0,0.0,0.0,0.0,0.0
1666091800744087822,0.0,0.0,0.0,0.0,0.0,0.0
1666091800744100509,0.0,0.0,0.0,0.0,0.0,0.0
1666091800788067901,0.0,0.0,0.0,0.0,0.0,0.0
1666091800788082255,0.0,0.0,0.0,0.0,0.0,0.0
1666091800832091965,0.0,0.0,0.0,0.0,0.0,0.0
1666091800832113249,0.0,0.0,0.0,0.0,0.0,0.0
1666091800876095580,0.0,0.0,0.0,0.0,0.0,0.0
1666091800876134279,0.0,0.0,0.0,0.0,0.0,0.0
1666091800920247586,0.0,0.0,0.0,0.0,0.0,0.0
1666091800920282988,0.0,0.0,0.0,0.0,0.0,0.0
1666091800920299300,0.0,0.0,0.0,0.0,0.0,0.0
1666091800964255194,0.0,0.0,0.0,0.0,0.0,0.0
1666091800964325065,0.0,0.0,0.0,0.0,0.0,0.0
1666091800976942989,0.0,0.0,0.0,0.0,0.0,0.0
1666091800997277197,0.0,0.0,0.0,0.0,0.0,0.0
1666091801040094959,0.0,0.0,0.0,0.0,0.0,0.0
1666091801040110174,0.0,0.0,0.0,0.0,0.0,0.0
1666091801084089764,0.0,0.0,0.0,0.0,0.0,0.0
1666091801084100623,0.0,0.0,0.0,0.0,0.0,0.0
1666091801128096362,0.0,0.0,0.0,0.0,0.0,0.0
1666091801128111996,0.0,0.0,0.0,0.0,0.0,0.0
1666091801172082721,0.0,0.0,0.0,0.0,0.0,0.0
1666091801172101238,0.0,0.0,0.0,0.0,0.0,0.0
1666091801216109020,0.0,0.0,0.0,0.0,0.0,0.0
1666091801216121208,0.0,0.0,0.0,0.0,0.0,0.0
1666091801260096812,0.0,0.0,0.0,0.0,0.0,0.0
1666091801260110682,0.0,0.0,0.0,0.0,0.0,0.0
1666091801260120953,0.0,0.0,0.0,0.0,0.0,0.0
1666091801304155060,0.0,0.0,0.0,0.0,0.0,0.0
1666091801304175934,0.0,0.0,0.0,0.0,0.0,0.0
1666091801316909598,0.0,0.0,0.0,0.0,0.0,0.0
1666091801337813726,0.0,0.0,0.0,0.0,0.0,0.0
1666091801384085942,0.0,0.0,0.0,0.0,0.0,0.0
1666091801384096075,0.0,0.0,0.0,0.0,0.0,0.0
1666091801428098157,0.0,0.0,0.0,0.0,0.0,0.0
1666091801428107742,0.0,0.0,0.0,0.0,0.0,0.0
1666091801472142806,0.0,0.0,0.0,0.0,0.0,0.0
1666091801472167570,0.0,0.0,0.0,0.0,0.0,0.0
1666091801516116333,0.0,0.0,0.0,0.0,0.0,0.0
1666091801516127461,0.0,0.0,0.0,0.0,0.0,0.0
1666091801560084604,0.0,0.0,0.0,0.0,0.0,0.0
1666091801560099935,0.0,0.0,0.0,0.0,0.0,0.0
1666091801560110503,0.0,0.0,0.0,0.0,0.0,0.0
1666091801608074373,0.0,0.0,0.0,0.0,0.0,0.0
1666091801608091346,0.0,0.0,0.0,0.0,0.0,0.0
1666091801618089253,0.0,0.0,0.0,0.0,0.0,0.0
1666091801637173765,0.0,0.0,0.0,0.0,0.0,0.0
1666091801680065340,0.0,0.0,0.0,0.0,0.0,0.0
1666091801680077480,0.0,0.0,0.0,0.0,0.0,0.0
1666091801728069292,0.0,0.0,0.0,0.0,0.0,0.0
1666091801728085696,0.0,0.0,0.0,0.0,0.0,0.0
1666091801772111013,0.0,0.0,0.0,0.0,0.0,0.0
1666091801772134011,0.0,0.0,0.0,0.0,0.0,0.0
1666091801816047409,0.0,0.0,0.0,0.0,0.0,0.0
1666091801816059386,0.0,0.0,0.0,0.0,0.0,0.0
1666091801860186925,0.0,0.0,0.0,0.0,0.0,0.0
1666091801860202640,0.0,0.0,0.0,0.0,0.0,0.0
1666091801860210283,0.0,0.0,0.0,0.0,0.0,0.0
1666091801904058662,0.0,0.0,0.0,0.0,0.0,0.0
1666091801904075168,0.0,0.0,0.0,0.0,0.0,0.0
1666091801917584772,0.0,0.0,0.0,0.0,0.0,0.0
1666091801937817624,0.0,0.0,0.0,0.0,0.0,0.0
1666091801984078076,0.0,0.0,0.0,0.0,0.0,0.0
1666091801984091490,0.0,0.0,0.0,0.0,0.0,0.0
1666091802032143470,0.0,0.0,0.0,0.0,0.0,0.0
1666091802032162282,0.0,0.0,0.0,0.0,0.0,0.0
1666091802076278188,0.0,0.0,0.0,0.0,0.0,0.0
1666091802076363606,0.0,0.0,0.0,0.0,0.0,0.0
1666091802120137241,0.0,0.0,0.0,0.0,0.0,0.0
1666091802120157434,0.0,0.0,0.0,0.0,0.0,0.0
1666091802120164492,0.0,0.0,0.0,0.0,0.0,0.0
1666091802164307338,0.0,0.0,0.0,0.0,0.0,0.0
1666091802164364211,0.0,0.0,0.0,0.0,0.0,0.0
1666091802178819897,0.0,0.0,0.0,0.0,0.0,0.0
1666091802198438873,0.0,0.0,0.0,0.0,0.0,0.0
1666091802244385710,0.0,0.0,0.0,0.0,0.0,0.0
1666091802244406006,0.0,0.0,0.0,0.0,0.0,0.0
1666091802292208487,0.0,0.0,0.0,0.0,0.0,0.0
1666091802292254298,0.0,0.0,0.0,0.0,0.0,0.0
1666091802332174636,0.0,0.0,0.0,0.0,0.0,0.0
1666091802332196465,0.0,0.0,0.0,0.0,0.0,0.0
1666091802376312319,0.0,0.0,0.0,0.0,0.0,0.0
1666091802376350553,0.0,0.0,0.0,0.0,0.0,0.0
1666091802420097714,0.0,0.0,0.0,0.0,0.0,0.0
1666091802420109384,0.0,0.0,0.0,0.0,0.0,0.0
1666091802420117269,0.0,0.0,0.0,0.0,0.0,0.0
1666091802468270233,0.0,0.0,0.0,0.0,0.0,0.0
1666091802468309852,0.0,0.0,0.0,0.0,0.0,0.0
1666091802478780909,0.0,0.0,0.0,0.0,0.0,0.0
1666091802497641510,0.0,0.0,0.0,0.0,0.0,0.0
1666091802540132145,0.0,0.0,0.0,0.0,0.0,0.0
1666091802540147332,0.0,0.0,0.0,0.0,0.0,0.0
1666091802588382348,0.0,0.0,0.0,0.0,0.0,0.0
1666091802588444796,0.0,0.0,0.0,0.0,0.0,0.0
1666091802632100808,0.0,0.0,0.0,0.0,0.0,0.0
1666091802632115843,0.0,0.0,0.0,0.0,0.0,0.0
1666091802676091227,0.0,0.0,0.0,0.0,0.0,0.0
1666091802676121164,0.0,0.0,0.0,0.0,0.0,0.0
1666091802720105041,0.0,0.0,0.0,0.0,0.0,0.0
1666091802720122463,0.0,0.0,0.0,0.0,0.0,0.0
1666091802720146742,0.0,0.0,0.0,0.0,0.0,0.0
1666091802764243680,0.0,0.0,0.0,0.0,0.0,0.0
1666091802764275724,0.0,0.0,0.0,0.0,0.0,0.0
1666091802778867370,0.0,0.0,0.0,0.0,0.0,0.0
1666091802798601375,0.0,0.0,0.0,0.0,0.0,0.0
1666091802840123011,0.0,0.0,0.0,0.0,0.0,0.0
1666091802840141332,0.0,0.0,0.0,0.0,0.0,0.0
1666091802888114936,0.0,0.0,0.0,0.0,0.0,0.0
1666091802888130097,0.0,0.0,0.0,0.0,0.0,0.0
1666091802932264836,0.0,0.0,0.0,0.0,0.0,0.0
1666091802932313199,0.0,0.0,0.0,0.0,0.0,0.0
1666091802976105194,0.0,0.0,0.0,0.0,0.0,0.0
1666091802976119944,0.0,0.0,0.0,0.0,0.0,0.0
1666091803020239337,0.0,0.0,0.0,0.0,0.0,0.0
1666091803020266321,0.0,0.0,0.0,0.0,0.0,0.0
1666091803020279374,0.0,0.0,0.0,0.0,0.0,0.0
1666091803064181585,0.0,0.0,0.0,0.0,0.0,0.0012217304763960308
1666091803064210332,0.0,0.0,0.0,0.0,0.0,-0.0008726646259971648
1666091803079222164,0.0,0.0,0.0,0.0,0.0,-0.0006981317007977319
1666091803099797428,0.0,0.0,0.0,0.0,0.0,-0.0020943951023931952
1666091803144839052,0.0,0.0,0.0,0.0,0.0,-0.0038397243543875246
1666091803144986905,0.019190719875041395,0.0,0.0,0.0,0.0,-0.003316125578789226
1666091803188226624,0.012793813250027599,0.0,0.0,0.0,0.0,-0.002617993877991494
1666091803188259047,0.004264604416675866,0.0,0.0,0.0,0.0,-0.005061454830783556
1666091803232160316,0.019190719875041395,0.0,0.0,0.0,0.0,-0.00890117918517108
1666091803232175083,0.019190719875041395,0.0,0.0,0.0,0.0,-0.014137166941154071
1666091803276103765,0.03624913754174486,0.0,0.0,0.0,0.0,-0.007504915783575617
1666091803276116635,0.029852230916731063,0.0,0.0,0.0,0.0,-0.008377580409572781
1666091803320400941,0.029852230916731063,0.0,0.0,0.0,0.0,-0.016406094968746697
1666091803320444468,0.044778346375096596,0.0,0.0,0.0,0.0,-0.02897246558310587
1666091803321031990,0.051175253000110395,0.0,0.0,0.0,0.0,-0.034557519189487726
1666091803364306451,0.06183676404180006,0.0,0.0,0.0,0.0,-0.03490658503988659
1666091803364339977,0.05330755520844832,0.0,0.0,0.0,0.0,-0.05305800926062761
1666091803377997366,0.05330755520844832,0.0,0.0,0.0,0.0,-0.079412480965742
1666091803399400858,0.07676287950016558,0.0,0.0,0.0,0.0,-0.09354964790689607
1666091803440102529,0.08529208833351731,0.0,0.0,0.0,0.0,-0.09965830028887622
1666091803440125332,0.09168899495853111,0.0,0.0,0.0,0.0,-0.10995574287564275
1666091803484116496,0.08529208833351731,0.0,0.0,0.0,0.0,-0.12810716709638378
1666091803484129998,0.08742439054185526,0.0,0.0,0.0,0.0,-0.13788101090755203
1666091803528074206,0.11514431925024839,0.0,0.0,0.0,0.0,-0.1609193570338772
1666091803528093262,0.1108797148335725,0.0,0.0,0.0,0.0,-0.1876228945893904
1666091803572347570,0.11514431925024839,0.0,0.0,0.0,0.0,-0.19565140914856435
1666091803572379267,0.11940892366692425,0.0,0.0,0.0,0.0,-0.23387411976724018
1666091803616093157,0.11940892366692425,0.0,0.0,0.0,0.0,-0.2537708732399755
1666091803616102926,0.12793813250027597,0.0,0.0,0.0,0.0,-0.2567379329683659
1666091803660164001,0.13220273691695184,0.0,0.0,0.0,0.0,-0.26267205242514663
1666091803660189281,0.1407319457503036,0.0,0.0,0.0,0.0,-0.27872908154349446
1666091803660216822,0.1407319457503036,0.0,0.0,0.0,0.0,-0.30473448739820996
1666091803704127687,0.1492611545836553,0.0,0.0,0.0,0.0,-0.318871654339364
1666091803704148766,0.15139345679199323,0.0,0.0,0.0,0.0,-0.3384193419617005
1666091803718878763,0.15779036341700706,0.0,0.0,0.0,0.0,-0.3399901382884954
1666091803740298153,0.16205496783368292,0.0,0.0,0.0,0.0,-0.3574434308084387
1666091803780164531,0.17058417666703463,0.0,0.0,0.0,0.0,-0.37681658550557573
1666091803780194194,0.1684518744586967,0.0,0.0,0.0,0.0,-0.38065630985996324
1666091803824321115,0.18551029212540016,0.0,0.0,0.0,0.0,-0.39810960237990656
1666091803824415469,0.18124568770872432,0.0,0.0,0.0,0.0,-0.398284135305106
1666091803868240429,0.19617180316708985,0.0,0.0,0.0,0.0,-0.4209734155810323
1666091803868262767,0.19617180316708985,0.0,0.0,0.0,0.0,-0.4457570909593517
1666091803912500585,0.19403950095875191,0.0,0.0,0.0,0.0,-0.4392993727269727
1666091803912570656,0.20896561641711744,0.0,0.0,0.0,0.0,-0.4564035993965171
1666091803956043072,0.21323022083379328,0.0,0.0,0.0,0.0,-0.47490408946765705
1666091803956055451,0.22389173187548297,0.0,0.0,0.0,0.0,-0.4738568919164604
1666091804000235324,0.2196271274588071,0.0,0.0,0.0,0.0,-0.4633849164044945
1666091804000267370,0.22389173187548297,0.0,0.0,0.0,0.0,-0.43493604959698695
1666091804000275359,0.23455324291717264,0.0,0.0,0.0,0.0,-0.407534380340676
1666091804044051191,0.2388178473338485,0.0,0.0,0.0,0.0,-0.3846705671395502
1666091804044068184,0.24947935837553817,0.0,0.0,0.0,0.0,-0.3810053757103621
1666091804058751380,0.24947935837553817,0.0,0.0,0.0,0.0,-0.3988077340807043
1666091804078885054,0.24521475395886227,0.0,0.0,0.0,0.0,-0.4080579791162742
1666091804124055293,0.2601408694172278,0.0,0.0,0.0,0.0,-0.4389503068765739
1666091804124065401,0.2622731716255658,0.0,0.0,0.0,0.0,-0.4660029102824859
1666091804168238396,0.27506698487559333,0.0,0.0,0.0,0.0,-0.47403142484165983
1666091804168296255,0.27080238045891747,0.0,0.0,0.0,0.0,-0.5007349623971732
1666091804212178142,0.26867007825057954,0.0,0.0,0.0,0.0,-0.49061205273560604
1666091804212212792,0.29425770475063473,0.0,0.0,0.0,0.0,-0.5347688828110625
1666091804256115190,0.29425770475063473,0.0,0.0,0.0,0.0,-0.5811946409141117
1666091804256138231,0.28786079812562093,0.0,0.0,0.0,0.0,-0.6155776271784
1666091804300181221,0.28786079812562093,0.0,0.0,0.0,0.0,-0.6522295414702809
1666091804300213270,0.28786079812562093,0.0,0.0,0.0,0.0,-0.6745697558958084
1666091804300238270,0.3113161224173382,0.0,0.0,0.0,0.0,-0.7101744726364927
1666091804344616318,0.317713029042352,0.0,0.0,0.0,0.0,-0.7202973822980598
1666091804344637534,0.2963900069589727,0.0,0.0,0.0,0.0,-0.7522369076095561
1666091804358771949,0.29425770475063473,0.0,0.0,0.0,0.0,-0.745779189377177
1666091804378683768,0.30278691358398646,0.0,0.0,0.0,0.0,-0.7110471372624899
1666091804420142542,0.17911338550038639,0.0,0.0,0.0,0.0,-0.703891287329313
1666091804420164347,0.17271647887537256,0.0,0.0,0.0,0.0,-0.6824237375297828
1666091804468573442,0.1108797148335725,0.0,0.0,0.0,0.0,-0.6702064327658225
1666091804468711037,0.08315978612517938,0.0,0.0,0.0,0.0,-0.6620033852814492
1666091804516126589,0.09595359937520698,0.0,0.0,0.0,0.0,-0.6588617926278594
1666091804516150153,0.03198453312506899,0.0,0.0,0.0,0.0,-0.6236061417375739
1666091804564118369,0.027719928708393127,0.0,0.0,0.0,0.0,-0.5848598323432999
1666091804564142290,0.044778346375096596,0.0,0.0,0.0,0.0,-0.5679301385989548
1666091804564158126,0.04904295079177246,0.0,0.0,0.0,0.0,-0.502305758723968
1666091804612225723,0.03838143975008279,0.0,0.0,0.0,0.0,-0.3918264170727269
1666091804612258194,0.03624913754174486,0.0,0.0,0.0,0.0,-0.2930407814098479
1666091804619600555,0.03624913754174486,0.0,0.0,0.0,0.0,-0.2555162024919699
1666091804639569692,0.025587626500055197,0.0,0.0,0.0,0.0,-0.25394540616517497
1666091804684394966,0.004264604416675866,0.0,0.0,0.0,0.0,-0.24312436480281008
1666091804684445265,-0.008529208833351731,0.0,0.0,0.0,0.0,-0.24190263432641407
1666091804728190766,-0.006396906625013799,0.0,0.0,0.0,0.0,-0.23788837704682714
1666091804728214665,-0.012793813250027599,0.0,0.0,0.0,0.0,-0.2553416695667704
1666091804772296238,-0.025587626500055197,0.0,0.0,0.0,0.0,-0.27838001569309556
1666091804772345481,-0.02345532429171726,0.0,0.0,0.0,0.0,-0.289026524130261
1666091804816105193,-0.025587626500055197,0.0,0.0,0.0,0.0,-0.28064894372068816
1666091804816129875,-0.008529208833351731,0.0,0.0,0.0,0.0,-0.272096830385916
1666091804860127971,0.004264604416675866,0.0,0.0,0.0,0.0,-0.26930430358272506
1666091804860151658,0.004264604416675866,0.0,0.0,0.0,0.0,-0.26930430358272506
1666091804860161542,0.002132302208337933,0.0,0.0,0.0,0.0,-0.2712241657599188
1666091804904168034,0.010661511041689664,0.0,0.0,0.0,0.0,-0.26546457922833755
1666091804904197130,0.021323022083379328,0.0,0.0,0.0,0.0,-0.23684117949563052
1666091804918884537,0.014926115458365532,0.0,0.0,0.0,0.0,-0.2197369528260861
1666091804940467995,0.014926115458365532,0.0,0.0,0.0,0.0,-0.2040289895581371
1666091804988219902,0.010661511041689664,0.0,0.0,0.0,0.0,-0.1827359726838063
1666091804988238912,0.014926115458365532,0.0,0.0,0.0,0.0,-0.16598081186466074
1666091805036454773,0.006396906625013799,0.0,0.0,0.0,0.0,-0.16039575825827887
1666091805036510792,0.010661511041689664,0.0,0.0,0.0,0.0,-0.165282680163863
1666091805084078076,0.002132302208337933,0.0,0.0,0.0,0.0,-0.1684242728174528
1666091805084089640,-0.002132302208337933,0.0,0.0,0.0,0.0,-0.16318828506146982
1666091805084095142,-0.004264604416675866,0.0,0.0,0.0,0.0,-0.16353735091186866
1666091805128102928,-0.002132302208337933,0.0,0.0,0.0,0.0,-0.15603243512829304
1666091805128118375,0.0,0.0,0.0,0.0,0.0,-0.15812683023068627
1666091805139892447,0.0,0.0,0.0,0.0,0.0,-0.16353735091186866
1666091805158644395,-0.002132302208337933,0.0,0.0,0.0,0.0,-0.1658062789394613
1666091805206259470,0.002132302208337933,0.0,0.0,0.0,0.0,-0.1621410875102732
1666091805206297566,0.006396906625013799,0.0,0.0,0.0,0.0,-0.14713125594312196
1666091805248066815,0.0,0.0,0.0,0.0,0.0,-0.1387536755335492
1666091805248079655,0.004264604416675866,0.0,0.0,0.0,0.0,-0.12723450247038662
1666091805292085363,0.010661511041689664,0.0,0.0,0.0,0.0,-0.10297442586766545
1666091805292093897,0.004264604416675866,0.0,0.0,0.0,0.0,-0.06824237375297829
1666091805336475674,0.006396906625013799,0.0,0.0,0.0,0.0,-0.04363323129985824
1666091805336550599,0.004264604416675866,0.0,0.0,0.0,0.0,-0.041713369122664476
1666091805384159436,0.004264604416675866,0.0,0.0,0.0,0.0,-0.041189770347066175
1666091805384179042,0.0,0.0,0.0,0.0,0.0,-0.031241393610698498
1666091805384194219,0.002132302208337933,0.0,0.0,0.0,0.0,-0.020071286397934786
1666091805428070226,0.0,0.0,0.0,0.0,0.0,-0.020071286397934786
1666091805428086966,0.0,0.0,0.0,0.0,0.0,-0.010995574287564275
1666091805439831406,0.0,0.0,0.0,0.0,0.0,0.0010471975511965976
1666091805459366292,0.0,0.0,0.0,0.0,0.0,0.004014257279586958
1666091805500136552,0.0,0.0,0.0,0.0,0.0,0.0012217304763960308
1666091805500154148,0.0,0.0,0.0,0.0,0.0,0.00471238898038469
1666091805548113045,0.004264604416675866,0.0,0.0,0.0,0.0,-0.0019198621771937623
1666091805548132012,0.002132302208337933,0.0,0.0,0.0,0.0,-0.035430183815484885
1666091805592068536,0.002132302208337933,0.0,0.0,0.0,0.0,-0.03874630939427412
1666091805592076984,0.0,0.0,0.0,0.0,0.0,-0.031939525311496235
1666091805636312829,0.002132302208337933,0.0,0.0,0.0,0.0,-0.02129301687433082
1666091805636365955,0.002132302208337933,0.0,0.0,0.0,0.0,-0.012217304763960306
1666091805680537912,0.0,0.0,0.0,0.0,0.0,-0.007504915783575617
1666091805680617041,0.002132302208337933,0.0,0.0,0.0,0.0,-0.004886921905584123
1666091805680712103,0.0,0.0,0.0,0.0,0.0,-0.0031415926535897933
1666091805724140497,0.002132302208337933,0.0,0.0,0.0,0.0,0.0005235987755982988
1666091805724158234,0.002132302208337933,0.0,0.0,0.0,0.0,-0.0010471975511965976
1666091805739391699,0.0,0.0,0.0,0.0,0.0,-0.0010471975511965976
1666091805759108648,0.0,0.0,0.0,0.0,0.0,-0.009773843811168246
1666091805803705255,0.002132302208337933,0.0,0.0,0.0,0.0,-0.014137166941154071
1666091805803727196,0.0,0.0,0.0,0.0,0.0,-0.010297442586766544
1666091805844037600,0.0,0.0,0.0,0.0,0.0,-0.006981317007977318
1666091805844048620,0.0,0.0,0.0,0.0,0.0,-0.009948376736367677
1666091805888133853,0.0,0.0,0.0,0.0,0.0,-0.005061454830783556
1666091805888150314,0.0,0.0,0.0,0.0,0.0,0.003316125578789226
1666091805932480550,0.0,0.0,0.0,0.0,0.0,0.0031415926535897933
1666091805932566237,0.0,0.0,0.0,0.0,0.0,0.0020943951023931952
1666091805976081179,0.0,0.0,0.0,0.0,0.0,0.0005235987755982988
1666091805976096610,0.0,0.0,0.0,0.0,0.0,0.00017453292519943296
1666091806020259996,0.0,0.0,0.0,0.0,0.0,-0.0006981317007977319
1666091806020307784,0.0,0.0,0.0,0.0,0.0,-0.0005235987755982988
1666091806020328223,0.0,0.0,0.0,0.0,0.0,-0.0024434609527920616
1666091806068069238,0.0,0.0,0.0,0.0,0.0,-0.0019198621771937623
1666091806068085242,0.0,0.0,0.0,0.0,0.0,0.0
1666091806079169351,0.0,0.0,0.0,0.0,0.0,-0.00017453292519943296
1666091806099625307,0.002132302208337933,0.0,0.0,0.0,0.0,-0.0008726646259971648
1666091806140062223,0.0,0.0,0.0,0.0,0.0,-0.00017453292519943296
1666091806140076434,0.002132302208337933,0.0,0.0,0.0,0.0,0.0020943951023931952
1666091806188143955,0.0,0.0,0.0,0.0,0.0,-0.0012217304763960308
1666091806188172401,0.004264604416675866,0.0,0.0,0.0,0.0,-0.0013962634015954637
1666091806236282150,0.002132302208337933,0.0,0.0,0.0,0.0,-0.0005235987755982988
1666091806236328821,0.0,0.0,0.0,0.0,0.0,-0.004537856055185257
1666091806284211320,0.0,0.0,0.0,0.0,0.0,-0.00645771823237902
1666091806284241402,0.0,0.0,0.0,0.0,0.0,-0.005759586531581288
1666091806284257641,0.0,0.0,0.0,0.0,0.0,-0.0015707963267948967
1666091806332118375,0.0,0.0,0.0,0.0,0.0,-0.0022689280275926286
1666091806332138938,0.0,0.0,0.0,0.0,0.0,-0.0054105206811824215
1666091806340871546,0.002132302208337933,0.0,0.0,0.0,0.0,-0.006283185307179587
1666091806360643292,0.004264604416675866,0.0,0.0,0.0,0.0,-0.004363323129985824
1666091806408180737,0.002132302208337933,0.0,0.0,0.0,0.0,-0.004363323129985824
1666091806408204659,0.0,0.0,0.0,0.0,0.0,-0.008377580409572781
1666091806456129165,0.002132302208337933,0.0,0.0,0.0,0.0,-0.0143116998663535
1666091806456150154,0.004264604416675866,0.0,0.0,0.0,0.0,-0.015184364492350668
1666091806500462072,0.0,0.0,0.0,0.0,0.0,-0.00715584993317675
1666091806500537877,0.0,0.0,0.0,0.0,0.0,-0.006981317007977318
1666091806548055584,0.004264604416675866,0.0,0.0,0.0,0.0,-0.014835298641951801
1666091806548067625,0.002132302208337933,0.0,0.0,0.0,0.0,-0.02199114857512855
1666091806548078997,0.002132302208337933,0.0,0.0,0.0,0.0,-0.015358897417550098
1666091806596393352,0.0,0.0,0.0,0.0,0.0,-0.014835298641951801
1666091806596411393,0.004264604416675866,0.0,0.0,0.0,0.0,-0.022689280275926284
1666091806600072959,0.004264604416675866,0.0,0.0,0.0,0.0,-0.024260076602721177
1666091806620667056,0.0,0.0,0.0,0.0,0.0,-0.010821041362364843
1666091806668101787,0.002132302208337933,0.0,0.0,0.0,0.0,-0.016755160819145562
1666091806668121143,0.0,0.0,0.0,0.0,0.0,-0.0317649923862968
1666091806712427128,0.002132302208337933,0.0,0.0,0.0,0.0,-0.030019663134302467
1666091806712497212,-0.002132302208337933,0.0,0.0,0.0,0.0,-0.014835298641951801
1666091806756276923,0.002132302208337933,0.0,0.0,0.0,0.0,-0.007330382858376183
1666091806756326538,0.0,0.0,0.0,0.0,0.0,-0.008552113334772213
1666091806804403133,0.0,0.0,0.0,0.0,0.0,-0.012217304763960306
1666091806804446126,-0.004264604416675866,0.0,0.0,0.0,0.0,-0.016406094968746697
1666091806809144262,0.002132302208337933,0.0,0.0,0.0,0.0,-0.01902408884673819
1666091806852330377,0.002132302208337933,0.0,0.0,0.0,0.0,-0.0158824961931484
1666091806852405952,0.010661511041689664,0.0,0.0,0.0,0.0,-0.018500490071139894
1666091806861827563,0.004264604416675866,0.0,0.0,0.0,0.0,-0.026529004630313806
1666091806880927787,0.006396906625013799,0.0,0.0,0.0,0.0,-0.030194196059501903
1666091806928118100,0.008529208833351731,0.0,0.0,0.0,0.0,-0.043807764225057666
1666091806928170645,0.002132302208337933,0.0,0.0,0.0,0.0,-0.05794493116621174
1666091806976120282,-0.002132302208337933,0.0,0.0,0.0,0.0,-0.06684611035138281
1666091806976137168,0.004264604416675866,0.0,0.0,0.0,0.0,-0.07696902001294993
1666091807024136756,0.008529208833351731,0.0,0.0,0.0,0.0,-0.07766715171374766
1666091807024155717,0.004264604416675866,0.0,0.0,0.0,0.0,-0.08220500776893291
1666091807024170804,0.002132302208337933,0.0,0.0,0.0,0.0,-0.09040805525330627
1666091807068109512,0.010661511041689664,0.0,0.0,0.0,0.0,-0.09215338450530061
1666091807068124142,0.004264604416675866,0.0,0.0,0.0,0.0,-0.09791297103688189
1666091807080926340,0.004264604416675866,0.0,0.0,0.0,0.0,-0.11344640137963143
1666091807100313515,0.008529208833351731,0.0,0.0,0.0,0.0,-0.11641346110802178
1666091807144178440,0.012793813250027599,0.0,0.0,0.0,0.0,-0.1153662635568252
1666091807144195879,0.006396906625013799,0.0,0.0,0.0,0.0,-0.12164944886400476
1666091807192119879,-0.002132302208337933,0.0,0.0,0.0,0.0,-0.13177235852557187
1666091807192140128,0.002132302208337933,0.0,0.0,0.0,0.0,-0.13316862192716736
1666091807240266643,0.010661511041689664,0.0,0.0,0.0,0.0,-0.12566370614359174
1666091807240296016,0.010661511041689664,0.0,0.0,0.0,0.0,-0.11763519158441782
1666091807288247532,0.0,0.0,0.0,0.0,0.0,-0.12845623294678266
1666091807288283291,0.004264604416675866,0.0,0.0,0.0,0.0,-0.13631021458075712
1666091807288354299,0.006396906625013799,0.0,0.0,0.0,0.0,-0.14206980111233844
1666091807336081337,0.002132302208337933,0.0,0.0,0.0,0.0,-0.14695672301792254
1666091807336097243,0.004264604416675866,0.0,0.0,0.0,0.0,-0.15987215948268058
1666091807339967733,0.002132302208337933,0.0,0.0,0.0,0.0,-0.16458454846306525
1666091807360453775,0.002132302208337933,0.0,0.0,0.0,0.0,-0.16231562043547265
1666091807408165094,0.004264604416675866,0.0,0.0,0.0,0.0,-0.18465583486100007
1666091807408185762,0.004264604416675866,0.0,0.0,0.0,0.0,-0.1923352835697751
1666091807456184894,0.006396906625013799,0.0,0.0,0.0,0.0,-0.19408061282176942
1666091807456366681,0.004264604416675866,0.0,0.0,0.0,0.0,-0.19687313962496036
1666091807504299668,0.002132302208337933,0.0,0.0,0.0,0.0,-0.20804324683772407
1666091807504338807,0.008529208833351731,0.0,0.0,0.0,0.0,-0.2111848394913139
1666091807504350675,0.002132302208337933,0.0,0.0,0.0,0.0,-0.19949113350295186
1666091807552072063,0.002132302208337933,0.0,0.0,0.0,0.0,-0.19582594207376378
1666091807552082400,0.002132302208337933,0.0,0.0,0.0,0.0,-0.19634954084936207
1666091807560811478,0.010661511041689664,0.0,0.0,0.0,0.0,-0.19512781037296603
1666091807583350605,0.0,0.0,0.0,0.0,0.0,-0.19041542139258136
1666091807624093723,0.002132302208337933,0.0,0.0,0.0,0.0,-0.18430676901060122
1666091807624115536,0.006396906625013799,0.0,0.0,0.0,0.0,-0.18797196043978925
1666091807672087799,0.008529208833351731,0.0,0.0,0.0,0.0,-0.1947787445225672
1666091807672112458,-0.002132302208337933,0.0,0.0,0.0,0.0,-0.1942551457469689
1666091807720421876,0.002132302208337933,0.0,0.0,0.0,0.0,-0.2106612407157156
1666091807720464985,0.006396906625013799,0.0,0.0,0.0,0.0,-0.2234021442552742
1666091807764067890,0.004264604416675866,0.0,0.0,0.0,0.0,-0.22776546738526002
1666091807764079499,-0.002132302208337933,0.0,0.0,0.0,0.0,-0.23282692221604356
1666091807764083988,0.0,0.0,0.0,0.0,0.0,-0.24277529895241123
1666091807812471856,0.010661511041689664,0.0,0.0,0.0,0.0,-0.2509783464367846
1666091807812536338,0.004264604416675866,0.0,0.0,0.0,0.0,-0.24644049038159932
1666091807820660095,0.0,0.0,0.0,0.0,0.0,-0.24015730507441974
1666091807840629907,0.006396906625013799,0.0,0.0,0.0,0.0,-0.24452062820440557
1666091807884373814,0.006396906625013799,0.0,0.0,0.0,0.0,-0.2424262331020124
1666091807884446503,0.0,0.0,0.0,0.0,0.0,-0.24312436480281008
1666091807928210119,0.004264604416675866,0.0,0.0,0.0,0.0,-0.2392846404484226
1666091807928230098,0.002132302208337933,0.0,0.0,0.0,0.0,-0.23614304779483275
1666091807972261836,0.002132302208337933,0.0,0.0,0.0,0.0,-0.2331759880664424
1666091807972296036,0.002132302208337933,0.0,0.0,0.0,0.0,-0.23561944901923448
1666091808020126648,0.008529208833351731,0.0,0.0,0.0,0.0,-0.23771384412162766
1666091808020151824,0.002132302208337933,0.0,0.0,0.0,0.0,-0.2235766771804736
1666091808068104647,-0.002132302208337933,0.0,0.0,0.0,0.0,-0.22270401255447644
1666091808068134732,0.008529208833351731,0.0,0.0,0.0,0.0,-0.2309070600388498
1666091808068149031,0.004264604416675866,0.0,0.0,0.0,0.0,-0.22985986248765322
1666091808112096448,0.0,0.0,0.0,0.0,0.0,-0.22287854547967584
1666091808112126480,0.002132302208337933,0.0,0.0,0.0,0.0,-0.22497294058206907
1666091808120533446,0.006396906625013799,0.0,0.0,0.0,0.0,-0.2241002759560719
1666091808143806017,0.006396906625013799,0.0,0.0,0.0,0.0,-0.21642082724729686
1666091808184211223,0.0,0.0,0.0,0.0,0.0,-0.2090904443889207
1666091808184234159,0.002132302208337933,0.0,0.0,0.0,0.0,-0.21170843826691216
1666091808232110634,0.006396906625013799,0.0,0.0,0.0,0.0,-0.2082177797629235
1666091808232129041,-0.002132302208337933,0.0,0.0,0.0,0.0,-0.19198621771937624
1666091808276749042,0.004264604416675866,0.0,0.0,0.0,0.0,-0.2017600615305445
1666091808276852626,-0.002132302208337933,0.0,0.0,0.0,0.0,-0.20542525295973257
1666091808320129517,0.004264604416675866,0.0,0.0,0.0,0.0,-0.19687313962496036
1666091808320157926,-0.002132302208337933,0.0,0.0,0.0,0.0,-0.19931660057775244
1666091808364106324,0.0,0.0,0.0,0.0,0.0,-0.20123646275494617
1666091808364133705,0.004264604416675866,0.0,0.0,0.0,0.0,-0.20804324683772407
1666091808364143570,0.006396906625013799,0.0,0.0,0.0,0.0,-0.20193459445574394
1666091808412476258,-0.002132302208337933,0.0,0.0,0.0,0.0,-0.2017600615305445
1666091808412556551,0.0,0.0,0.0,0.0,0.0,-0.19634954084936207
1666091808420315408,0.008529208833351731,0.0,0.0,0.0,0.0,-0.183434104384604
1666091808442952744,0.004264604416675866,0.0,0.0,0.0,0.0,-0.18011797880581482
1666091808484123972,0.0,0.0,0.0,0.0,0.0,-0.16615534478986016
1666091808484141610,0.0,0.0,0.0,0.0,0.0,-0.1541125729510993
1666091808528130191,0.006396906625013799,0.0,0.0,0.0,0.0,-0.15009831567151233
1666091808528144748,-0.002132302208337933,0.0,0.0,0.0,0.0,-0.15550883635269475
1666091808572485557,0.004264604416675866,0.0,0.0,0.0,0.0,-0.14887658519511632
1666091808572510010,0.004264604416675866,0.0,0.0,0.0,0.0,-0.13962634015954636
1666091808616105407,0.002132302208337933,0.0,0.0,0.0,0.0,-0.1324704902263696
1666091808616123066,-0.004264604416675866,0.0,0.0,0.0,0.0,-0.136659280431156
1666091808660741642,0.002132302208337933,0.0,0.0,0.0,0.0,-0.12391837689159739
1666091808660822633,0.006396906625013799,0.0,0.0,0.0,0.0,-0.10995574287564275
1666091808704109089,0.0,0.0,0.0,0.0,0.0,-0.10349802464326374
1666091808704126860,-0.004264604416675866,0.0,0.0,0.0,0.0,-0.09616764178488756
1666091808704143707,0.002132302208337933,0.0,0.0,0.0,0.0,-0.09267698328089889
1666091808748267443,0.008529208833351731,0.0,0.0,0.0,0.0,-0.09075712110370514
1666091808748306575,0.002132302208337933,0.0,0.0,0.0,0.0,-0.08639379797371932
1666091808761647995,-0.002132302208337933,0.0,0.0,0.0,0.0,-0.08761552845011533
1666091808781636904,0.0,0.0,0.0,0.0,0.0,-0.09756390518648302
1666091808828126245,0.004264604416675866,0.0,0.0,0.0,0.0,-0.10210176124166827
1666091808828147952,-0.002132302208337933,0.0,0.0,0.0,0.0,-0.10105456369047167
1666091808872144712,-0.002132302208337933,0.0,0.0,0.0,0.0,-0.10297442586766545
1666091808872166015,-0.002132302208337933,0.0,0.0,0.0,0.0,-0.09808750396208131
1666091808918699096,0.008529208833351731,0.0,0.0,0.0,0.0,-0.08133234314293576
1666091808918778255,0.0,0.0,0.0,0.0,0.0,-0.06894050545377602
1666091808960161669,-0.002132302208337933,0.0,0.0,0.0,0.0,-0.062482787221396996
1666091808960181895,0.002132302208337933,0.0,0.0,0.0,0.0,-0.05375614096142535
1666091809004242464,0.004264604416675866,0.0,0.0,0.0,0.0,-0.05235987755982988
1666091809004279101,-0.002132302208337933,0.0,0.0,0.0,0.0,-0.04939281783143952
1666091809004293525,0.0,0.0,0.0,0.0,0.0,-0.039269908169872414
1666091809048193957,-0.004264604416675866,0.0,0.0,0.0,0.0,-0.032637657012293965
1666091809048216693,0.004264604416675866,0.0,0.0,0.0,0.0,-0.031415926535897934
1666091809061887190,0.004264604416675866,0.0,0.0,0.0,0.0,-0.01832595714594046
1666091809081963403,-0.004264604416675866,0.0,0.0,0.0,0.0,-0.016231562043547268
1666091809124096494,0.0,0.0,0.0,0.0,0.0,-0.022689280275926284
1666091809124114341,0.002132302208337933,0.0,0.0,0.0,0.0,-0.03368485456349056
1666091809168088659,0.0,0.0,0.0,0.0,0.0,-0.0317649923862968
1666091809168125688,-0.002132302208337933,0.0,0.0,0.0,0.0,-0.022689280275926284
1666091809212166048,0.0,0.0,0.0,0.0,0.0,-0.017976891295541593
1666091809212184180,0.0,0.0,0.0,0.0,0.0,-0.02129301687433082
1666091809256160026,0.002132302208337933,0.0,0.0,0.0,0.0,-0.024609142453120045
1666091809256180048,-0.002132302208337933,0.0,0.0,0.0,0.0,-0.02600540585471551
1666091809300093566,0.0,0.0,0.0,0.0,0.0,-0.024434609527920613
1666091809300112019,0.004264604416675866,0.0,0.0,0.0,0.0,-0.02391101075232232
1666091809344606036,0.006396906625013799,0.0,0.0,0.0,0.0,-0.017976891295541593
1666091809344677601,0.002132302208337933,0.0,0.0,0.0,0.0,-0.011519173063162576
1666091809344712265,0.0,0.0,0.0,0.0,0.0,-0.010821041362364843
1666091809388243250,0.004264604416675866,0.0,0.0,0.0,0.0,-0.023212879051524585
1666091809388282252,0.002132302208337933,0.0,0.0,0.0,0.0,-0.021467549799530253
1666091809401274275,0.0,0.0,0.0,0.0,0.0,-0.022514747350726852
1666091809421175006,0.0,0.0,0.0,0.0,0.0,-0.027925268031909273
1666091809468287160,0.004264604416675866,0.0,0.0,0.0,0.0,-0.023561944901923447
1666091809468319998,0.002132302208337933,0.0,0.0,0.0,0.0,-0.0143116998663535
1666091809512425188,0.006396906625013799,0.0,0.0,0.0,0.0,-0.007330382858376183
1666091809512480433,0.004264604416675866,0.0,0.0,0.0,0.0,-0.006806784082777885
1666091809556414938,0.0,0.0,0.0,0.0,0.0,-0.019896753472735354
1666091809556454398,0.004264604416675866,0.0,0.0,0.0,0.0,-0.029670597283903602
1666091809600168208,0.004264604416675866,0.0,0.0,0.0,0.0,-0.03228859116189509
1666091809600194993,0.002132302208337933,0.0,0.0,0.0,0.0,-0.024783675378319478
1666091809644254064,0.0,0.0,0.0,0.0,0.0,-0.02775073510670984
1666091809644273400,0.002132302208337933,0.0,0.0,0.0,0.0,-0.034732052114687155
1666091809644315645,0.002132302208337933,0.0,0.0,0.0,0.0,-0.030543261909900768
1666091809688263197,-0.002132302208337933,0.0,0.0,0.0,0.0,-0.0291469985083053
1666091809688301533,0.0,0.0,0.0,0.0,0.0,-0.040491638646268445
1666091809702282364,0.004264604416675866,0.0,0.0,0.0,0.0,-0.03735004599267865
1666091809721468663,0.0,0.0,0.0,0.0,0.0,-0.032812189937493394
1666091809764153272,-0.002132302208337933,0.0,0.0,0.0,0.0,-0.03438298626428829
1666091809764174045,0.002132302208337933,0.0,0.0,0.0,0.0,-0.030019663134302467
1666091809812232832,0.008529208833351731,0.0,0.0,0.0,0.0,-0.030368728984701335
1666091809812408076,0.0,0.0,0.0,0.0,0.0,-0.03752457891787808
1666091809860212484,0.0,0.0,0.0,0.0,0.0,-0.05951572749300663
1666091809860254630,0.0,0.0,0.0,0.0,0.0,-0.06981317007977318
1666091809905807956,0.004264604416675866,0.0,0.0,0.0,0.0,-0.06771877497737999
1666091809905857648,0.0,0.0,0.0,0.0,0.0,-0.06841690667817771
1666091809906337358,0.0,0.0,0.0,0.0,0.0,-0.07766715171374766
1666091809952127169,0.002132302208337933,0.0,0.0,0.0,0.0,-0.08970992355250852
1666091809952148277,0.008529208833351731,0.0,0.0,0.0,0.0,-0.08255407361933179
1666091809961907354,0.0,0.0,0.0,0.0,0.0,-0.07557275661135446
1666091809982498602,0.002132302208337933,0.0,0.0,0.0,0.0,-0.08691739674931762
1666091810028453151,0.006396906625013799,0.0,0.0,0.0,0.0,-0.09459684545809266
1666091810028525623,0.008529208833351731,0.0,0.0,0.0,0.0,-0.08831366015091306
1666091810072467145,-0.002132302208337933,0.0,0.0,0.0,0.0,-0.08185594191853407
1666091810072546688,-0.002132302208337933,0.0,0.0,0.0,0.0,-0.08988445647770799
1666091810120153661,0.004264604416675866,0.0,0.0,0.0,0.0,-0.10227629416686772
1666091810120172058,0.002132302208337933,0.0,0.0,0.0,0.0,-0.10576695267085637
1666091810168242985,-0.004264604416675866,0.0,0.0,0.0,0.0,-0.10035643198967394
1666091810168316862,0.006396906625013799,0.0,0.0,0.0,0.0,-0.10437068926926091
1666091810168850627,0.004264604416675866,0.0,0.0,0.0,0.0,-0.10297442586766545
1666091810212126035,0.0,0.0,0.0,0.0,0.0,-0.10402162341886204
1666091810212143829,-0.002132302208337933,0.0,0.0,0.0,0.0,-0.1165879940332212
1666091810221485945,0.004264604416675866,0.0,0.0,0.0,0.0,-0.11641346110802178
1666091810242540915,0.002132302208337933,0.0,0.0,0.0,0.0,-0.1059414855960558
1666091810284245632,0.002132302208337933,0.0,0.0,0.0,0.0,-0.10053096491487339
1666091810284267811,0.0,0.0,0.0,0.0,0.0,-0.10506882097005864
1666091810332110956,0.0,0.0,0.0,0.0,0.0,-0.11868238913561441
1666091810332133221,0.006396906625013799,0.0,0.0,0.0,0.0,-0.10576695267085637
1666091810376237846,0.002132302208337933,0.0,0.0,0.0,0.0,-0.0932005820564972
1666091810376272133,0.002132302208337933,0.0,0.0,0.0,0.0,-0.1038470904936626
1666091810424126793,-0.002132302208337933,0.0,0.0,0.0,0.0,-0.13072516097437528
1666091810424145241,0.006396906625013799,0.0,0.0,0.0,0.0,-0.1335176877775662
1666091810424151113,0.004264604416675866,0.0,0.0,0.0,0.0,-0.1165879940332212
1666091810472162798,-0.004264604416675866,0.0,0.0,0.0,0.0,-0.11239920382843484
1666091810472187955,0.002132302208337933,0.0,0.0,0.0,0.0,-0.130201562198777
1666091810482068407,0.0,0.0,0.0,0.0,0.0,-0.1425933998879367
1666091810501538423,0.004264604416675866,0.0,0.0,0.0,0.0,-0.13683381335635542
1666091810544314079,0.0,0.0,0.0,0.0,0.0,-0.13753194505715316
1666091810544331835,0.002132302208337933,0.0,0.0,0.0,0.0,-0.1377064779823526
1666091810588353057,0.002132302208337933,0.0,0.0,0.0,0.0,-0.1525417766243044
1666091810588377469,0.002132302208337933,0.0,0.0,0.0,0.0,-0.15952309363228173
1666091810632182165,0.0,0.0,0.0,0.0,0.0,-0.14067353771074298
1666091810632276772,-0.002132302208337933,0.0,0.0,0.0,0.0,-0.14905111812031574
1666091810676916578,0.006396906625013799,0.0,0.0,0.0,0.0,-0.15550883635269475
1666091810676944019,0.0,0.0,0.0,0.0,0.0,-0.16074482410867777
1666091810720145070,0.0,0.0,0.0,0.0,0.0,-0.15271630954950383
1666091810720193150,-0.002132302208337933,0.0,0.0,0.0,0.0,-0.1499237827463129
1666091810764093474,0.006396906625013799,0.0,0.0,0.0,0.0,-0.15428710587629874
1666091810764109505,0.014926115458365532,0.0,0.0,0.0,0.0,-0.15166911199830724
1666091810764115515,0.014926115458365532,0.0,0.0,0.0,0.0,-0.15044738152191117
1666091810808223943,0.008529208833351731,0.0,0.0,0.0,0.0,-0.14748032179352083
1666091810808245844,0.025587626500055197,0.0,0.0,0.0,0.0,-0.15498523757709648
1666091810821743070,0.025587626500055197,0.0,0.0,0.0,0.0,-0.1525417766243044
1666091810842248016,0.03624913754174486,0.0,0.0,0.0,0.0,-0.15707963267948966
1666091810888259840,0.029852230916731063,0.0,0.0,0.0,0.0,-0.1726130630222392
1666091810888295989,0.034116835333406925,0.0,0.0,0.0,0.0,-0.18186330805780915
1666091810932167627,0.051175253000110395,0.0,0.0,0.0,0.0,-0.17016960206944712
1666091810932194655,0.051175253000110395,0.0,0.0,0.0,0.0,-0.1682497398922534
1666091810976278679,0.06396906625013798,0.0,0.0,0.0,0.0,-0.17924531417981765
1666091810976300042,0.05543985741678625,0.0,0.0,0.0,0.0,-0.18133970928221083
1666091811020097741,0.059704461833462126,0.0,0.0,0.0,0.0,-0.1673770752662562
1666091811020114075,0.06823367066681385,0.0,0.0,0.0,0.0,-0.15271630954950383
1666091811064140901,0.07676287950016558,0.0,0.0,0.0,0.0,-0.14521139376592823
1666091811064151133,0.09382129716686904,0.0,0.0,0.0,0.0,-0.15498523757709648
1666091811064172482,0.09382129716686904,0.0,0.0,0.0,0.0,-0.14137166941154067
1666091811112357932,0.08315978612517938,0.0,0.0,0.0,0.0,-0.11257373675363426
1666091811112444333,0.10021820379188286,0.0,0.0,0.0,0.0,-0.11047934165124106
1666091811122301671,0.10448280820855872,0.0,0.0,0.0,0.0,-0.12897983172238095
1666091811142635220,0.10874741262523457,0.0,0.0,0.0,0.0,-0.1356120828799594
1666091811188307630,0.10235050600022079,0.0,0.0,0.0,0.0,-0.12007865253720987
1666091811188359920,0.10448280820855872,0.0,0.0,0.0,0.0,-0.10105456369047167
1666091811232183366,0.12793813250027597,0.0,0.0,0.0,0.0,-0.1096066770252439
1666091811232238209,0.12793813250027597,0.0,0.0,0.0,0.0,-0.11205013797803595
1666091811277574128,0.1364673413336277,0.0,0.0,0.0,0.0,-0.09773843811168245
1666091811277613248,0.13433503912528977,0.0,0.0,0.0,0.0,-0.08587019919812101
1666091811324064291,0.13859964354196566,0.0,0.0,0.0,0.0,-0.07906341511534314
1666091811324080501,0.15352575900033116,0.0,0.0,0.0,0.0,-0.07417649320975901
1666091811324092238,0.16205496783368292,0.0,0.0,0.0,0.0,-0.06928957130417489
1666091811368174048,0.16631957225035876,0.0,0.0,0.0,0.0,-0.06806784082777885
1666091811368189508,0.16418727004202083,0.0,0.0,0.0,0.0,-0.05864306286700947
1666091811381983702,0.16631957225035876,0.0,0.0,0.0,0.0,-0.06300638599699529
1666091811402573537,0.17698108329204845,0.0,0.0,0.0,0.0,-0.07696902001294993
1666091811448640121,0.17911338550038639,0.0,0.0,0.0,0.0,-0.07539822368615504
1666091811448749431,0.18977489654207602,0.0,0.0,0.0,0.0,-0.06789330790257941
1666091811492501525,0.18337798991706222,0.0,0.0,0.0,0.0,-0.06475171524898962
1666091811492550432,0.18551029212540016,0.0,0.0,0.0,0.0,-0.06911503837897545
1666091811536114302,0.20470101200044158,0.0,0.0,0.0,0.0,-0.0853466004225227
1666091811536132252,0.21323022083379328,0.0,0.0,0.0,0.0,-0.07976154681614087
1666091811580452837,0.21536252304213124,0.0,0.0,0.0,0.0,-0.06667157742618339
1666091811580516679,0.21109791862545538,0.0,0.0,0.0,0.0,-0.06702064327658225
1666091811624372544,0.20896561641711744,0.0,0.0,0.0,0.0,-0.07801621756414652
1666091811624435489,0.22389173187548297,0.0,0.0,0.0,0.0,-0.0747000919853573
1666091811624451634,0.23668554512551054,0.0,0.0,0.0,0.0,-0.07190756518216637
1666091811668147838,0.2409501495421864,0.0,0.0,0.0,0.0,-0.06946410422937431
1666091811668167803,0.2388178473338485,0.0,0.0,0.0,0.0,-0.0804596785169386
1666091811681940418,0.23455324291717264,0.0,0.0,0.0,0.0,-0.08656833089891874
1666091811702183336,0.253743962792214,0.0,0.0,0.0,0.0,-0.08639379797371932
1666091811744143267,0.25587626500055194,0.0,0.0,0.0,0.0,-0.06946410422937431
1666091811744163982,0.26440547383390367,0.0,0.0,0.0,0.0,-0.05201081170943102
1666091811788319062,0.2622731716255658,0.0,0.0,0.0,0.0,-0.049567350756638956
1666091811788406832,0.2601408694172278,0.0,0.0,0.0,0.0,-0.06562437987498679
1666091811832188532,0.2793315892922692,0.0,0.0,0.0,0.0,-0.07539822368615504
1666091811832203436,0.28572849591728305,0.0,0.0,0.0,0.0,-0.06667157742618339
1666091811876456267,0.28999310033395886,0.0,0.0,0.0,0.0,-0.06318091892219473
1666091811876514372,0.2921254025422968,0.0,0.0,0.0,0.0,-0.06824237375297829
1666091811924074392,0.2921254025422968,0.0,0.0,0.0,0.0,-0.07696902001294993
1666091811924084745,0.30278691358398646,0.0,0.0,0.0,0.0,-0.07312929565856242
1666091811924093160,0.30918382020900026,0.0,0.0,0.0,0.0,-0.05550147021341968
1666091811968057277,0.3155807268340141,0.0,0.0,0.0,0.0,-0.05445427266222308
1666091811968070600,0.32197763345902786,0.0,0.0,0.0,0.0,-0.06527531402458793
1666091811982034249,0.3134484246256761,0.0,0.0,0.0,0.0,-0.06911503837897545
1666091812002092698,0.3262422378757037,0.0,0.0,0.0,0.0,-0.05462880558742251
1666091812044132790,0.3390360511257314,0.0,0.0,0.0,0.0,-0.05742133239061344
1666091812092347982,0.34756525995908305,0.0,0.0,0.0,0.0,-0.0757472895365539
1666091812092387137,0.34116835333406925,0.0,0.0,0.0,0.0,-0.08325220532012952
1666091812092427161,0.34969756216742104,0.0,0.0,0.0,0.0,-0.08482300164692441
1666091812136164621,0.3560944687924348,0.0,0.0,0.0,0.0,-0.09058258817850572
1666091812136188045,0.36035907320911065,0.0,0.0,0.0,0.0,-0.09808750396208131
1666091812143232112,0.36888828204246243,0.0,0.0,0.0,0.0,-0.08970992355250852
1666091812162985038,0.3752851886674762,0.0,0.0,0.0,0.0,-0.07452555906015787
1666091812208242484,0.36675597983412445,0.0,0.0,0.0,0.0,-0.06370451769779302
1666091812208267551,0.38168209529249003,0.0,0.0,0.0,0.0,-0.060388392119003806
1666091812252146272,0.3902113041258417,0.0,0.0,0.0,0.0,-0.053930673886624786
1666091812252169961,0.4008728151675314,0.0,0.0,0.0,0.0,-0.04590215932745086
1666091812296129832,0.39874051295919344,0.0,0.0,0.0,0.0,-0.04084070449666731
1666091812296149750,0.40513741958420724,0.0,0.0,0.0,0.0,-0.03717551306747922
1666091812344216320,0.4072697217925452,0.0,0.0,0.0,0.0,-0.03700098014227979
1666091812344229056,0.41579893062589696,0.0,0.0,0.0,0.0,-0.02583087292951608
1666091812344328897,0.4307250460842625,0.0,0.0,0.0,0.0,-0.02600540585471551
1666091812388219048,0.42006353504257277,0.0,0.0,0.0,0.0,-0.0317649923862968
1666091812388289785,0.4179312328342349,0.0,0.0,0.0,0.0,-0.02897246558310587
1666091812403087555,0.4349896505009383,0.0,0.0,0.0,0.0,-0.022165681500327987
1666091812423104457,0.445651161542628,0.0,0.0,0.0,0.0,-0.006806784082777885
1666091812468643245,0.4563126725843177,0.0,0.0,0.0,0.0,-0.009599310885968814
