%time,field.linear.x,field.linear.y,field.linear.z,field.angular.x,field.angular.y,field.angular.z
1666091802966628039,0.36770874261856074,0.0,0.0,0.0,0.0,-1.2217304763960313
1666091803073345467,0.21765708923339838,0.0,0.0,0.0,0.0,-1.2217304763960313
1666091803160874436,0.3746679425239563,0.0,0.0,0.0,0.0,-1.3962634015954642
1666091803295192230,0.38939937949180603,0.0,0.0,0.0,0.0,-1.2217304763960313
1666091803325876105,0.39235889911651606,0.0,0.0,0.0,0.0,-1.3962634015954642
1666091803372256139,0.3960441052913665,0.0,0.0,0.0,0.0,-1.3962634015954642
1666091803413584216,0.3959730267524719,0.0,0.0,0.0,0.0,-1.3962634015954642
1666091803543337749,0.39471566677093506,0.0,0.0,0.0,0.0,-1.2217304763960313
1666091803609169596,0.388818472623825,0.0,0.0,0.0,0.0,-1.2217304763960313
1666091803708420738,0.38712805509567255,0.0,0.0,0.0,0.0,-1.2217304763960313
1666091803851026025,0.38646283745765686,0.0,0.0,0.0,0.0,-1.2217304763960313
1666091803901531230,0.38818401098251337,0.0,0.0,0.0,0.0,-1.2217304763960313
1666091803966872393,0.38495007157325745,0.0,0.0,0.0,0.0,-1.2217304763960313
1666091804146271526,0.3840087950229645,0.0,0.0,0.0,0.0,-1.0471975511965983
1666091804283257615,0.37789884209632874,0.0,0.0,0.0,0.0,-1.0471975511965983
1666091804312058463,0.23897318542003626,0.0,0.0,0.0,0.0,-0.8726646259971653
1666091804376669433,0.0,0.0,0.0,0.0,0.0,-0.7945429272785599
1666091804487186534,0.0,0.0,0.0,0.0,0.0,-0.7495138573496368
1666091804541280185,0.0,0.0,0.0,0.0,0.0,-0.7001650973440106
1666091804653538762,0.0,0.0,0.0,0.0,0.0,-0.6564731203920577
1666091804745129348,0.0,0.0,0.0,0.0,0.0,-0.6050259277876545
1666091804829048429,0.0,0.0,0.0,0.0,0.0,-0.5451676198502176
1666091804971765733,0.0,0.0,0.0,0.0,0.0,-0.49395338772494213
1666091805045621709,0.0,0.0,0.0,0.0,0.0,-0.4335719017255882
1666091805138081265,0.0,0.0,0.0,0.0,0.0,-0.3871737512557655
1666091805185284597,0.0,0.0,0.0,0.0,0.0,-0.30364279991493487
1666091805286949000,0.0,0.0,0.0,0.0,0.0,-0.27861992198873753
1666091805301102124,0.0,0.0,0.0,0.0,0.0,-0.27542434899592017
1666091805397528614,0.0,0.0,0.0,0.0,0.0,-0.23274001033294942
1666091805456679612,0.0,0.0,0.0,0.0,0.0,-0.17453292519943345
1666091805519981382,0.0,0.0,0.0,0.0,0.0,-0.17453292519943345
1666091805681288740,0.0,0.0,0.0,0.0,0.0,-0.17453292519943345
1666091805751070168,0.0,0.0,0.0,0.0,0.0,-0.17453292519943345
1666091805769251545,0.0,0.0,0.0,0.0,0.0,-0.17453292519943345
1666091805905409096,0.0,0.0,0.0,0.0,0.0,-0.17453292519943345
1666091805942150532,0.0,0.0,0.0,0.0,0.0,-0.17453292519943345
1666091806033971990,0.0,0.0,0.0,0.0,0.0,-0.22154998840629686
1666091806076976820,0.0,0.0,0.0,0.0,0.0,-0.231339614582531
1666091806180514359,0.0,0.0,0.0,0.0,0.0,-0.24844869700492375
1666091806241964825,0.0,0.0,0.0,0.0,0.0,-0.25826967209640816
1666091806362012474,0.0,0.0,0.0,0.0,0.0,-0.290006429247968
1666091806460181002,0.0,0.0,0.0,0.0,0.0,-0.3002141328659065
1666091806502526029,0.0,0.0,0.0,0.0,0.0,-0.2952052216035454
1666091806597049063,0.0,0.0,0.0,0.0,0.0,-0.3285775584697874
1666091806601737706,0.0,0.0,0.0,0.0,0.0,-0.32031407711531207
1666091806718403412,0.0,0.0,0.0,0.0,0.0,-0.3490658503988664
1666091806789137425,0.0,0.0,0.0,0.0,0.0,-0.3500514947826032
1666091806837947422,0.0,0.0,0.0,0.0,0.0,-0.3707183025678542
1666091806942416479,0.0,0.0,0.0,0.0,0.0,-0.4044273176284489
1666091806974687393,0.0,0.0,0.0,0.0,0.0,-0.3958574154628273
1666091807017809481,0.0,0.0,0.0,0.0,0.0,-0.42184639244856303
1666091807105976370,0.0,0.0,0.0,0.0,0.0,-0.4432651841211676
1666091807234325017,0.0,0.0,0.0,0.0,0.0,-0.4649408331698392
1666091807326965176,0.0,0.0,0.0,0.0,0.0,-0.4746775731516267
1666091807373860099,0.0,0.0,0.0,0.0,0.0,-0.4697353499647603
1666091807449062872,0.0,0.0,0.0,0.0,0.0,-0.48513266551389195
1666091807494316799,0.0,0.0,0.0,0.0,0.0,-0.49449967720528587
1666091807589960471,0.0,0.0,0.0,0.0,0.0,-0.5058684601305262
1666091807670503629,0.0,0.0,0.0,0.0,0.0,-0.5235987755982994
1666091807684450317,0.0,0.0,0.0,0.0,0.0,-0.5235987755982994
1666091807749271624,0.0,0.0,0.0,0.0,0.0,-0.5004241326470613
1666091807837424592,0.0,0.0,0.0,0.0,0.0,-0.49349436515913103
1666091807886012990,0.0,0.0,0.0,0.0,0.0,-0.48263291407664083
1666091807941954310,0.0,0.0,0.0,0.0,0.0,-0.47193635379143434
1666091808053479803,0.0,0.0,0.0,0.0,0.0,-0.4589683770754294
1666091808142735677,0.0,0.0,0.0,0.0,0.0,-0.4366932748493209
1666091808249829867,0.0,0.0,0.0,0.0,0.0,-0.3966136012801489
1666091808260797425,0.0,0.0,0.0,0.0,0.0,-0.3914503412827489
1666091808353211572,0.0,0.0,0.0,0.0,0.0,-0.36861674489274693
1666091808397520934,0.0,0.0,0.0,0.0,0.0,-0.3490658503988664
1666091808489105111,0.0,0.0,0.0,0.0,0.0,-0.3194068483711208
1666091808561128452,0.0,0.0,0.0,0.0,0.0,-0.29517538213524425
1666091808650743392,0.0,0.0,0.0,0.0,0.0,-0.2712986328836691
1666091808738357141,0.0,0.0,0.0,0.0,0.0,-0.24655153470556196
1666091808781636568,0.0,0.0,0.0,0.0,0.0,-0.22220373685326406
1666091808885556043,0.0,0.0,0.0,0.0,0.0,-0.17453292519943345
1666091808902229184,0.0,0.0,0.0,0.0,0.0,-0.17453292519943345
1666091808990947177,0.0,0.0,0.0,0.0,0.0,-0.17453292519943345
1666091809081421186,0.0,0.0,0.0,0.0,0.0,-0.17453292519943345
1666091809129058853,0.0,0.0,0.0,0.0,0.0,-0.17453292519943345
1666091809182505238,0.0,0.0,0.0,0.0,0.0,-0.17453292519943345
1666091809296570601,0.0,0.0,0.0,0.0,0.0,-0.17453292519943345
1666091809395086101,0.0,0.0,0.0,0.0,0.0,-0.17453292519943345
1666091809422388993,0.0,0.0,0.0,0.0,0.0,-0.17453292519943345
1666091809514209524,0.0,0.0,0.0,0.0,0.0,-0.17453292519943345
1666091809557811137,0.0,0.0,0.0,0.0,0.0,-0.17453292519943345
1666091809646468822,0.0,0.0,0.0,0.0,0.0,-0.17453292519943345
1666091809689537547,0.0,0.0,0.0,0.0,0.0,-0.21769100156946036
1666091809814358845,0.0,0.0,0.0,0.0,0.0,-0.24190632906242684
1666091809861829829,0.0,0.0,0.0,0.0,0.0,-0.2370821512274035
1666091809953261982,0.0,0.0,0.0,0.0,0.0,-0.26344260590229557
1666091810006171010,0.0,0.0,0.0,0.0,0.0,-0.2663468074490151
1666091810030986459,0.0,0.0,0.0,0.0,0.0,-0.26465111538510516
1666091810170663337,0.0,0.0,0.0,0.0,0.0,-0.2796803587746837
1666091810243694958,0.0,0.0,0.0,0.0,0.0,-0.28255430197222353
1666091810377466754,0.0,0.0,0.0,0.0,0.0,-0.2953462041516844
1666091810474991596,0.0,0.0,0.0,0.0,0.0,-0.2949190694325377
1666091810529162339,0.0,0.0,0.0,0.0,0.0,-0.28860366444978097
1666091810546194097,0.0,0.0,0.0,0.0,0.0,-0.28678756957136187
1666091810682760324,0.42606499791145325,0.0,0.0,0.0,0.0,-0.1202043816447258
1666091810709905197,0.3907761871814728,0.0,0.0,0.0,0.0,-0.001044958597049117
1666091810767416469,0.3908472657203674,0.0,0.0,0.0,0.0,-0.0008285376825369895
1666091810848369107,0.44963473081588745,0.0,0.0,0.0,0.0,-0.11998254805803299
1666091810938335659,0.4786303639411926,0.0,0.0,0.0,0.0,-0.119477279484272
1666091810964502522,0.496825248003006,0.0,0.0,0.0,0.0,-0.11831886321306229
1666091811065805410,0.47762471437454224,0.0,0.0,0.0,0.0,-0.005744714755564928
1666091811112980703,0.5290204882621765,0.0,0.0,0.0,0.0,-0.11531983315944672
1666091811153401407,0.5504049062728882,0.0,0.0,0.0,0.0,-0.11347309499979019
1666091811193048660,0.5501205921173096,0.0,0.0,0.0,0.0,-0.11397574841976166
1666091811288307159,0.5710197687149048,0.0,0.0,0.0,0.0,-0.11217194050550461
1666091811326821438,0.5889228582382202,0.0,0.0,0.0,0.0,-0.11037696152925491
1666091811454562514,0.6034336686134338,0.0,0.0,0.0,0.0,-0.1095535010099411
1666091811586704362,0.6011573076248169,0.0,0.0,0.0,0.0,-0.008311978541314602
1666091811621776371,0.634598433971405,0.0,0.0,0.0,0.0,-0.10981711745262146
1666091811752141383,0.6407802104949951,0.0,0.0,0.0,0.0,-0.11060459166765213
1666091811791259339,0.6398561596870422,0.0,0.0,0.0,0.0,-0.11020665615797043
1666091811883851553,0.648354709148407,0.0,0.0,0.0,0.0,-0.1136566773056984
1666091811972512218,0.6202839612960815,0.0,0.0,0.0,0.0,-0.015629831701517105
1666091811985843508,0.6192888617515564,0.0,0.0,0.0,0.0,-0.01557049062103033
1666091812095604937,0.6171514391899109,0.0,0.0,0.0,0.0,-0.17453292519943345
1666091812151438867,0.6400340199470519,0.0,0.0,0.0,0.0,-0.17453292519943345
1666091812302282368,0.6345502734184265,0.0,0.0,0.0,0.0,-0.17453292519943345
1666091812392443076,0.6294428706169128,0.0,0.0,0.0,0.0,-0.17453292519943345
1666091812473141672,0.6220960021018982,0.0,0.0,0.0,0.0,-0.17453292519943345
1666091812515886315,0.6088364720344543,0.0,0.0,0.0,0.0,-0.17453292519943345
1666091812563651636,0.6084811091423035,0.0,0.0,0.0,0.0,-0.17453292519943345
1666091812655050850,0.5626136064529418,0.0,0.0,0.0,0.0,-0.17453292519943345
1666091812731739724,0.5458831787109375,0.0,0.0,0.0,0.0,-0.17453292519943345
1666091812817415633,0.5610669851303101,0.0,0.0,0.0,0.0,-0.17453292519943345
1666091812907219125,0.5400676727294922,0.0,0.0,0.0,0.0,-0.17453292519943345
1666091813029992881,0.4966944754123688,0.0,0.0,0.0,0.0,-0.11725212633609772
1666091813100820340,0.47714963555336,0.0,0.0,0.0,0.0,-0.11741712689399719
1666091813124076491,0.4782868921756744,0.0,0.0,0.0,0.0,-0.11749042570590973
1666091813207827497,0.4595824182033539,0.0,0.0,0.0,0.0,-0.11743887513875961
1666091813295221287,0.4509702622890472,0.0,0.0,0.0,0.0,-0.11862365901470184
1666091813412093684,0.39355462789535517,0.0,0.0,0.0,0.0,-0.003756955498829484
1666091813454587082,0.39049303531646723,0.0,0.0,0.0,0.0,-0.00619515310972929
1666091813503227953,0.39084842801094055,0.0,0.0,0.0,0.0,-0.006313835736364126
1666091813549202320,0.38474395871162415,0.0,0.0,0.0,0.0,-0.007398420013487339
1666091813641100059,0.4278743863105774,0.0,0.0,0.0,0.0,-0.1258850395679474
1666091813709899538,0.41914698481559753,0.0,0.0,0.0,0.0,-0.12722213566303253
1666091813847276315,0.408597856760025,0.0,0.0,0.0,0.0,-0.13050715625286102
1666091813966175509,0.0,0.0,0.0,0.0,0.0,-0.3751374961360906
1666091814012794346,0.0,0.0,0.0,0.0,0.0,-0.36731906172577816
1666091814065925100,0.0,0.0,0.0,0.0,0.0,-0.3811806169235078
1666091814169376008,0.0,0.0,0.0,0.0,0.0,-0.397526800507085
1666091814265242975,0.0,0.0,0.0,0.0,0.0,-0.4098019347876711
1666091814357207075,0.0,0.0,0.0,0.0,0.0,-0.4155501573750529
1666091814449339355,0.0,0.0,0.0,0.0,0.0,-0.41872803360039973
1666091814473971269,0.0,0.0,0.0,0.0,0.0,-0.4150085846653577
1666091814566582404,0.0,0.0,0.0,0.0,0.0,-0.3948794570753135
1666091814628928996,0.0,0.0,0.0,0.0,0.0,-0.37601758593473156
1666091814692819050,0.0,0.0,0.0,0.0,0.0,-0.36931891866896954
1666091814781567045,0.0,0.0,0.0,0.0,0.0,-0.3519671281840765
1666091814827599395,0.42296525835990906,0.0,0.0,0.0,0.0,-0.12791049480438232
1666091814929434421,0.45264875888824463,0.0,0.0,0.0,0.0,-0.11581966280937195
1666091814990936049,0.4520801603794098,0.0,0.0,0.0,0.0,-0.11514247208833694
1666091815037667631,0.46351206302642817,0.0,0.0,0.0,0.0,-0.11092856526374817
1666091815112017527,0.47836148738861084,0.0,0.0,0.0,0.0,-0.10549470782279968
1666091815202359542,0.502006471157074,0.0,0.0,0.0,0.0,-0.09917647391557693
1666091815306141348,0.5314382910728455,0.0,0.0,0.0,0.0,0.028494516387581825
1666091815416407048,0.5776007175445557,0.0,0.0,0.0,0.0,-4.996003610813204e-16
1666091815505265079,0.6035482287406921,0.0,0.0,0.0,0.0,0.17453292519943245
1666091815548019472,0.6290968060493469,0.0,0.0,0.0,0.0,0.17453292519943245
1666091815592422158,0.647078812122345,0.0,0.0,0.0,0.0,0.17453292519943245
1666091815650717890,0.6611294150352477,0.0,0.0,0.0,0.0,0.17453292519943245
1666091815802924981,0.6744892597198486,0.0,0.0,0.0,0.0,0.3490658503988654
1666091815894604142,0.6830947399139404,0.0,0.0,0.0,0.0,0.3490658503988654
1666091815949026998,0.6816689968109131,0.0,0.0,0.0,0.0,0.3490658503988654
1666091816058332004,0.6752258539199829,0.0,0.0,0.0,0.0,0.5235987755982984
1666091816143897211,0.6689642071723937,0.0,0.0,0.0,0.0,0.5235987755982984
1666091816234390754,0.6632053256034851,0.0,0.0,0.0,0.0,0.5235987755982984
1666091816271385345,0.6654685139656066,0.0,0.0,0.0,0.0,0.5235987755982984
1666091816292852997,0.6644023656845093,0.0,0.0,0.0,0.0,0.5235987755982984
1666091816394865512,0.6955108642578125,0.0,0.0,0.0,0.0,0.5235987755982984
1666091816501333736,0.6927362680435181,0.0,0.0,0.0,0.0,0.5235987755982984
1666091816532451769,0.629492998123169,0.0,0.0,0.0,0.0,0.5235987755982984
1666091816621035431,0.6143767237663268,0.0,0.0,0.0,0.0,0.5235987755982984
1666091816694670355,0.597873866558075,0.0,0.0,0.0,0.0,0.5235987755982984
1666091816786621450,0.5786407589912413,0.0,0.0,0.0,0.0,0.5235987755982984
1666091816826440369,0.5606406927108765,0.0,0.0,0.0,0.0,0.5235987755982984
1666091816872157290,0.5441293120384216,0.0,0.0,0.0,0.0,0.6981317007977313
1666091816955838248,0.588763415813446,0.0,0.0,0.0,0.0,0.6981317007977313
1666091817043180081,0.5691608786582947,0.0,0.0,0.0,0.0,0.6981317007977313
1666091817134154313,0.5531342029571533,0.0,0.0,0.0,0.0,0.6981317007977313
1666091817208493633,0.4596635699272156,0.0,0.0,0.0,0.0,0.6981317007977313
1666091817296713120,0.4343476593494415,0.0,0.0,0.0,0.0,0.6981317007977313
1666091817385918320,0.4131669104099273,0.0,0.0,0.0,0.0,0.6981317007977313
1666091817474215952,0.40616127848625183,0.0,0.0,0.0,0.0,0.6981317007977313
1666091817528990288,0.3965367972850799,0.0,0.0,0.0,0.0,0.6981317007977313
1666091817640410992,0.3903945982456207,0.0,0.0,0.0,0.0,0.6981317007977313
1666091817734136086,0.38353526592254633,0.0,0.0,0.0,0.0,0.6981317007977313
1666091817830045557,0.3797010481357574,0.0,0.0,0.0,0.0,0.6981317007977313
1666091817852153311,0.37586352229118347,0.0,0.0,0.0,0.0,0.6981317007977313
1666091817914475743,0.3685632646083832,0.0,0.0,0.0,0.0,0.6981317007977313
1666091818031155919,0.35504084825515747,0.0,0.0,0.0,0.0,0.6981317007977313
1666091818107680378,0.3458021879196167,0.0,0.0,0.0,0.0,0.6981317007977313
1666091818198849615,0.4261117577552795,0.0,0.0,0.0,0.0,0.6981317007977313
1666091818288858282,0.32490918040275574,0.0,0.0,0.0,0.0,0.6981317007977313
1666091818388966349,0.3160761296749115,0.0,0.0,0.0,0.0,0.6981317007977313
1666091818461232166,0.31805673241615295,0.0,0.0,0.0,0.0,0.6981317007977313
1666091818500720461,0.31834107637405396,0.0,0.0,0.0,0.0,0.6981317007977313
1666091818632875147,0.3095661699771881,0.0,0.0,0.0,0.0,0.6981317007977313
1666091818674093351,0.30963724851608276,0.0,0.0,0.0,0.0,0.6981317007977313
1666091818749506864,0.0,0.0,0.0,0.0,0.0,0.563220973267552
1666091818792913762,0.0,0.0,0.0,0.0,0.0,0.5536486276670194
1666091818880658096,0.0,0.0,0.0,0.0,0.0,0.5660385817596377
1666091819013580362,0.0,0.0,0.0,0.0,0.0,0.5749350554569606
1666091819088908826,0.0,0.0,0.0,0.0,0.0,0.5697991365305891
1666091819224829926,0.0,0.0,0.0,0.0,0.0,0.5928813704149318
1666091819314947507,0.0,0.0,0.0,0.0,0.0,0.586883546968306
1666091819348984057,0.0,0.0,0.0,0.0,0.0,0.5778372385026288
1666091819436911126,0.0,0.0,0.0,0.0,0.0,0.5964485294830555
1666091819525172668,0.0,0.0,0.0,0.0,0.0,0.5894027810177777
1666091819628693326,0.0,0.0,0.0,0.0,0.0,0.5847530773855601
1666091819689246618,0.0,0.0,0.0,0.0,0.0,0.5663579447943665
1666091819826244486,0.0,0.0,0.0,0.0,0.0,0.5610126844763599
1666091819869157272,0.0,0.0,0.0,0.0,0.0,0.5367863630302948
1666091819993205711,0.33187803626060486,0.0,0.0,0.0,0.0,0.5235987755982984
1666091820132788470,0.35533711314201355,0.0,0.0,0.0,0.0,0.5235987755982984
1666091820175967786,0.4462749660015106,0.0,0.0,0.0,0.0,0.5235987755982984
1666091820250259750,0.47835293412208557,0.0,0.0,0.0,0.0,0.5235987755982984
1666091820338899870,0.46033939719200134,0.0,0.0,0.0,0.0,0.3490658503988654
1666091820468852254,0.5161694288253784,0.0,0.0,0.0,0.0,0.17453292519943245
1666091820470797968,0.5556201338768005,0.0,0.0,0.0,0.0,0.17453292519943245
1666091820601516074,0.591356635093689,0.0,0.0,0.0,0.0,0.17453292519943245
1666091820634788090,0.5903615951538086,0.0,0.0,0.0,0.0,0.17453292519943245
1666091820727146706,0.650884211063385,0.0,0.0,0.0,0.0,0.17453292519943245
1666091820820034695,0.6814203262329102,0.0,0.0,0.0,0.0,-4.996003610813204e-16
1666091820858680742,0.680993914604187,0.0,0.0,0.0,0.0,-4.996003610813204e-16
1666091820937320144,0.7093802094459534,0.0,0.0,0.0,0.0,-4.996003610813204e-16
1666091821021966432,0.7531711459159851,0.0,0.0,0.0,0.0,-4.996003610813204e-16
1666091821068419108,0.7527446746826172,0.0,0.0,0.0,0.0,-4.996003610813204e-16
1666091821118886497,0.7650444507598877,0.0,0.0,0.0,0.0,-0.04834134131669998
1666091821191907974,0.7776707410812378,0.0,0.0,0.0,0.0,-0.05610550194978714
1666091821318878725,0.7841381430625916,0.0,0.0,0.0,0.0,-0.06419944018125534
1666091821366415744,0.7933051586151123,0.0,0.0,0.0,0.0,-0.17453292519943345
1666091821452954800,0.7999999999999999,0.0,0.0,0.0,0.0,-0.17453292519943345
1666091821496954518,0.7865288853645325,0.0,0.0,0.0,0.0,-0.17453292519943345
1666091821571401571,0.7999999999999999,0.0,0.0,0.0,0.0,-0.17453292519943345
1666091821709528747,0.7935069799423218,0.0,0.0,0.0,0.0,-0.17453292519943345
1666091821755495798,0.7969641089439392,0.0,0.0,0.0,0.0,-0.17453292519943345
1666091821834204826,0.7822045683860779,0.0,0.0,0.0,0.0,-0.17453292519943345
1666091821915760909,0.764734387397766,0.0,0.0,0.0,0.0,-0.17453292519943345
1666091821959853520,0.768562376499176,0.0,0.0,0.0,0.0,-0.17453292519943345
1666091822047724956,0.7660785913467407,0.0,0.0,0.0,0.0,-0.17453292519943345
1666091822091247247,0.7379816770553589,0.0,0.0,0.0,0.0,-0.17453292519943345
1666091822181660838,0.7315008044242859,0.0,0.0,0.0,0.0,-0.17453292519943345
1666091822211407401,0.7024133801460266,0.0,0.0,0.0,0.0,-0.17453292519943345
1666091822295590915,0.6894480586051941,0.0,0.0,0.0,0.0,-0.17453292519943345
1666091822383497769,0.6434527039527893,0.0,0.0,0.0,0.0,-0.17453292519943345
1666091822470999680,0.6545756459236145,0.0,0.0,0.0,0.0,-0.17453292519943345
1666091822517321853,0.6482594609260559,0.0,0.0,0.0,0.0,-0.17453292519943345
1666091822599941313,0.6339708566665649,0.0,0.0,0.0,0.0,-0.17453292519943345
1666091822641292657,0.6244556307792664,0.0,0.0,0.0,0.0,-0.3490658503988664
1666091822730999233,0.6119459271430968,0.0,0.0,0.0,0.0,-0.3490658503988664
1666091822772075301,0.5958796739578247,0.0,0.0,0.0,0.0,-0.3490658503988664
1666091822852775613,0.570539653301239,0.0,0.0,0.0,0.0,-0.3490658503988664
1666091822940694380,0.5469061136245728,0.0,0.0,0.0,0.0,-0.3490658503988664
1666091823027263113,0.49594080448150635,0.0,0.0,0.0,0.0,-0.11588094383478165
1666091823076946019,0.49594080448150635,0.0,0.0,0.0,0.0,-0.11565404385328293
1666091823115773825,0.4738468825817108,0.0,0.0,0.0,0.0,-0.11503210663795471
1666091823173156727,0.4079899787902832,0.0,0.0,0.0,0.0,0.0024077401030808687
1666091823239611812,0.42593798041343683,0.0,0.0,0.0,0.0,-0.1128399446606636
1666091823366443741,0.0,0.0,0.0,0.0,0.0,-0.27103158481545836
1666091823468724367,0.0,0.0,0.0,0.0,0.0,-0.271911086627104
1666091823535678437,0.0,0.0,0.0,0.0,0.0,-0.2755133888275995
1666091823625410415,0.0,0.0,0.0,0.0,0.0,-0.25409905391720683
1666091823736224576,0.0,0.0,0.0,0.0,0.0,-0.2733131892546357
1666091823748018556,0.0,0.0,0.0,0.0,0.0,-0.26413658208260915
1666091823836429151,0.0,0.0,0.0,0.0,0.0,-0.2796464590448796
1666091823900126089,0.0,0.0,0.0,0.0,0.0,-0.28887100565532364
1666091823958038012,0.0,0.0,0.0,0.0,0.0,-0.29546074738800865
1666091824044972960,0.0,0.0,0.0,0.0,0.0,-0.30115334202637084
1666091824133418210,0.0,0.0,0.0,0.0,0.0,-0.30512939066590977
1666091824177539125,0.0,0.0,0.0,0.0,0.0,-0.3059511102856244
1666091824196446367,0.0,0.0,0.0,0.0,0.0,-0.3067281076964705
1666091824297873144,0.0,0.0,0.0,0.0,0.0,-0.3154926279601617
1666091824342357202,0.0,0.0,0.0,0.0,0.0,-0.30993766738438217
1666091824440538860,0.4264015555381775,0.0,0.0,0.0,0.0,-0.1238543912768364
1666091824536386924,0.4979014098644256,0.0,0.0,0.0,0.0,-0.12618234753608704
1666091824560968684,0.4974749684333801,0.0,0.0,0.0,0.0,-0.12605318427085876
1666091824653692678,0.5164000988006592,0.0,0.0,0.0,0.0,-0.13023096323013306
1666091824735278426,0.5611292123794556,0.0,0.0,0.0,0.0,-0.13705234229564667
1666091824751874046,0.5610581040382385,0.0,0.0,0.0,0.0,-0.13691271841526031
1666091824814738286,0.5854759812355042,0.0,0.0,0.0,0.0,-0.13943737745285034
1666091824902427048,0.6089019775390625,0.0,0.0,0.0,0.0,-0.14061962068080902
1666091825036197974,0.6430342197418213,0.0,0.0,0.0,0.0,-0.1414930820465088
1666091825048194329,0.6613132953643798,0.0,0.0,0.0,0.0,-0.13916468620300293
1666091825203685976,0.6779049634933471,0.0,0.0,0.0,0.0,-0.13634738326072693
1666091825251471491,0.6935511827468871,0.0,0.0,0.0,0.0,-0.1359958052635193
1666091825403734245,0.7200043201446533,0.0,0.0,0.0,0.0,-0.13384254276752472
1666091825418310123,0.7191513776779175,0.0,0.0,0.0,0.0,-0.13391584157943726
1666091825550410664,0.7316244840621947,0.0,0.0,0.0,0.0,-0.13241145014762878
1666091825645808071,0.7395085692405701,0.0,0.0,0.0,0.0,-0.1316850334405899
1666091825677071885,0.7450739741325377,0.0,0.0,0.0,0.0,-0.13102203607559204
1666091825765200526,0.7260247468948364,0.0,0.0,0.0,0.0,-0.040391646325588226
1666091825851496224,0.7700280547142029,0.0,0.0,0.0,0.0,-0.1333455890417099
1666091826016730879,0.782692551612854,0.0,0.0,0.0,0.0,-0.1366892009973526
1666091826069812285,0.7814494371414185,0.0,0.0,0.0,0.0,-0.13937243819236755
1666091826107780774,0.7808808088302612,0.0,0.0,0.0,0.0,-0.13958188891410828
1666091826196298343,0.7580718398094177,0.0,0.0,0.0,0.0,-0.17453292519943345
1666091826271964641,0.7496430277824402,0.0,0.0,0.0,0.0,-0.17453292519943345
1666091826457593075,0.7635509967803955,0.0,0.0,0.0,0.0,-0.3490658503988664
1666091826501176206,0.7441728115081787,0.0,0.0,0.0,0.0,-0.3490658503988664
1666091826515110412,0.7430355548858643,0.0,0.0,0.0,0.0,-0.3490658503988664
1666091826618812672,0.7206865549087524,0.0,0.0,0.0,0.0,-0.3490658503988664
1666091826706401972,0.6765987873077393,0.0,0.0,0.0,0.0,-0.3490658503988664
1666091826839449243,0.6327983736991881,0.0,0.0,0.0,0.0,-0.3490658503988664
1666091826872894394,0.5602534413337708,0.0,0.0,0.0,0.0,-0.17453292519943345
1666091826965708676,0.574344515800476,0.0,0.0,0.0,0.0,-0.17950712144374847
1666091827054564412,0.5354786515235901,0.0,0.0,0.0,0.0,-0.17878662049770355
1666091827132777506,0.5074642896652222,0.0,0.0,0.0,0.0,-0.17878691852092743
1666091827264053956,0.4720784127712249,0.0,0.0,0.0,0.0,-0.1770542412996292
1666091827352049908,0.4378204047679901,0.0,0.0,0.0,0.0,-0.17597100138664246
1666091827398480913,0.30483159422874445,0.0,0.0,0.0,0.0,-0.06467105448246002
1666091827516585074,0.0,0.0,0.0,0.0,0.0,-0.6846227330585392
1666091827620221419,0.0,0.0,0.0,0.0,0.0,-0.7119618746431652
1666091827648588217,0.0,0.0,0.0,0.0,0.0,-0.698302528651666
1666091827753766513,0.0,0.0,0.0,0.0,0.0,-0.7414179433473826
1666091827812584308,0.0,0.0,0.0,0.0,0.0,-0.7584824936726835
1666091827939541211,0.0,0.0,0.0,0.0,0.0,-0.8089496441574836
1666091827952512591,0.0,0.0,0.0,0.0,0.0,-0.7916221594360368
1666091828078134236,0.0,0.0,0.0,0.0,0.0,-0.8149239543942531
1666091828121418885,0.3902711272239685,0.0,0.0,0.0,0.0,-0.21262796223163605
1666091828179088096,0.2855241000652313,0.0,0.0,0.0,0.0,-0.11997392773628235
1666091828211474144,0.28488442301750183,0.0,0.0,0.0,0.0,-0.1199355348944664
1666091828314795492,0.43143934011459345,0.0,0.0,0.0,0.0,-0.22174760699272156
1666091828377752523,0.45629844069480896,0.0,0.0,0.0,0.0,-0.2226429134607315
1666091828466101331,0.4784614443778991,0.0,0.0,0.0,0.0,-0.22196027636528015
1666091828550418935,0.5081562399864197,0.0,0.0,0.0,0.0,-0.22308677434921265
1666091828597323040,0.5298441052436829,0.0,0.0,0.0,0.0,-0.21695519983768463
1666091828674645812,0.5473073720932007,0.0,0.0,0.0,0.0,-0.20844890177249908
1666091828804231518,0.5679701566696167,0.0,0.0,0.0,0.0,-0.201060950756073
1666091828895961347,0.611499547958374,0.0,0.0,0.0,0.0,-0.1832377314567566
1666091828950502274,0.6297618746757507,0.0,0.0,0.0,0.0,-0.17560625076293945
1666091828955515417,0.6292644143104552,0.0,0.0,0.0,0.0,-0.1749744415283203
1666091829017310676,0.5989795327186584,0.0,0.0,0.0,0.0,-0.06349748373031616
1666091829153561589,0.658234715461731,0.0,0.0,0.0,0.0,-0.14515037834644318
1666091829243854697,0.6674519181251526,0.0,0.0,0.0,0.0,-0.13374365866184235
1666091829364437947,0.666244626045227,0.0,0.0,0.0,0.0,-0.1173563301563263
1666091829409489360,0.6695374846458434,0.0,0.0,0.0,0.0,-0.10457413643598557
1666091829503003171,0.6758674383163452,0.0,0.0,0.0,0.0,-0.0805511474609375
1666091829514493295,0.6754409670829773,0.0,0.0,0.0,0.0,-0.07999963313341141
1666091829580466314,0.6666115522384644,0.0,0.0,0.0,0.0,0.028252603486180305
1666091829717913557,0.6706668138504027,0.0,0.0,0.0,0.0,-4.996003610813204e-16
1666091829778550582,0.6628574728965758,0.0,0.0,0.0,0.0,0.17453292519943245
1666091829794100856,0.6620756983757018,0.0,0.0,0.0,0.0,0.17453292519943245
1666091829881212100,0.6526127457618712,0.0,0.0,0.0,0.0,0.17453292519943245
1666091829923111290,0.6427109241485596,0.0,0.0,0.0,0.0,0.17453292519943245
1666091830055392162,0.6386716961860657,0.0,0.0,0.0,0.0,0.17453292519943245
1666091830098837338,0.1,0.0,0.0,0.0,0.0,0.17453292519943245
1666091830153484810,0.628210723400116,0.0,0.0,0.0,0.0,0.3490658503988654
1666091830219235166,0.6232182383537292,0.0,0.0,0.0,0.0,0.3490658503988654
1666091830307119203,0.6157048940658569,0.0,0.0,0.0,0.0,0.3490658503988654
1666091830352891944,0.6088971495628357,0.0,0.0,0.0,0.0,0.3490658503988654
1666091830439286720,0.5972165465354919,0.0,0.0,0.0,0.0,0.3490658503988654
1666091830522939075,0.5818024277687073,0.0,0.0,0.0,0.0,0.3490658503988654
1666091830614690742,0.5716959834098816,0.0,0.0,0.0,0.0,0.5235987755982984
1666091830660515302,0.1,0.0,0.0,0.0,0.0,0.17453292519943245
1666091830734912451,0.1,0.0,0.0,0.0,0.0,0.17453292519943245
1666091830826392388,0.1,0.0,0.0,0.0,0.0,0.6981317007977313
1666091830919133536,0.5081958174705505,0.0,0.0,0.0,0.0,0.17453292519943245
1666091830974446036,0.4918423891067505,0.0,0.0,0.0,0.0,0.17453292519943245
1666091830978424735,0.4931928515434265,0.0,0.0,0.0,0.0,0.17453292519943245
1666091831084008661,0.47400110960006714,0.0,0.0,0.0,0.0,0.17453292519943245
1666091831132452570,0.4843784868717193,0.0,0.0,0.0,0.0,0.17453292519943245
1666091831220039627,0.4599743485450744,0.0,0.0,0.0,0.0,0.17453292519943245
1666091831255937957,0.48181584477424616,0.0,0.0,0.0,0.0,0.17453292519943245
1666091831339235572,0.4721908569335937,0.0,0.0,0.0,0.0,0.17453292519943245
1666091831426870697,0.4833548963069916,0.0,0.0,0.0,0.0,0.17453292519943245
1666091831478163382,0.5133664608001709,0.0,0.0,0.0,0.0,0.08317635208368301
1666091831562993837,0.5092357993125916,0.0,0.0,0.0,0.0,0.17453292519943245
1666091831596431792,0.5174076557159424,0.0,0.0,0.0,0.0,0.17453292519943245
1666091831724524601,0.5218419432640076,0.0,0.0,0.0,0.0,0.17453292519943245
1666091831812311531,0.5282952189445496,0.0,0.0,0.0,0.0,0.17453292519943245
1666091831902922108,0.5291780829429626,0.0,0.0,0.0,0.0,0.17453292519943245
1666091831941070864,0.5305575728416443,0.0,0.0,0.0,0.0,0.17453292519943245
1666091832069395512,0.5465641021728516,0.0,0.0,0.0,0.0,0.17453292519943245
1666091832117041323,0.545853316783905,0.0,0.0,0.0,0.0,0.17453292519943245
1666091832201624727,0.5161007046699524,0.0,0.0,0.0,0.0,0.17453292519943245
1666091832268165488,0.5061681866645813,0.0,0.0,0.0,0.0,0.17453292519943245
1666091832364052208,0.4908365309238434,0.0,0.0,0.0,0.0,0.17453292519943245
1666091832450489387,0.46270808577537537,0.0,0.0,0.0,0.0,0.17453292519943245
1666091832496345439,0.4626370072364807,0.0,0.0,0.0,0.0,0.17453292519943245
1666091832583129897,0.4562675654888153,0.0,0.0,0.0,0.0,0.17453292519943245
1666091832662109574,0.4415725171566009,0.0,0.0,0.0,0.0,0.17453292519943245
1666091832746682367,0.4307060539722442,0.0,0.0,0.0,0.0,0.3490658503988654
1666091832796191702,0.41861239075660706,0.0,0.0,0.0,0.0,0.3490658503988654
1666091832840562386,0.40576428174972534,0.0,0.0,0.0,0.0,0.3490658503988654
1666091832964090606,0.38808810710906977,0.0,0.0,0.0,0.0,0.3490658503988654
1666091833105942028,0.37535187602043146,0.0,0.0,0.0,0.0,0.3490658503988654
1666091833190263677,0.34770822525024414,0.0,0.0,0.0,0.0,0.3490658503988654
1666091833239731304,0.0,0.0,0.0,0.0,0.0,0.33695572571684457
1666091833353316110,0.0,0.0,0.0,0.0,0.0,0.3702670697228907
1666091833453933207,0.0,0.0,0.0,0.0,0.0,0.3879140799002145
1666091833485254924,0.0,0.0,0.0,0.0,0.0,0.3798127053744605
1666091833627245723,0.0,0.0,0.0,0.0,0.0,0.42438783449143985
1666091833655972619,0.0,0.0,0.0,0.0,0.0,0.4184881326539485
1666091833698018053,0.0,0.0,0.0,0.0,0.0,0.42048892467900184
1666091833789058278,0.0,0.0,0.0,0.0,0.0,0.41674180303135516
1666091833885485396,0.36061286926269526,0.0,0.0,0.0,0.0,0.5235987755982984
1666091833959009991,0.38594192266464233,0.0,0.0,0.0,0.0,0.5235987755982984
1666091834046868000,0.4221795499324798,0.0,0.0,0.0,0.0,0.5235987755982984
1666091834111736026,0.4437214434146881,0.0,0.0,0.0,0.0,0.5235987755982984
1666091834227544053,0.458052784204483,0.0,0.0,0.0,0.0,0.5235987755982984
1666091834299347161,0.479677528142929,0.0,0.0,0.0,0.0,0.5235987755982984
1666091834390082413,0.4887082874774933,0.0,0.0,0.0,0.0,0.5235987755982984
1666091834519672319,0.5088828206062317,0.0,0.0,0.0,0.0,0.5235987755982984
1666091834576883685,0.5143531560897827,0.0,0.0,0.0,0.0,0.5235987755982984
1666091834690726657,0.5230891108512878,0.0,0.0,0.0,0.0,0.3490658503988654
1666091834740304231,0.5412254333496093,0.0,0.0,0.0,0.0,0.3490658503988654
1666091834827372560,0.5782922506332397,0.0,0.0,0.0,0.0,0.3490658503988654
1666091834838052639,0.5777947306632996,0.0,0.0,0.0,0.0,0.3490658503988654
1666091834898598836,0.6205170750617981,0.0,0.0,0.0,0.0,0.3490658503988654
1666091834988383437,0.6116325259208679,0.0,0.0,0.0,0.0,0.17453292519943245
1666091835121224276,0.6130508780479431,0.0,0.0,0.0,0.0,0.17453292519943245
1666091835198800214,0.6266071200370789,0.0,0.0,0.0,0.0,0.087244413793087
1666091835288773628,0.6211029291152953,0.0,0.0,0.0,0.0,0.07629868388175964
1666091835419015077,0.6145065426826477,0.0,0.0,0.0,0.0,-0.038735952228307724
1666091835466998254,0.6077296733856201,0.0,0.0,0.0,0.0,-0.05704426392912865
1666091835530864376,0.591790497303009,0.0,0.0,0.0,0.0,-0.17453292519943345
1666091835538517278,0.591008722782135,0.0,0.0,0.0,0.0,-0.17453292519943345
1666091835670758644,0.6136747598648071,0.0,0.0,0.0,0.0,-0.07271742075681686
1666091835762764716,0.6097141504287719,0.0,0.0,0.0,0.0,-0.17453292519943345
1666091835839359626,0.6096385717391968,0.0,0.0,0.0,0.0,-0.17453292519943345
1666091835881219037,0.619698166847229,0.0,0.0,0.0,0.0,-0.17453292519943345
1666091835970499424,0.6235545873641967,0.0,0.0,0.0,0.0,-0.17453292519943345
1666091836099612610,0.6227785348892211,0.0,0.0,0.0,0.0,-0.17453292519943345
1666091836146191450,0.6009365916252136,0.0,0.0,0.0,0.0,-0.17453292519943345
1666091836222857067,0.6136956810951233,0.0,0.0,0.0,0.0,-0.17453292519943345
1666091836315638351,0.605652928352356,0.0,0.0,0.0,0.0,-0.17453292519943345
1666091836404816846,0.5908227562904358,0.0,0.0,0.0,0.0,-0.17453292519943345
1666091836417678799,0.573523223400116,0.0,0.0,0.0,0.0,-0.17453292519943345
1666091836532007925,0.5542151927947998,0.0,0.0,0.0,0.0,-0.08021493256092072
1666091836629423598,0.5085573792457581,0.0,0.0,0.0,0.0,-0.07242459803819656
1666091836664212749,0.5099789500236511,0.0,0.0,0.0,0.0,-0.07235478609800339
1666091836743301964,0.4843751788139343,0.0,0.0,0.0,0.0,-0.06902064383029938
1666091836782487494,0.46060267090797424,0.0,0.0,0.0,0.0,-0.06555695086717606
1666091836876450260,0.43529099225997925,0.0,0.0,0.0,0.0,-4.996003610813204e-16
1666091836953159621,0.38509848713874817,0.0,0.0,0.0,0.0,-4.996003610813204e-16
1666091837009731577,0.0,0.0,0.0,0.0,0.0,-4.996003610813204e-16
1666091837015431607,0.0,0.0,0.0,0.0,0.0,-4.996003610813204e-16
1666091837129169976,0.0,0.0,0.0,0.0,0.0,-4.996003610813204e-16
1666091837173534218,0.0,0.0,0.0,0.0,0.0,-4.996003610813204e-16
1666091837218184624,0.0,0.0,0.0,0.0,0.0,-4.996003610813204e-16
1666091837276087261,0.0,0.0,0.0,0.0,0.0,-4.996003610813204e-16
1666091837388251981,0.0,0.0,0.0,0.0,0.0,-4.996003610813204e-16
1666091837480900052,0.0,0.0,0.0,0.0,0.0,-4.996003610813204e-16
1666091837537043175,0.0,0.0,0.0,0.0,0.0,-4.996003610813204e-16
1666091837691626138,0.0,0.0,0.0,0.0,0.0,-4.996003610813204e-16
1666091837776968126,0.0,0.0,0.0,0.0,0.0,-4.996003610813204e-16
1666091837824906323,0.0,0.0,0.0,0.0,0.0,-4.996003610813204e-16
1666091837947440903,0.0,0.0,0.0,0.0,0.0,-4.996003610813204e-16
1666091837994263064,0.0,0.0,0.0,0.0,0.0,-4.996003610813204e-16
1666091838111559940,0.0,0.0,0.0,0.0,0.0,-4.996003610813204e-16
1666091838115300511,0.0,0.0,0.0,0.0,0.0,-4.996003610813204e-16
1666091838202672490,0.0,0.0,0.0,0.0,0.0,-4.996003610813204e-16
1666091838279291894,0.0,0.0,0.0,0.0,0.0,-4.996003610813204e-16
1666091838372248043,0.4322727918624878,0.0,0.0,0.0,0.0,-4.996003610813204e-16
1666091838418274332,0.4322727918624878,0.0,0.0,0.0,0.0,-4.996003610813204e-16
1666091838459543101,0.45335811376571655,0.0,0.0,0.0,0.0,0.0640220195055008
1666091838545914269,0.4624142050743103,0.0,0.0,0.0,0.0,0.06423424184322357
1666091838628569909,0.46788790822029114,0.0,0.0,0.0,0.0,-4.996003610813204e-16
1666091838674972613,0.4747662246227264,0.0,0.0,0.0,0.0,-4.996003610813204e-16
1666091838772296710,0.4862450361251831,0.0,0.0,0.0,0.0,-4.996003610813204e-16
1666091838785347232,0.4907389283180236,0.0,0.0,0.0,0.0,-4.996003610813204e-16
1666091838884332832,0.4986830353736877,0.0,0.0,0.0,0.0,-4.996003610813204e-16
1666091838928996182,0.5005713701248169,0.0,0.0,0.0,0.0,-4.996003610813204e-16
1666091839045137746,0.502173662185669,0.0,0.0,0.0,0.0,-4.996003610813204e-16
1666091839131877126,0.5056488513946533,0.0,0.0,0.0,0.0,-4.996003610813204e-16
1666091839222188154,0.5015677809715271,0.0,0.0,0.0,0.0,-4.996003610813204e-16
1666091839341461686,0.5032632946968079,0.0,0.0,0.0,0.0,0.06421082466840744
1666091839384617873,0.49416801333427424,0.0,0.0,0.0,0.0,-4.996003610813204e-16
1666091839428523083,0.48601996898651123,0.0,0.0,0.0,0.0,-4.996003610813204e-16
1666091839519653407,0.47514680027961725,0.0,0.0,0.0,0.0,-4.996003610813204e-16
1666091839621532419,0.4481652081012725,0.0,0.0,0.0,0.0,-4.996003610813204e-16
1666091839640569845,0.4477387368679046,0.0,0.0,0.0,0.0,-4.996003610813204e-16
1666091839726317074,0.4321763217449188,0.0,0.0,0.0,0.0,-4.996003610813204e-16
1666091839818420878,0.4008634388446808,0.0,0.0,0.0,0.0,-4.996003610813204e-16
1666091839865262268,0.40001049637794495,0.0,0.0,0.0,0.0,-4.996003610813204e-16
1666091839917678129,0.0,0.0,0.0,0.0,0.0,-4.996003610813204e-16
1666091839980959969,0.0,0.0,0.0,0.0,0.0,-4.996003610813204e-16
1666091840027253270,0.0,0.0,0.0,0.0,0.0,-4.996003610813204e-16
1666091840114057913,0.0,0.0,0.0,0.0,0.0,-4.996003610813204e-16
1666091840157278770,0.0,0.0,0.0,0.0,0.0,-4.996003610813204e-16
1666091840251661559,0.0,0.0,0.0,0.0,0.0,-4.996003610813204e-16
1666091840322232749,0.0,0.0,0.0,0.0,0.0,-4.996003610813204e-16
1666091840409386187,0.0,0.0,0.0,0.0,0.0,-4.996003610813204e-16
1666091840514298749,0.0,0.0,0.0,0.0,0.0,-4.996003610813204e-16
1666091840545492622,0.0,0.0,0.0,0.0,0.0,-4.996003610813204e-16
1666091840621241906,0.0,0.0,0.0,0.0,0.0,-4.996003610813204e-16
1666091840754238496,0.0,0.0,0.0,0.0,0.0,-4.996003610813204e-16
1666091840845241689,0.0,0.0,0.0,0.0,0.0,-4.996003610813204e-16
1666091840922864606,0.0,0.0,0.0,0.0,0.0,-4.996003610813204e-16
1666091841015763090,0.0,0.0,0.0,0.0,0.0,-4.996003610813204e-16
1666091841049306662,0.0,0.0,0.0,0.0,0.0,-4.996003610813204e-16
1666091841138082402,0.0,0.0,0.0,0.0,0.0,-4.996003610813204e-16
1666091841243529700,0.0,0.0,0.0,0.0,0.0,-4.996003610813204e-16
1666091841259790977,0.0,0.0,0.0,0.0,0.0,-4.996003610813204e-16
1666091841393295435,0.0,0.0,0.0,0.0,0.0,-4.996003610813204e-16
1666091841444861086,0.0,0.0,0.0,0.0,0.0,-4.996003610813204e-16
1666091841481642401,0.0,0.0,0.0,0.0,0.0,-4.996003610813204e-16
1666091841604902465,0.0,0.0,0.0,0.0,0.0,-4.996003610813204e-16
1666091841752679347,0.0,0.0,0.0,0.0,0.0,-4.996003610813204e-16
1666091841785296184,0.0,0.0,0.0,0.0,0.0,-4.996003610813204e-16
1666091841860504282,0.0,0.0,0.0,0.0,0.0,-4.996003610813204e-16
1666091841906673395,0.0,0.0,0.0,0.0,0.0,-4.996003610813204e-16
1666091842036981603,0.0,0.0,0.0,0.0,0.0,-4.996003610813204e-16
1666091842081142992,0.0,0.0,0.0,0.0,0.0,-4.996003610813204e-16
1666091842167382416,0.0,0.0,0.0,0.0,0.0,-4.996003610813204e-16
1666091842201096299,0.0,0.0,0.0,0.0,0.0,-4.996003610813204e-16
1666091842333040169,0.0,0.0,0.0,0.0,0.0,-4.996003610813204e-16
1666091842384306688,0.0,0.0,0.0,0.0,0.0,-4.996003610813204e-16
1666091842386858283,0.0,0.0,0.0,0.0,0.0,-4.996003610813204e-16
1666091842439349490,0.0,0.0,0.0,0.0,0.0,-4.996003610813204e-16
1666091842549642001,0.0,0.0,0.0,0.0,0.0,-4.996003610813204e-16
1666091842633331042,0.0,0.0,0.0,0.0,0.0,-4.996003610813204e-16
1666091842766044557,0.0,0.0,0.0,0.0,0.0,-4.996003610813204e-16
1666091842811106405,0.0,0.0,0.0,0.0,0.0,-4.996003610813204e-16
1666091842844993034,0.0,0.0,0.0,0.0,0.0,-4.996003610813204e-16
1666091842977759231,0.0,0.0,0.0,0.0,0.0,-4.996003610813204e-16
1666091843073188440,0.0,0.0,0.0,0.0,0.0,-4.996003610813204e-16
1666091843149553940,0.0,0.0,0.0,0.0,0.0,-4.996003610813204e-16
1666091843257152279,0.0,0.0,0.0,0.0,0.0,-4.996003610813204e-16
1666091843277984533,0.0,0.0,0.0,0.0,0.0,-4.996003610813204e-16
1666091843363136485,0.0,0.0,0.0,0.0,0.0,-4.996003610813204e-16
1666091843379305549,0.0,0.0,0.0,0.0,0.0,-4.996003610813204e-16
1666091843487080874,0.0,0.0,0.0,0.0,0.0,-4.996003610813204e-16
1666091843617581899,0.0,0.0,0.0,0.0,0.0,-4.996003610813204e-16
1666091843661045079,0.0,0.0,0.0,0.0,0.0,-4.996003610813204e-16
1666091843740805165,0.0,0.0,0.0,0.0,0.0,-4.996003610813204e-16
1666091843781779372,0.0,0.0,0.0,0.0,0.0,-4.996003610813204e-16
1666091843917888253,0.0,0.0,0.0,0.0,0.0,-4.996003610813204e-16
1666091843961840196,0.0,0.0,0.0,0.0,0.0,-4.996003610813204e-16
1666091844040308855,0.0,0.0,0.0,0.0,0.0,-4.996003610813204e-16
1666091844108456816,0.0,0.0,0.0,0.0,0.0,-4.996003610813204e-16
1666091844125091624,0.0,0.0,0.0,0.0,0.0,-4.996003610813204e-16
1666091844257766160,0.0,0.0,0.0,0.0,0.0,-4.996003610813204e-16
1666091844345687382,0.0,0.0,0.0,0.0,0.0,-4.996003610813204e-16
1666091844424855868,0.0,0.0,0.0,0.0,0.0,-4.996003610813204e-16
1666091844466309424,0.0,0.0,0.0,0.0,0.0,-4.996003610813204e-16
1666091844553932391,0.0,0.0,0.0,0.0,0.0,-4.996003610813204e-16
1666091844685536567,0.0,0.0,0.0,0.0,0.0,-4.996003610813204e-16
1666091844765500954,0.0,0.0,0.0,0.0,0.0,-4.996003610813204e-16
1666091844859725093,0.0,0.0,0.0,0.0,0.0,-4.996003610813204e-16
1666091844930331686,0.39687758684158325,0.0,0.0,0.0,0.0,0.17453292519943245
1666091845025286156,0.39684811234474177,0.0,0.0,0.0,0.0,0.17453292519943245
1666091845165344678,0.3950265347957611,0.0,0.0,0.0,0.0,0.17453292519943245
1666091845208817498,0.0,0.0,0.0,0.0,0.0,-4.996003610813204e-16
1666091845282787808,0.0,0.0,0.0,0.0,0.0,-4.996003610813204e-16
1666091845371125365,0.0,0.0,0.0,0.0,0.0,-4.996003610813204e-16
1666091845504786649,0.0,0.0,0.0,0.0,0.0,-4.996003610813204e-16
1666091845545433272,0.0,0.0,0.0,0.0,0.0,-4.996003610813204e-16
1666091845622018186,0.0,0.0,0.0,0.0,0.0,-4.996003610813204e-16
1666091845726463852,0.0,0.0,0.0,0.0,0.0,-0.2693289842723194
1666091845742977292,0.0,0.0,0.0,0.0,0.0,-0.2623081349672988
1666091845826159949,0.0,0.0,0.0,0.0,0.0,-0.3172917785736705
1666091845914258338,0.0,0.0,0.0,0.0,0.0,-0.3638422900826791
1666091845959123787,0.0,0.0,0.0,0.0,0.0,-0.414820969375067
1666091846048920517,0.0,0.0,0.0,0.0,0.0,-0.4700079808827703
1666091846080685941,0.0,0.0,0.0,0.0,0.0,-0.48999650911107834
1666091846165820544,0.0,0.0,0.0,0.0,0.0,-0.5348326667488909
1666091846282035881,0.0,0.0,0.0,0.0,0.0,-0.6316953127550955
1666091846373295584,0.0,0.0,0.0,0.0,0.0,-0.6380926104839294
1666091846401193864,0.0,0.0,0.0,0.0,0.0,-0.6194095449059905
1666091846526597493,0.0,0.0,0.0,0.0,0.0,-0.6031133823479785
1666091846582869944,0.0,0.0,0.0,0.0,0.0,-0.5929400207393742
1666091846627913626,0.0,0.0,0.0,0.0,0.0,-0.5621479776493767
1666091846745100350,0.0,0.0,0.0,0.0,0.0,-0.5833848857933857
1666091846789733397,0.0,0.0,0.0,0.0,0.0,-0.5788608189387675
1666091846878351604,0.0,0.0,0.0,0.0,0.0,-0.6021377668181075
1666091846966925054,0.0,0.0,0.0,0.0,0.0,-0.6191493289010973
1666091847044043809,0.0,0.0,0.0,0.0,0.0,-0.43414809355882805
1666091847085606973,0.0,0.0,0.0,0.0,0.0,-0.4272270407786604
1666091847205090644,0.0,0.0,0.0,0.0,0.0,-0.17453292519943345
1666091847295062144,0.0,0.0,0.0,0.0,0.0,-4.996003610813204e-16
1666091847382402488,0.0,0.0,0.0,0.0,0.0,0.24311769704395705
1666091847478157976,0.0,0.0,0.0,0.0,0.0,0.4029728285557425
1666091847545583694,0.0,0.0,0.0,0.0,0.0,0.5235987755982984
1666091847682974732,0.0,0.0,0.0,0.0,0.0,0.6209178983242858
1666091847725875308,0.0,0.0,0.0,0.0,0.0,0.6740299185406632
1666091847781900985,0.0,0.0,0.0,0.0,0.0,0.7032221076983468
1666091847845212134,0.0,0.0,0.0,0.0,0.0,0.6635237965730593
1666091847935977522,0.0,0.0,0.0,0.0,0.0,0.7353537652851729
1666091848024061984,0.0,0.0,0.0,0.0,0.0,0.7713189139382745
1666091848109003100,0.0,0.0,0.0,0.0,0.0,0.7755509800126534
1666091848141026722,0.0,0.0,0.0,0.0,0.0,0.6620708488607931
1666091848230486738,0.0,0.0,0.0,0.0,0.0,0.5830891661467641
1666091848321079464,0.0,0.0,0.0,0.0,0.0,0.4521726287554442
1666091848366439508,0.0,0.0,0.0,0.0,0.0,0.3071198571958654
1666091848422651404,0.0,0.0,0.0,0.0,0.0,0.17453292519943245
1666091848489582791,0.0,0.0,0.0,0.0,0.0,-4.996003610813204e-16
1666091848603261116,0.0,0.0,0.0,0.0,0.0,-0.17453292519943345
1666091848664884214,0.0,0.0,0.0,0.0,0.0,-0.3069412728080947
1666091848714221584,0.0,0.0,0.0,0.0,0.0,-0.30575566064862214
1666091848829938024,0.0,0.0,0.0,0.0,0.0,-0.39221136802409556
1666091848922033429,0.0,0.0,0.0,0.0,0.0,-0.4895820420463227
1666091848965744932,0.0,0.0,0.0,0.0,0.0,-0.5383183179861742
1666091849085466625,0.0,0.0,0.0,0.0,0.0,-0.5943249774703507
1666091849168241399,0.0,0.0,0.0,0.0,0.0,-0.610796308525849
1666091849269754652,0.0,0.0,0.0,0.0,0.0,-0.5317983816203863
1666091849397426388,0.0,0.0,0.0,0.0,0.0,-0.43890172460390897
1666091849485770395,0.0,0.0,0.0,0.0,0.0,-0.17453292519943345
1666091849544125152,0.0,0.0,0.0,0.0,0.0,-4.996003610813204e-16
1666091849697183602,0.0,0.0,0.0,0.0,0.0,-4.996003610813204e-16
1666091849741972369,0.0,0.0,0.0,0.0,0.0,0.17453292519943245
1666091849877919661,0.0,0.0,0.0,0.0,0.0,0.4031631489085585
1666091849904767380,0.0,0.0,0.0,0.0,0.0,0.390397614473036
1666091850037316540,0.0,0.0,0.0,0.0,0.0,0.49889387809763575
1666091850072892221,0.0,0.0,0.0,0.0,0.0,0.554618054103366
1666091850127697084,0.0,0.0,0.0,0.0,0.0,0.557734500433823
1666091850213108232,0.0,0.0,0.0,0.0,0.0,0.5614111029487683
1666091850285307943,0.0,0.0,0.0,0.0,0.0,0.5961614237833219
1666091850329573093,0.0,0.0,0.0,0.0,0.0,0.6209171635039197
1666091850418192546,0.0,0.0,0.0,0.0,0.0,0.5747633205501628
1666091850550636592,0.0,0.0,0.0,0.0,0.0,0.5235987755982984
1666091850629055343,0.0,0.0,0.0,0.0,0.0,0.44079755650184177
1666091850713139501,0.0,0.0,0.0,0.0,0.0,0.3436472282838526
1666091850803399964,0.0,0.0,0.0,0.0,0.0,-4.996003610813204e-16
1666091850911360522,0.0,0.0,0.0,0.0,0.0,-0.17453292519943345
1666091850922947635,0.0,0.0,0.0,0.0,0.0,-0.17453292519943345
1666091851032369896,0.0,0.0,0.0,0.0,0.0,-0.3673395735800495
1666091851054326360,0.0,0.0,0.0,0.0,0.0,-0.35772479451494016
1666091851185757906,0.0,0.0,0.0,0.0,0.0,-0.548309692584816
1666091851229940189,0.0,0.0,0.0,0.0,0.0,-0.6720597518758478
1666091851305774809,0.0,0.0,0.0,0.0,0.0,-0.7778150889504576
1666091851398556717,0.0,0.0,0.0,0.0,0.0,-0.8395761559138718
1666091851485442476,0.0,0.0,0.0,0.0,0.0,-0.8256472938292517
1666091851573787866,0.0,0.0,0.0,0.0,0.0,-0.9028842719154662
1666091851633014286,0.0,0.0,0.0,0.0,0.0,-0.925220899014366
1666091851648915887,0.0,0.0,0.0,0.0,0.0,-0.9178194088248204
1666091851737135515,0.0,0.0,0.0,0.0,0.0,-0.8726646259971653
1666091851843847513,0.0,0.0,0.0,0.0,0.0,-0.7576395130523352
1666091851905382629,0.0,0.0,0.0,0.0,0.0,-0.6280867484847124
1666091852045779072,0.0,0.0,0.0,0.0,0.0,-0.4849076331498769
1666091852090394080,0.0,0.0,0.0,0.0,0.0,-0.17453292519943345
1666091852151733091,0.0,0.0,0.0,0.0,0.0,-0.17453292519943345
1666091852165407413,0.0,0.0,0.0,0.0,0.0,-0.17453292519943345
1666091852305338807,0.0,0.0,0.0,0.0,0.0,-0.17453292519943345
1666091852389096980,0.0,0.0,0.0,0.0,0.0,-4.996003610813204e-16
1666091852424423836,0.0,0.0,0.0,0.0,0.0,0.22787319199860187
1666091852471717341,0.0,0.0,0.0,0.0,0.0,0.4571962830646602
1666091852601275988,0.0,0.0,0.0,0.0,0.0,0.7666144057569967
1666091852645542018,0.0,0.0,0.0,0.0,0.0,0.7476487148147954
1666091852692867977,0.0,0.0,0.0,0.0,0.0,0.8213319206307153
1666091852725756728,0.0,0.0,0.0,0.0,0.0,0.8726646259971643
1666091852809095285,0.0,0.0,0.0,0.0,0.0,0.8992709114928559
1666091852910240591,0.0,0.0,0.0,0.0,0.0,0.9649953361368945
1666091852928893365,0.0,0.0,0.0,0.0,0.0,0.9414327228307032
1666091853019250918,0.0,0.0,0.0,0.0,0.0,0.9834948299776627
1666091853061963052,0.0,0.0,0.0,0.0,0.0,0.969442405955048
1666091853149433154,0.0,0.0,0.0,0.0,0.0,0.9190148056722649
1666091853226291470,0.0,0.0,0.0,0.0,0.0,0.8236975251609671
1666091853270312107,0.0,0.0,0.0,0.0,0.0,0.6981317007977313
1666091853357324195,0.0,0.0,0.0,0.0,0.0,0.5709851378861764
1666091853401750648,0.0,0.0,0.0,0.0,0.0,0.4383507994346992
1666091853499227792,0.0,0.0,0.0,0.0,0.0,0.3052061586381821
1666091853619715923,0.0,0.0,0.0,0.0,0.0,-4.996003610813204e-16
1666091853665517710,0.0,0.0,0.0,0.0,0.0,-4.996003610813204e-16
1666091853761505549,0.0,0.0,0.0,0.0,0.0,-4.996003610813204e-16
1666091853786672253,0.0,0.0,0.0,0.0,0.0,-4.996003610813204e-16
1666091853877497779,0.0,0.0,0.0,0.0,0.0,-0.3252936632931261
1666091854008947589,0.0,0.0,0.0,0.0,0.0,-0.5481656001456323
1666091854053928689,0.0,0.0,0.0,0.0,0.0,-0.534388206598851
1666091854086287829,0.0,0.0,0.0,0.0,0.0,-0.5901460930323584
1666091854172691757,0.0,0.0,0.0,0.0,0.0,-0.6746343862353812
1666091854265633847,0.0,0.0,0.0,0.0,0.0,-0.7369493850440059
1666091854357662044,0.0,0.0,0.0,0.0,0.0,-0.7601756028340996
1666091854391301889,0.0,0.0,0.0,0.0,0.0,-0.7016871934285525
1666091854481574766,0.0,0.0,0.0,0.0,0.0,-0.6293118031152677
1666091854569123463,0.0,0.0,0.0,0.0,0.0,-0.4897837893549169
1666091854686944657,0.0,0.0,0.0,0.0,0.0,-0.353792568136364
1666091854776849897,0.0,0.0,0.0,0.0,0.0,-0.17453292519943345
1666091854889592921,0.0,0.0,0.0,0.0,0.0,-4.996003610813204e-16
1666091854944010404,0.0,0.0,0.0,0.0,0.0,0.17453292519943245
1666091855053539483,0.0,0.0,0.0,0.0,0.0,0.5017149950191364
1666091855097491126,0.0,0.0,0.0,0.0,0.0,0.4921918263624032
1666091855186300045,0.0,0.0,0.0,0.0,0.0,0.7087420593027912
1666091855229774653,0.0,0.0,0.0,0.0,0.0,0.699695843909442
1666091855307056908,0.0,0.0,0.0,0.0,0.0,0.7782607170388914
1666091855393599512,0.0,0.0,0.0,0.0,0.0,0.8006014404412413
1666091855485825614,0.0,0.0,0.0,0.0,0.0,0.850030014879309
1666091855530258261,0.0,0.0,0.0,0.0,0.0,0.8373032637044737
1666091855585187337,0.0,0.0,0.0,0.0,0.0,0.8396634215100434
1666091855649769019,0.0,0.0,0.0,0.0,0.0,0.8457656590279284
1666091855737595756,0.0,0.0,0.0,0.0,0.0,0.8532968784756053
1666091855780946828,0.0,0.0,0.0,0.0,0.0,0.8167572077749075
1666091855869322869,0.0,0.0,0.0,0.0,0.0,0.8158498597824149
1666091855967518398,0.0,0.0,0.0,0.0,0.0,0.7678109124098931
1666091855989385775,0.0,0.0,0.0,0.0,0.0,0.7419513819072552
1666091856078302422,0.0,0.0,0.0,0.0,0.0,0.719512499389848
1666091856209803723,0.0,0.0,0.0,0.0,0.0,0.6443486462235819
1666091856312851125,0.0,0.0,0.0,0.0,0.0,0.5972128284342827
1666091856334493832,0.0,0.0,0.0,0.0,0.0,0.5768945592569031
1666091856424056854,0.0,0.0,0.0,0.0,0.0,0.5521564084050474
1666091856513328723,0.0,0.0,0.0,0.0,0.0,0.5013747674834541
1666091856591726830,0.0,0.0,0.0,0.0,0.0,0.4564575519022223
1666091856633353773,0.0,0.0,0.0,0.0,0.0,0.41420790404396196
1666091856721001124,0.0,0.0,0.0,0.0,0.0,0.3782069927320381
1666091856766103141,0.0,0.0,0.0,0.0,0.0,0.33141196847273563
1666091856879403640,0.0,0.0,0.0,0.0,0.0,0.2801872562478708
1666091856885233477,0.0,0.0,0.0,0.0,0.0,0.27159117258757587
1666091857027201553,0.0,0.0,0.0,0.0,0.0,0.2595104692867209
1666091857100668613,0.0,0.0,0.0,0.0,0.0,0.22619365841419123
1666091857192639236,0.0,0.0,0.0,0.0,0.0,0.21881844008252557
1666091857236925609,0.0,0.0,0.0,0.0,0.0,0.2156298000118778
1666091857328387382,0.0,0.0,0.0,0.0,0.0,0.17453292519943245
1666091857413468791,0.0,0.0,0.0,0.0,0.0,0.17453292519943245
1666091857538933773,0.0,0.0,0.0,0.0,0.0,0.17453292519943245
1666091857631546614,0.0,0.0,0.0,0.0,0.0,0.17453292519943245
1666091857706965536,0.0,0.0,0.0,0.0,0.0,0.17453292519943245
1666091857842296787,0.0,0.0,0.0,0.0,0.0,0.21795550222304605
1666091857940071097,0.0,0.0,0.0,0.0,0.0,0.17453292519943245
1666091857973420993,0.0,0.0,0.0,0.0,0.0,0.17453292519943245
