%time,field.linear.x,field.linear.y,field.linear.z,field.angular.x,field.angular.y,field.angular.z
1666091802993859228,0.015,0.0,0.0,0.0,0.0,-0.049838241580648875
1666091803043829121,0.03,0.0,0.0,0.0,0.0,-0.09967648316129775
1666091803094635613,0.045,0.0,0.0,0.0,0.0,-0.189365660198397
1666091803145006266,0.06,0.0,0.0,0.0,0.0,-0.2790548372354963
1666091803193981476,0.075,0.0,0.0,0.0,0.0,-0.33231138549072153
1666091803243853187,0.09,0.0,0.0,0.0,0.0,-0.3855679337459468
1666091803293703446,0.105,0.0,0.0,0.0,0.0,-0.438824482001172
1666091803343961524,0.12,0.0,0.0,0.0,0.0,-0.4888023453562622
1666091803395295614,0.135,0.0,0.0,0.0,0.0,-0.5381130010908615
1666091803443769978,0.15000000000000002,0.0,0.0,0.0,0.0,-0.5874370870615474
1666091803493748266,0.16500000000000004,0.0,0.0,0.0,0.0,-0.6367611730322333
1666091803543762557,0.18000000000000005,0.0,0.0,0.0,0.0,-0.6749585658082631
1666091803593806351,0.19500000000000006,0.0,0.0,0.0,0.0,-0.7131559585842928
1666091803644343349,0.21000000000000008,0.0,0.0,0.0,0.0,-0.7525155596785713
1666091803693745926,0.2250000000000001,0.0,0.0,0.0,0.0,-0.7918751607728498
1666091803743948578,0.2400000000000001,0.0,0.0,0.0,0.0,-0.831645142165292
1666091803793769688,0.2550000000000001,0.0,0.0,0.0,0.0,-0.8714151235577341
1666091803843941991,0.27000000000000013,0.0,0.0,0.0,0.0,-0.9111851049501762
1666091803893751760,0.28500000000000014,0.0,0.0,0.0,0.0,-0.9511822462990759
1666091803943836014,0.30000000000000016,0.0,0.0,0.0,0.0,-0.9905122104360785
1666091803994222366,0.31500000000000017,0.0,0.0,0.0,0.0,-1.0313394154656634
1666091804043817911,0.3300000000000002,0.0,0.0,0.0,0.0,-1.0721666204952485
1666091804093797344,0.3450000000000002,0.0,0.0,0.0,0.0,-1.1129938255248335
1666091804144202919,0.3600000000000002,0.0,0.0,0.0,0.0,-1.1538210305544185
1666091804193773868,0.3750000000000002,0.0,0.0,0.0,0.0,-1.0872057677377076
1666091804243769073,0.3840087950229645,0.0,0.0,0.0,0.0,-1.0471975511965983
1666091804293753817,0.37789884209632874,0.0,0.0,0.0,0.0,-1.0471975511965983
1666091804344530311,0.23897318542003626,0.0,0.0,0.0,0.0,-0.8726646259971653
1666091804394119038,0.08897318542003624,0.0,0.0,0.0,0.0,-0.8236287695800782
1666091804443727524,0.0,0.0,0.0,0.0,0.0,-0.7945429272785599
1666091804493809356,0.0,0.0,0.0,0.0,0.0,-0.7495138573496368
1666091804544003732,0.0,0.0,0.0,0.0,0.0,-0.7001650973440106
1666091804593761682,0.0,0.0,0.0,0.0,0.0,-0.7001650973440106
1666091804643859269,0.0,0.0,0.0,0.0,0.0,-0.7001650973440106
1666091804693809901,0.0,0.0,0.0,0.0,0.0,-0.6564731203920577
1666091804743897452,0.0,0.0,0.0,0.0,0.0,-0.6564731203920577
1666091804793965864,0.0,0.0,0.0,0.0,0.0,-0.6050259277876545
1666091804844375223,0.0,0.0,0.0,0.0,0.0,-0.5451676198502176
1666091804893807433,0.0,0.0,0.0,0.0,0.0,-0.5451676198502176
1666091804944127576,0.0,0.0,0.0,0.0,0.0,-0.5451676198502176
1666091804993805364,0.0,0.0,0.0,0.0,0.0,-0.49395338772494213
1666091805044148038,0.0,0.0,0.0,0.0,0.0,-0.49395338772494213
1666091805093767906,0.0,0.0,0.0,0.0,0.0,-0.4335719017255882
1666091805143906747,0.0,0.0,0.0,0.0,0.0,-0.3871737512557655
1666091805193821172,0.0,0.0,0.0,0.0,0.0,-0.30364279991493487
1666091805243788441,0.0,0.0,0.0,0.0,0.0,-0.30364279991493487
1666091805293690547,0.0,0.0,0.0,0.0,0.0,-0.27861992198873753
1666091805344180612,0.0,0.0,0.0,0.0,0.0,-0.27542434899592017
1666091805396158272,0.0,0.0,0.0,0.0,0.0,-0.27542434899592017
1666091805443849582,0.0,0.0,0.0,0.0,0.0,-0.23274001033294942
1666091805493796793,0.0,0.0,0.0,0.0,0.0,-0.17453292519943345
1666091805543833891,0.0,0.0,0.0,0.0,0.0,-0.17453292519943345
1666091805593751610,0.0,0.0,0.0,0.0,0.0,-0.17453292519943345
1666091805643818707,0.0,0.0,0.0,0.0,0.0,-0.17453292519943345
1666091805694619590,0.0,0.0,0.0,0.0,0.0,-0.17453292519943345
1666091805743875256,0.0,0.0,0.0,0.0,0.0,-0.17453292519943345
1666091805793864450,0.0,0.0,0.0,0.0,0.0,-0.17453292519943345
1666091805843734553,0.0,0.0,0.0,0.0,0.0,-0.17453292519943345
1666091805893692553,0.0,0.0,0.0,0.0,0.0,-0.17453292519943345
1666091805943981332,0.0,0.0,0.0,0.0,0.0,-0.17453292519943345
1666091805993915586,0.0,0.0,0.0,0.0,0.0,-0.17453292519943345
1666091806043942434,0.0,0.0,0.0,0.0,0.0,-0.22154998840629686
1666091806094386870,0.0,0.0,0.0,0.0,0.0,-0.231339614582531
1666091806143773446,0.0,0.0,0.0,0.0,0.0,-0.231339614582531
1666091806193750106,0.0,0.0,0.0,0.0,0.0,-0.24844869700492375
1666091806243740219,0.0,0.0,0.0,0.0,0.0,-0.25826967209640816
1666091806293942897,0.0,0.0,0.0,0.0,0.0,-0.25826967209640816
1666091806343826236,0.0,0.0,0.0,0.0,0.0,-0.25826967209640816
1666091806394735180,0.0,0.0,0.0,0.0,0.0,-0.290006429247968
1666091806443855351,0.0,0.0,0.0,0.0,0.0,-0.290006429247968
1666091806493857433,0.0,0.0,0.0,0.0,0.0,-0.3002141328659065
1666091806543736804,0.0,0.0,0.0,0.0,0.0,-0.2952052216035454
1666091806593950971,0.0,0.0,0.0,0.0,0.0,-0.2952052216035454
1666091806644707698,0.0,0.0,0.0,0.0,0.0,-0.32031407711531207
1666091806694111582,0.0,0.0,0.0,0.0,0.0,-0.32031407711531207
1666091806743865506,0.0,0.0,0.0,0.0,0.0,-0.3490658503988664
1666091806794025491,0.0,0.0,0.0,0.0,0.0,-0.3500514947826032
1666091806843940542,0.0,0.0,0.0,0.0,0.0,-0.3707183025678542
1666091806893803523,0.0,0.0,0.0,0.0,0.0,-0.3707183025678542
1666091806943693028,0.0,0.0,0.0,0.0,0.0,-0.4044273176284489
1666091806994052344,0.0,0.0,0.0,0.0,0.0,-0.3958574154628273
1666091807046131964,0.0,0.0,0.0,0.0,0.0,-0.42184639244856303
1666091807094473579,0.0,0.0,0.0,0.0,0.0,-0.42184639244856303
1666091807143901203,0.0,0.0,0.0,0.0,0.0,-0.4432651841211676
1666091807193746845,0.0,0.0,0.0,0.0,0.0,-0.4432651841211676
1666091807244829544,0.0,0.0,0.0,0.0,0.0,-0.4649408331698392
1666091807294070204,0.0,0.0,0.0,0.0,0.0,-0.4649408331698392
1666091807343933383,0.0,0.0,0.0,0.0,0.0,-0.4746775731516267
1666091807394421139,0.0,0.0,0.0,0.0,0.0,-0.4697353499647603
1666091807443938855,0.0,0.0,0.0,0.0,0.0,-0.4697353499647603
1666091807494344052,0.0,0.0,0.0,0.0,0.0,-0.48513266551389195
1666091807544090814,0.0,0.0,0.0,0.0,0.0,-0.49449967720528587
1666091807593940454,0.0,0.0,0.0,0.0,0.0,-0.5058684601305262
1666091807643791197,0.0,0.0,0.0,0.0,0.0,-0.5058684601305262
1666091807693875991,0.0,0.0,0.0,0.0,0.0,-0.5235987755982994
1666091807744086170,0.0,0.0,0.0,0.0,0.0,-0.5235987755982994
1666091807793806562,0.0,0.0,0.0,0.0,0.0,-0.5004241326470613
1666091807843831261,0.0,0.0,0.0,0.0,0.0,-0.49349436515913103
1666091807894253343,0.0,0.0,0.0,0.0,0.0,-0.48263291407664083
1666091807943825312,0.0,0.0,0.0,0.0,0.0,-0.47193635379143434
1666091807993933882,0.0,0.0,0.0,0.0,0.0,-0.47193635379143434
1666091808044019634,0.0,0.0,0.0,0.0,0.0,-0.47193635379143434
1666091808094814878,0.0,0.0,0.0,0.0,0.0,-0.4589683770754294
1666091808144557526,0.0,0.0,0.0,0.0,0.0,-0.4366932748493209
1666091808193995351,0.0,0.0,0.0,0.0,0.0,-0.4366932748493209
1666091808243984474,0.0,0.0,0.0,0.0,0.0,-0.4366932748493209
1666091808294130168,0.0,0.0,0.0,0.0,0.0,-0.3914503412827489
1666091808344062889,0.0,0.0,0.0,0.0,0.0,-0.3914503412827489
1666091808393934108,0.0,0.0,0.0,0.0,0.0,-0.36861674489274693
1666091808444131857,0.0,0.0,0.0,0.0,0.0,-0.3490658503988664
1666091808493946483,0.0,0.0,0.0,0.0,0.0,-0.3194068483711208
1666091808543743964,0.0,0.0,0.0,0.0,0.0,-0.3194068483711208
1666091808593962883,0.0,0.0,0.0,0.0,0.0,-0.29517538213524425
1666091808644505504,0.0,0.0,0.0,0.0,0.0,-0.29517538213524425
1666091808693848848,0.0,0.0,0.0,0.0,0.0,-0.2712986328836691
1666091808743919662,0.0,0.0,0.0,0.0,0.0,-0.24655153470556196
1666091808793828646,0.0,0.0,0.0,0.0,0.0,-0.22220373685326406
1666091808844424703,0.0,0.0,0.0,0.0,0.0,-0.22220373685326406
1666091808893711438,0.0,0.0,0.0,0.0,0.0,-0.17453292519943345
1666091808944040738,0.0,0.0,0.0,0.0,0.0,-0.17453292519943345
1666091808994268980,0.0,0.0,0.0,0.0,0.0,-0.17453292519943345
1666091809043821977,0.0,0.0,0.0,0.0,0.0,-0.17453292519943345
1666091809094003552,0.0,0.0,0.0,0.0,0.0,-0.17453292519943345
1666091809143957645,0.0,0.0,0.0,0.0,0.0,-0.17453292519943345
1666091809194194612,0.0,0.0,0.0,0.0,0.0,-0.17453292519943345
1666091809244058806,0.0,0.0,0.0,0.0,0.0,-0.17453292519943345
1666091809293719209,0.0,0.0,0.0,0.0,0.0,-0.17453292519943345
1666091809344653751,0.0,0.0,0.0,0.0,0.0,-0.17453292519943345
1666091809395022955,0.0,0.0,0.0,0.0,0.0,-0.17453292519943345
1666091809444359964,0.0,0.0,0.0,0.0,0.0,-0.17453292519943345
1666091809493902545,0.0,0.0,0.0,0.0,0.0,-0.17453292519943345
1666091809544158975,0.0,0.0,0.0,0.0,0.0,-0.17453292519943345
1666091809593899559,0.0,0.0,0.0,0.0,0.0,-0.17453292519943345
1666091809643949751,0.0,0.0,0.0,0.0,0.0,-0.17453292519943345
1666091809693852870,0.0,0.0,0.0,0.0,0.0,-0.21769100156946036
1666091809744441229,0.0,0.0,0.0,0.0,0.0,-0.21769100156946036
1666091809793727689,0.0,0.0,0.0,0.0,0.0,-0.21769100156946036
1666091809844691297,0.0,0.0,0.0,0.0,0.0,-0.24190632906242684
1666091809894223510,0.0,0.0,0.0,0.0,0.0,-0.2370821512274035
1666091809943859223,0.0,0.0,0.0,0.0,0.0,-0.2370821512274035
1666091809993883694,0.0,0.0,0.0,0.0,0.0,-0.26344260590229557
1666091810043974282,0.0,0.0,0.0,0.0,0.0,-0.26465111538510516
1666091810093937324,0.0,0.0,0.0,0.0,0.0,-0.26465111538510516
1666091810144715329,0.0,0.0,0.0,0.0,0.0,-0.26465111538510516
1666091810194243215,0.0,0.0,0.0,0.0,0.0,-0.2796803587746837
1666091810243882943,0.0,0.0,0.0,0.0,0.0,-0.2796803587746837
1666091810293903462,0.0,0.0,0.0,0.0,0.0,-0.28255430197222353
1666091810343877829,0.0,0.0,0.0,0.0,0.0,-0.28255430197222353
1666091810393915888,0.0,0.0,0.0,0.0,0.0,-0.2953462041516844
1666091810443845922,0.0,0.0,0.0,0.0,0.0,-0.2953462041516844
1666091810493901685,0.0,0.0,0.0,0.0,0.0,-0.2949190694325377
1666091810544198230,0.0,0.0,0.0,0.0,0.0,-0.28860366444978097
1666091810593807251,0.0,0.0,0.0,0.0,0.0,-0.28678756957136187
1666091810643937297,0.0,0.0,0.0,0.0,0.0,-0.28678756957136187
1666091810693857936,0.015,0.0,0.0,0.0,0.0,-0.2809228591841011
1666091810751199326,0.03,0.0,0.0,0.0,0.0,-0.2697508673123054
1666091810796210687,0.045,0.0,0.0,0.0,0.0,-0.258572079698677
1666091810844014157,0.06,0.0,0.0,0.0,0.0,-0.2473932920850486
1666091810893881361,0.075,0.0,0.0,0.0,0.0,-0.242488284884065
1666091810944119615,0.09,0.0,0.0,0.0,0.0,-0.2379168620035363
1666091810994063726,0.105,0.0,0.0,0.0,0.0,-0.23350717998241488
1666091811043971752,0.12,0.0,0.0,0.0,0.0,-0.22909749796129347
1666091811093928927,0.135,0.0,0.0,0.0,0.0,-0.21972932061386008
1666091811144928752,0.15000000000000002,0.0,0.0,0.0,0.0,-0.21575454681789924
1666091811193728400,0.16500000000000004,0.0,0.0,0.0,0.0,-0.21193899219249654
1666091811244027249,0.18000000000000005,0.0,0.0,0.0,0.0,-0.20812343756709384
1666091811293919369,0.19500000000000006,0.0,0.0,0.0,0.0,-0.20444261994333524
1666091811344410944,0.21000000000000008,0.0,0.0,0.0,0.0,-0.2008607387533944
1666091811393959610,0.2250000000000001,0.0,0.0,0.0,0.0,-0.1972788575634536
1666091811444433421,0.2400000000000001,0.0,0.0,0.0,0.0,-0.19369697637351277
1666091811494002819,0.2550000000000001,0.0,0.0,0.0,0.0,-0.19022412220656418
1666091811544198978,0.27000000000000013,0.0,0.0,0.0,0.0,-0.1867512680396156
1666091811593892385,0.28500000000000014,0.0,0.0,0.0,0.0,-0.17866873662373953
1666091811644412763,0.30000000000000016,0.0,0.0,0.0,0.0,-0.17571456352909903
1666091811693984333,0.31500000000000017,0.0,0.0,0.0,0.0,-0.17276039043445857
1666091811743872516,0.3300000000000002,0.0,0.0,0.0,0.0,-0.16980621733981807
1666091811793771722,0.3450000000000002,0.0,0.0,0.0,0.0,-0.16692102887485208
1666091811843921367,0.3600000000000002,0.0,0.0,0.0,0.0,-0.16403584040988609
1666091811893829260,0.3750000000000002,0.0,0.0,0.0,0.0,-0.1614151533789908
1666091811944715288,0.39000000000000024,0.0,0.0,0.0,0.0,-0.1587944663480955
1666091811994192074,0.40500000000000025,0.0,0.0,0.0,0.0,-0.1494248021633877
1666091812043908063,0.42000000000000026,0.0,0.0,0.0,0.0,-0.14005513797867988
1666091812093730658,0.4350000000000003,0.0,0.0,0.0,0.0,-0.13068547379397208
1666091812143819557,0.4500000000000003,0.0,0.0,0.0,0.0,-0.13429627024997037
1666091812194072131,0.4650000000000003,0.0,0.0,0.0,0.0,-0.13747227960034938
1666091812243962897,0.4800000000000003,0.0,0.0,0.0,0.0,-0.1406482889507284
1666091812293922291,0.49500000000000033,0.0,0.0,0.0,0.0,-0.1438242983011074
1666091812343908312,0.5100000000000003,0.0,0.0,0.0,0.0,-0.1471251116366266
1666091812394156709,0.5250000000000004,0.0,0.0,0.0,0.0,-0.15056706845932114
1666091812444199806,0.5400000000000004,0.0,0.0,0.0,0.0,-0.15400902528201568
1666091812494618449,0.5550000000000004,0.0,0.0,0.0,0.0,-0.1577590068996242
1666091812544074224,0.5700000000000004,0.0,0.0,0.0,0.0,-0.16243258161559213
1666091812593763509,0.5850000000000004,0.0,0.0,0.0,0.0,-0.16714931556123838
1666091812644002446,0.6000000000000004,0.0,0.0,0.0,0.0,-0.17186604950688467
1666091812693799721,0.5626136064529418,0.0,0.0,0.0,0.0,-0.17453292519943345
1666091812744046091,0.5458831787109375,0.0,0.0,0.0,0.0,-0.17453292519943345
1666091812793867774,0.5458831787109375,0.0,0.0,0.0,0.0,-0.17453292519943345
1666091812843927536,0.5608831787109375,0.0,0.0,0.0,0.0,-0.17453292519943345
1666091812894281939,0.5610669851303101,0.0,0.0,0.0,0.0,-0.17453292519943345
1666091812944545678,0.5400676727294922,0.0,0.0,0.0,0.0,-0.17453292519943345
1666091812993833844,0.5400676727294922,0.0,0.0,0.0,0.0,-0.17453292519943345
1666091813044153450,0.4966944754123688,0.0,0.0,0.0,0.0,-0.11725212633609772
1666091813094247071,0.4966944754123688,0.0,0.0,0.0,0.0,-0.11725212633609772
1666091813144024988,0.4782868921756744,0.0,0.0,0.0,0.0,-0.11749042570590973
1666091813194336939,0.4782868921756744,0.0,0.0,0.0,0.0,-0.11749042570590973
1666091813243816449,0.4595824182033539,0.0,0.0,0.0,0.0,-0.11743887513875961
1666091813293799920,0.4595824182033539,0.0,0.0,0.0,0.0,-0.11743887513875961
1666091813343825745,0.4509702622890472,0.0,0.0,0.0,0.0,-0.11862365901470184
1666091813393792476,0.4509702622890472,0.0,0.0,0.0,0.0,-0.11862365901470184
1666091813444038723,0.39355462789535517,0.0,0.0,0.0,0.0,-0.003756955498829484
1666091813494093833,0.39049303531646723,0.0,0.0,0.0,0.0,-0.00619515310972929
1666091813544417832,0.39084842801094055,0.0,0.0,0.0,0.0,-0.006313835736364126
1666091813593801602,0.38474395871162415,0.0,0.0,0.0,0.0,-0.007398420013487339
1666091813644100219,0.39974395871162416,0.0,0.0,0.0,0.0,-0.0486059709759553
1666091813693797486,0.41474395871162417,0.0,0.0,0.0,0.0,-0.08981352193842329
1666091813744452729,0.41914698481559753,0.0,0.0,0.0,0.0,-0.12722213566303253
1666091813794028565,0.41914698481559753,0.0,0.0,0.0,0.0,-0.12722213566303253
1666091813843896461,0.41914698481559753,0.0,0.0,0.0,0.0,-0.12722213566303253
1666091813894223327,0.408597856760025,0.0,0.0,0.0,0.0,-0.13050715625286102
1666091813944114837,0.408597856760025,0.0,0.0,0.0,0.0,-0.13050715625286102
1666091813994227873,0.258597856760025,0.0,0.0,0.0,0.0,-0.22031318527477936
1666091814043896448,0.10859785676002498,0.0,0.0,0.0,0.0,-0.3055841219481359
1666091814094267504,0.0,0.0,0.0,0.0,0.0,-0.3811806169235078
1666091814144057693,0.0,0.0,0.0,0.0,0.0,-0.3811806169235078
1666091814194388638,0.0,0.0,0.0,0.0,0.0,-0.397526800507085
1666091814244244525,0.0,0.0,0.0,0.0,0.0,-0.397526800507085
1666091814293938178,0.0,0.0,0.0,0.0,0.0,-0.4098019347876711
1666091814343735303,0.0,0.0,0.0,0.0,0.0,-0.4098019347876711
1666091814394036278,0.0,0.0,0.0,0.0,0.0,-0.4155501573750529
1666091814444630221,0.0,0.0,0.0,0.0,0.0,-0.4155501573750529
1666091814494200169,0.0,0.0,0.0,0.0,0.0,-0.4150085846653577
1666091814544096157,0.0,0.0,0.0,0.0,0.0,-0.4150085846653577
1666091814593861277,0.0,0.0,0.0,0.0,0.0,-0.3948794570753135
1666091814645588059,0.0,0.0,0.0,0.0,0.0,-0.37601758593473156
1666091814693748960,0.0,0.0,0.0,0.0,0.0,-0.36931891866896954
1666091814744136432,0.0,0.0,0.0,0.0,0.0,-0.36931891866896954
1666091814793957427,0.0,0.0,0.0,0.0,0.0,-0.3519671281840765
1666091814843859965,0.015,0.0,0.0,0.0,0.0,-0.34402120488596105
1666091814893928294,0.03,0.0,0.0,0.0,0.0,-0.3360752815878456
1666091814944767886,0.045,0.0,0.0,0.0,0.0,-0.3282583077716497
1666091814993809175,0.06,0.0,0.0,0.0,0.0,-0.3204054624444045
1666091815044271580,0.075,0.0,0.0,0.0,0.0,-0.3126184499963924
1666091815094096037,0.09,0.0,0.0,0.0,0.0,-0.30483143754838027
1666091815144159208,0.105,0.0,0.0,0.0,0.0,-0.29713229372753136
1666091815194038083,0.12,0.0,0.0,0.0,0.0,-0.28943314990668245
1666091815244239390,0.135,0.0,0.0,0.0,0.0,-0.28196246457713176
1666091815294718243,0.15000000000000002,0.0,0.0,0.0,0.0,-0.27449177924758106
1666091815343813408,0.16500000000000004,0.0,0.0,0.0,0.0,-0.262576891463912
1666091815393740790,0.18000000000000005,0.0,0.0,0.0,0.0,-0.25066200368024294
1666091815448642300,0.19500000000000006,0.0,0.0,0.0,0.0,-0.24120545622121503
1666091815494414344,0.21000000000000008,0.0,0.0,0.0,0.0,-0.23174890876218712
1666091815543777899,0.2250000000000001,0.0,0.0,0.0,0.0,-0.21626357033511528
1666091815594542854,0.2400000000000001,0.0,0.0,0.0,0.0,-0.20237529339569132
1666091815645260179,0.2550000000000001,0.0,0.0,0.0,0.0,-0.18848701645626736
1666091815693837505,0.27000000000000013,0.0,0.0,0.0,0.0,-0.1750792234640683
1666091815743807681,0.28500000000000014,0.0,0.0,0.0,0.0,-0.16167143047186922
1666091815794248284,0.30000000000000016,0.0,0.0,0.0,0.0,-0.14826363747967014
1666091815843821281,0.31500000000000017,0.0,0.0,0.0,0.0,-0.12834332701800633
1666091815893806282,0.3300000000000002,0.0,0.0,0.0,0.0,-0.10842301655634251
1666091815943951732,0.3450000000000002,0.0,0.0,0.0,0.0,-0.08898819573176531
1666091815994465354,0.3600000000000002,0.0,0.0,0.0,0.0,-0.06947107133301975
1666091816044278009,0.3750000000000002,0.0,0.0,0.0,0.0,-0.04995394693427418
1666091816093978763,0.39000000000000024,0.0,0.0,0.0,0.0,-0.021297884421145084
1666091816143869234,0.40500000000000025,0.0,0.0,0.0,0.0,0.007358178091984014
1666091816193891099,0.42000000000000026,0.0,0.0,0.0,0.0,0.036694007542290547
1666091816243830534,0.4350000000000003,0.0,0.0,0.0,0.0,0.06672448283191335
1666091816293955280,0.4500000000000003,0.0,0.0,0.0,0.0,0.09659825667485916
1666091816343882955,0.4650000000000003,0.0,0.0,0.0,0.0,0.12647203051780498
1666091816393802882,0.4800000000000003,0.0,0.0,0.0,0.0,0.1563458043607508
1666091816444123231,0.49500000000000033,0.0,0.0,0.0,0.0,0.18190736752154407
1666091816493944794,0.5100000000000003,0.0,0.0,0.0,0.0,0.20746893068233735
1666091816543832493,0.5250000000000004,0.0,0.0,0.0,0.0,0.24715282637680813
1666091816593799302,0.5400000000000004,0.0,0.0,0.0,0.0,0.2868367220712789
1666091816644012343,0.5550000000000004,0.0,0.0,0.0,0.0,0.3345859455254206
1666091816693799349,0.5700000000000004,0.0,0.0,0.0,0.0,0.3823351689795623
1666091816743766996,0.5850000000000004,0.0,0.0,0.0,0.0,0.4583545506059416
1666091816793883311,0.5786407589912413,0.0,0.0,0.0,0.0,0.5235987755982984
1666091816843887956,0.5606406927108765,0.0,0.0,0.0,0.0,0.5235987755982984
1666091816893746295,0.5511803684462211,0.0,0.0,0.0,0.0,0.6235987755982983
1666091816944173031,0.5441293120384216,0.0,0.0,0.0,0.0,0.6981317007977313
1666091816994635833,0.5591293120384216,0.0,0.0,0.0,0.0,0.6981317007977313
1666091817043813454,0.5691608786582947,0.0,0.0,0.0,0.0,0.6981317007977313
1666091817093808360,0.5691608786582947,0.0,0.0,0.0,0.0,0.6981317007977313
1666091817144595289,0.5531342029571533,0.0,0.0,0.0,0.0,0.6981317007977313
1666091817193883422,0.5531342029571533,0.0,0.0,0.0,0.0,0.6981317007977313
1666091817243959960,0.4596635699272156,0.0,0.0,0.0,0.0,0.6981317007977313
1666091817293887974,0.4596635699272156,0.0,0.0,0.0,0.0,0.6981317007977313
1666091817343743173,0.4343476593494415,0.0,0.0,0.0,0.0,0.6981317007977313
1666091817393859751,0.4131669104099273,0.0,0.0,0.0,0.0,0.6981317007977313
1666091817444290885,0.4131669104099273,0.0,0.0,0.0,0.0,0.6981317007977313
1666091817494700038,0.40616127848625183,0.0,0.0,0.0,0.0,0.6981317007977313
1666091817544472484,0.3965367972850799,0.0,0.0,0.0,0.0,0.6981317007977313
1666091817593694488,0.3965367972850799,0.0,0.0,0.0,0.0,0.6981317007977313
1666091817644044573,0.3903945982456207,0.0,0.0,0.0,0.0,0.6981317007977313
1666091817694025347,0.3903945982456207,0.0,0.0,0.0,0.0,0.6981317007977313
1666091817743782563,0.38353526592254633,0.0,0.0,0.0,0.0,0.6981317007977313
1666091817793780149,0.38353526592254633,0.0,0.0,0.0,0.0,0.6981317007977313
1666091817843773338,0.3797010481357574,0.0,0.0,0.0,0.0,0.6981317007977313
1666091817893775506,0.37586352229118347,0.0,0.0,0.0,0.0,0.6981317007977313
1666091817945356104,0.3685632646083832,0.0,0.0,0.0,0.0,0.6981317007977313
1666091817994364041,0.3685632646083832,0.0,0.0,0.0,0.0,0.6981317007977313
1666091818044124010,0.35504084825515747,0.0,0.0,0.0,0.0,0.6981317007977313
1666091818093751430,0.35504084825515747,0.0,0.0,0.0,0.0,0.6981317007977313
1666091818144127635,0.3458021879196167,0.0,0.0,0.0,0.0,0.6981317007977313
1666091818194066922,0.3458021879196167,0.0,0.0,0.0,0.0,0.6981317007977313
1666091818244143571,0.3608021879196167,0.0,0.0,0.0,0.0,0.6981317007977313
1666091818294686634,0.32490918040275574,0.0,0.0,0.0,0.0,0.6981317007977313
1666091818343824350,0.32490918040275574,0.0,0.0,0.0,0.0,0.6981317007977313
1666091818393815290,0.3160761296749115,0.0,0.0,0.0,0.0,0.6981317007977313
1666091818443803257,0.3160761296749115,0.0,0.0,0.0,0.0,0.6981317007977313
1666091818493964545,0.31805673241615295,0.0,0.0,0.0,0.0,0.6981317007977313
1666091818543790150,0.31834107637405396,0.0,0.0,0.0,0.0,0.6981317007977313
1666091818594037344,0.31834107637405396,0.0,0.0,0.0,0.0,0.6981317007977313
1666091818643984450,0.3095661699771881,0.0,0.0,0.0,0.0,0.6981317007977313
1666091818694381040,0.30963724851608276,0.0,0.0,0.0,0.0,0.6981317007977313
1666091818743774677,0.30963724851608276,0.0,0.0,0.0,0.0,0.6981317007977313
1666091818793744201,0.15963724851608274,0.0,0.0,0.0,0.0,0.6281386328659153
1666091818844153197,0.00963724851608272,0.0,0.0,0.0,0.0,0.5581455649340992
1666091818894231306,0.0,0.0,0.0,0.0,0.0,0.5660385817596377
1666091818943785105,0.0,0.0,0.0,0.0,0.0,0.5660385817596377
1666091818993820623,0.0,0.0,0.0,0.0,0.0,0.5660385817596377
1666091819043959462,0.0,0.0,0.0,0.0,0.0,0.5749350554569606
1666091819093683958,0.0,0.0,0.0,0.0,0.0,0.5697991365305891
1666091819143813253,0.0,0.0,0.0,0.0,0.0,0.5697991365305891
1666091819195852056,0.0,0.0,0.0,0.0,0.0,0.5697991365305891
1666091819244904314,0.0,0.0,0.0,0.0,0.0,0.5928813704149318
1666091819293740099,0.0,0.0,0.0,0.0,0.0,0.5928813704149318
1666091819343932213,0.0,0.0,0.0,0.0,0.0,0.586883546968306
1666091819393743984,0.0,0.0,0.0,0.0,0.0,0.5778372385026288
1666091819444593864,0.0,0.0,0.0,0.0,0.0,0.5964485294830555
1666091819493849501,0.0,0.0,0.0,0.0,0.0,0.5964485294830555
1666091819544282824,0.0,0.0,0.0,0.0,0.0,0.5894027810177777
1666091819593751778,0.0,0.0,0.0,0.0,0.0,0.5894027810177777
1666091819643770908,0.0,0.0,0.0,0.0,0.0,0.5847530773855601
1666091819693840825,0.0,0.0,0.0,0.0,0.0,0.5663579447943665
1666091819743970835,0.0,0.0,0.0,0.0,0.0,0.5663579447943665
1666091819794068618,0.0,0.0,0.0,0.0,0.0,0.5663579447943665
1666091819843820280,0.0,0.0,0.0,0.0,0.0,0.5610126844763599
1666091819893952672,0.0,0.0,0.0,0.0,0.0,0.5367863630302948
1666091819943823573,0.0,0.0,0.0,0.0,0.0,0.5367863630302948
1666091819993882250,0.015,0.0,0.0,0.0,0.0,0.5361903193339153
1666091820043849366,0.03,0.0,0.0,0.0,0.0,0.5355942756375357
1666091820093838280,0.045,0.0,0.0,0.0,0.0,0.5349982319411561
1666091820144379555,0.06,0.0,0.0,0.0,0.0,0.5344472445216637
1666091820194435835,0.075,0.0,0.0,0.0,0.0,0.534025971987399
1666091820243892371,0.09,0.0,0.0,0.0,0.0,0.5336046994531343
1666091820293939915,0.105,0.0,0.0,0.0,0.0,0.533218224047298
1666091820344015219,0.12,0.0,0.0,0.0,0.0,0.5254445698266996
1666091820393809961,0.135,0.0,0.0,0.0,0.0,0.5176709156061012
1666091820443778216,0.15000000000000002,0.0,0.0,0.0,0.0,0.5098972613855028
1666091820493784301,0.16500000000000004,0.0,0.0,0.0,0.0,0.49749534978730053
1666091820543738784,0.18000000000000005,0.0,0.0,0.0,0.0,0.4850934381890982
1666091820594036481,0.19500000000000006,0.0,0.0,0.0,0.0,0.4726915265908959
1666091820643943357,0.21000000000000008,0.0,0.0,0.0,0.0,0.4613794035225639
1666091820693770930,0.2250000000000001,0.0,0.0,0.0,0.0,0.45006728045423183
1666091820743895497,0.2400000000000001,0.0,0.0,0.0,0.0,0.4403627287909938
1666091820793760677,0.2550000000000001,0.0,0.0,0.0,0.0,0.4306581771277558
1666091820843808488,0.27000000000000013,0.0,0.0,0.0,0.0,0.4155091041133799
1666091820894175933,0.28500000000000014,0.0,0.0,0.0,0.0,0.4003443137351498
1666091820944491540,0.30000000000000016,0.0,0.0,0.0,0.0,0.38619387841238284
1666091820994265660,0.31500000000000017,0.0,0.0,0.0,0.0,0.3720434430896159
1666091821044122365,0.3300000000000002,0.0,0.0,0.0,0.0,0.3593072058947225
1666091821094183882,0.3450000000000002,0.0,0.0,0.0,0.0,0.3465581201907637
1666091821144061790,0.3600000000000002,0.0,0.0,0.0,0.0,0.33245606048756804
1666091821193839614,0.3750000000000002,0.0,0.0,0.0,0.0,0.31850147170916304
1666091821243762499,0.39000000000000024,0.0,0.0,0.0,0.0,0.30454688293075804
1666091821293935385,0.40500000000000025,0.0,0.0,0.0,0.0,0.29059229415235305
1666091821345737229,0.42000000000000026,0.0,0.0,0.0,0.0,0.2765555212441586
1666091821393768831,0.4350000000000003,0.0,0.0,0.0,0.0,0.25843006398619944
1666091821444626807,0.4500000000000003,0.0,0.0,0.0,0.0,0.24030460672824028
1666091821493806195,0.4650000000000003,0.0,0.0,0.0,0.0,0.22252585535991137
1666091821543806558,0.4800000000000003,0.0,0.0,0.0,0.0,0.2040022265990375
1666091821595207168,0.49500000000000033,0.0,0.0,0.0,0.0,0.18625839135848415
1666091821643780677,0.5100000000000003,0.0,0.0,0.0,0.0,0.1685145561179308
1666091821694316220,0.5250000000000004,0.0,0.0,0.0,0.0,0.15077072087737747
1666091821743778659,0.5400000000000004,0.0,0.0,0.0,0.0,0.1325978052526129
1666091821794204587,0.5550000000000004,0.0,0.0,0.0,0.0,0.11466938335854292
1666091821844064219,0.5700000000000004,0.0,0.0,0.0,0.0,0.09557630499667549
1666091821894070763,0.5850000000000004,0.0,0.0,0.0,0.0,0.07648322663480805
1666091821943976406,0.6000000000000004,0.0,0.0,0.0,0.0,0.05553430121197919
1666091821994061046,0.6150000000000004,0.0,0.0,0.0,0.0,0.035061118121872084
1666091822043980280,0.6300000000000004,0.0,0.0,0.0,0.0,0.014587935031764976
1666091822093706693,0.6450000000000005,0.0,0.0,0.0,0.0,-0.011683308209008564
1666091822143873717,0.6600000000000005,0.0,0.0,0.0,0.0,-0.037954551449782103
1666091822195237198,0.6750000000000005,0.0,0.0,0.0,0.0,-0.06660703477133942
1666091822243877908,0.6900000000000005,0.0,0.0,0.0,0.0,-0.12566171346465943
1666091822293851777,0.7024133801460266,0.0,0.0,0.0,0.0,-0.17453292519943345
1666091822343965818,0.6894480586051941,0.0,0.0,0.0,0.0,-0.17453292519943345
1666091822393996976,0.6434527039527893,0.0,0.0,0.0,0.0,-0.17453292519943345
1666091822444248985,0.6434527039527893,0.0,0.0,0.0,0.0,-0.17453292519943345
1666091822493893070,0.6545756459236145,0.0,0.0,0.0,0.0,-0.17453292519943345
1666091822543977845,0.6482594609260559,0.0,0.0,0.0,0.0,-0.17453292519943345
1666091822593933382,0.6482594609260559,0.0,0.0,0.0,0.0,-0.17453292519943345
1666091822643771191,0.6346208708894827,0.0,0.0,0.0,0.0,-0.27453292519943345
1666091822694262108,0.6244556307792664,0.0,0.0,0.0,0.0,-0.3490658503988664
1666091822743933673,0.6119459271430968,0.0,0.0,0.0,0.0,-0.3490658503988664
1666091822794952152,0.5958796739578247,0.0,0.0,0.0,0.0,-0.3490658503988664
1666091822843762443,0.5958796739578247,0.0,0.0,0.0,0.0,-0.3490658503988664
1666091822894601934,0.570539653301239,0.0,0.0,0.0,0.0,-0.3490658503988664
1666091822943828453,0.5469061136245728,0.0,0.0,0.0,0.0,-0.3490658503988664
1666091822994306824,0.5469061136245728,0.0,0.0,0.0,0.0,-0.3490658503988664
1666091823044760830,0.49594080448150635,0.0,0.0,0.0,0.0,-0.11588094383478165
1666091823094747457,0.49594080448150635,0.0,0.0,0.0,0.0,-0.11565404385328293
1666091823144074722,0.4738468825817108,0.0,0.0,0.0,0.0,-0.11503210663795471
1666091823194568052,0.41776974554606106,0.0,0.0,0.0,0.0,-0.015032106637954706
1666091823243789781,0.42593798041343683,0.0,0.0,0.0,0.0,-0.1128399446606636
1666091823295856382,0.42593798041343683,0.0,0.0,0.0,0.0,-0.1128399446606636
1666091823343820186,0.42593798041343683,0.0,0.0,0.0,0.0,-0.1128399446606636
1666091823394249836,0.2759379804134368,0.0,0.0,0.0,0.0,-0.16854933690642412
1666091823444137971,0.1259379804134368,0.0,0.0,0.0,0.0,-0.22425872915218464
1666091823494267203,0.0,0.0,0.0,0.0,0.0,-0.271911086627104
1666091823543859225,0.0,0.0,0.0,0.0,0.0,-0.2755133888275995
1666091823594024978,0.0,0.0,0.0,0.0,0.0,-0.2755133888275995
1666091823644110611,0.0,0.0,0.0,0.0,0.0,-0.25409905391720683
1666091823693859855,0.0,0.0,0.0,0.0,0.0,-0.25409905391720683
1666091823743749111,0.0,0.0,0.0,0.0,0.0,-0.2733131892546357
1666091823794573238,0.0,0.0,0.0,0.0,0.0,-0.26413658208260915
1666091823843860799,0.0,0.0,0.0,0.0,0.0,-0.2796464590448796
1666091823900082868,0.0,0.0,0.0,0.0,0.0,-0.28887100565532364
1666091823944650248,0.0,0.0,0.0,0.0,0.0,-0.28887100565532364
1666091823994104400,0.0,0.0,0.0,0.0,0.0,-0.29546074738800865
1666091824043910841,0.0,0.0,0.0,0.0,0.0,-0.29546074738800865
1666091824093852997,0.0,0.0,0.0,0.0,0.0,-0.30115334202637084
1666091824143743004,0.0,0.0,0.0,0.0,0.0,-0.30512939066590977
1666091824196424618,0.0,0.0,0.0,0.0,0.0,-0.3067281076964705
1666091824243817592,0.0,0.0,0.0,0.0,0.0,-0.3067281076964705
1666091824293914302,0.0,0.0,0.0,0.0,0.0,-0.3067281076964705
1666091824343748334,0.0,0.0,0.0,0.0,0.0,-0.30993766738438217
1666091824394382297,0.0,0.0,0.0,0.0,0.0,-0.30993766738438217
1666091824444153301,0.015,0.0,0.0,0.0,0.0,-0.30339160978829705
1666091824493915973,0.03,0.0,0.0,0.0,0.0,-0.296845552192212
1666091824543726022,0.045,0.0,0.0,0.0,0.0,-0.291374425121696
1666091824594329519,0.06,0.0,0.0,0.0,0.0,-0.2858938598180538
1666091824644516737,0.075,0.0,0.0,0.0,0.0,-0.28041329451441166
1666091824693915095,0.09,0.0,0.0,0.0,0.0,-0.27530968222391794
1666091824744078461,0.105,0.0,0.0,0.0,0.0,-0.27090778982490926
1666091824793922632,0.12,0.0,0.0,0.0,0.0,-0.26650061877949305
1666091824844306522,0.135,0.0,0.0,0.0,0.0,-0.26240599586288044
1666091824894098864,0.15000000000000002,0.0,0.0,0.0,0.0,-0.2583113729462678
1666091824944036310,0.16500000000000004,0.0,0.0,0.0,0.0,-0.25446441570836487
1666091824994460406,0.18000000000000005,0.0,0.0,0.0,0.0,-0.2506174584704619
1666091825043869586,0.19500000000000006,0.0,0.0,0.0,0.0,-0.24708237277577613
1666091825094088481,0.21000000000000008,0.0,0.0,0.0,0.0,-0.24361096135627824
1666091825143811425,0.2250000000000001,0.0,0.0,0.0,0.0,-0.24013954993678036
1666091825194025202,0.2400000000000001,0.0,0.0,0.0,0.0,-0.23666813851728247
1666091825243900226,0.2550000000000001,0.0,0.0,0.0,0.0,-0.23323175059227738
1666091825295051729,0.27000000000000013,0.0,0.0,0.0,0.0,-0.22990593769446294
1666091825343858879,0.28500000000000014,0.0,0.0,0.0,0.0,-0.2265801247966485
1666091825394010570,0.30000000000000016,0.0,0.0,0.0,0.0,-0.22325431189883405
1666091825444459562,0.31500000000000017,0.0,0.0,0.0,0.0,-0.22005719237076538
1666091825493889498,0.3300000000000002,0.0,0.0,0.0,0.0,-0.2168600728426967
1666091825544115535,0.3450000000000002,0.0,0.0,0.0,0.0,-0.21366295331462803
1666091825594099881,0.3600000000000002,0.0,0.0,0.0,0.0,-0.2105106114486925
1666091825645756710,0.3750000000000002,0.0,0.0,0.0,0.0,-0.20735826958275694
1666091825696136778,0.39000000000000024,0.0,0.0,0.0,0.0,-0.20426417601594646
1666091825744783750,0.40500000000000025,0.0,0.0,0.0,0.0,-0.20117008244913598
1666091825794024448,0.42000000000000026,0.0,0.0,0.0,0.0,-0.19365765057221512
1666091825844229558,0.4350000000000003,0.0,0.0,0.0,0.0,-0.18614521869529427
1666091825894181809,0.4500000000000003,0.0,0.0,0.0,0.0,-0.18378125414468557
1666091825943874591,0.4650000000000003,0.0,0.0,0.0,0.0,-0.18141728959407688
1666091825993964767,0.4800000000000003,0.0,0.0,0.0,0.0,-0.1790533250434682
1666091826044861875,0.49500000000000033,0.0,0.0,0.0,0.0,-0.17695396099468083
1666091826094150641,0.5100000000000003,0.0,0.0,0.0,0.0,-0.17498599468390608
1666091826143811659,0.5250000000000004,0.0,0.0,0.0,0.0,-0.17302549556682117
1666091826193892715,0.5400000000000004,0.0,0.0,0.0,0.0,-0.17106499644973627
1666091826243949154,0.5550000000000004,0.0,0.0,0.0,0.0,-0.17130353679172136
1666091826294142902,0.5700000000000004,0.0,0.0,0.0,0.0,-0.17155240687285175
1666091826343744797,0.5850000000000004,0.0,0.0,0.0,0.0,-0.17180127695398215
1666091826393815276,0.6000000000000004,0.0,0.0,0.0,0.0,-0.17205014703511254
1666091826444172723,0.6150000000000004,0.0,0.0,0.0,0.0,-0.17229901711624293
1666091826494162573,0.6300000000000004,0.0,0.0,0.0,0.0,-0.19014812319231392
1666091826544405743,0.6450000000000005,0.0,0.0,0.0,0.0,-0.2112367612806151
1666091826593794348,0.6600000000000005,0.0,0.0,0.0,0.0,-0.2323253993689163
1666091826645660531,0.6750000000000005,0.0,0.0,0.0,0.0,-0.2611803371402597
1666091826693995350,0.6900000000000005,0.0,0.0,0.0,0.0,-0.2900352749116031
1666091826744932416,0.6765987873077393,0.0,0.0,0.0,0.0,-0.3490658503988664
1666091826793972037,0.6765987873077393,0.0,0.0,0.0,0.0,-0.3490658503988664
1666091826843845358,0.6327983736991881,0.0,0.0,0.0,0.0,-0.3490658503988664
1666091826898346509,0.5602534413337708,0.0,0.0,0.0,0.0,-0.17453292519943345
1666091826943701252,0.5602534413337708,0.0,0.0,0.0,0.0,-0.17453292519943345
1666091826994434724,0.574344515800476,0.0,0.0,0.0,0.0,-0.17950712144374847
1666091827043753260,0.574344515800476,0.0,0.0,0.0,0.0,-0.17950712144374847
1666091827094308974,0.5354786515235901,0.0,0.0,0.0,0.0,-0.17878662049770355
1666091827144465542,0.5074642896652222,0.0,0.0,0.0,0.0,-0.17878691852092743
1666091827194329927,0.5074642896652222,0.0,0.0,0.0,0.0,-0.17878691852092743
1666091827243853782,0.5074642896652222,0.0,0.0,0.0,0.0,-0.17878691852092743
1666091827294365247,0.4720784127712249,0.0,0.0,0.0,0.0,-0.1770542412996292
1666091827344722004,0.4720784127712249,0.0,0.0,0.0,0.0,-0.1770542412996292
1666091827396566521,0.4378204047679901,0.0,0.0,0.0,0.0,-0.17597100138664246
1666091827443769448,0.30483159422874445,0.0,0.0,0.0,0.0,-0.06467105448246002
1666091827493867668,0.30483159422874445,0.0,0.0,0.0,0.0,-0.06467105448246002
1666091827544224965,0.25566137584512955,0.0,0.0,0.0,0.0,-0.16467105448246003
1666091827593777186,0.20649115746151464,0.0,0.0,0.0,0.0,-0.26467105448246003
1666091827643944763,0.16032630270609505,0.0,0.0,0.0,0.0,-0.36467105448246007
1666091827694600235,0.11227139328685262,0.0,0.0,0.0,0.0,-0.46467105448246004
1666091827743797075,0.06421648386761021,0.0,0.0,0.0,0.0,-0.56467105448246
1666091827793812370,0.02788402886372772,0.0,0.0,0.0,0.0,-0.66467105448246
1666091827844380849,0.0,0.0,0.0,0.0,0.0,-0.7584824936726835
1666091827893765099,0.0,0.0,0.0,0.0,0.0,-0.7584824936726835
1666091827943705452,0.0,0.0,0.0,0.0,0.0,-0.8089496441574836
1666091827994973603,0.0,0.0,0.0,0.0,0.0,-0.7916221594360368
1666091828043861325,0.0,0.0,0.0,0.0,0.0,-0.7916221594360368
1666091828093969526,0.0,0.0,0.0,0.0,0.0,-0.8149239543942531
1666091828144203003,0.015,0.0,0.0,0.0,0.0,-0.7917748171606023
1666091828194447645,0.03,0.0,0.0,0.0,0.0,-0.7545248518564577
1666091828244205914,0.045,0.0,0.0,0.0,0.0,-0.7171791418215363
1666091828293916293,0.06,0.0,0.0,0.0,0.0,-0.6798334317866149
1666091828343883264,0.075,0.0,0.0,0.0,0.0,-0.6613343482759978
1666091828395758583,0.09,0.0,0.0,0.0,0.0,-0.6440765501317459
1666091828443931205,0.105,0.0,0.0,0.0,0.0,-0.626818751987494
1666091828494020099,0.12,0.0,0.0,0.0,0.0,-0.6105576968618459
1666091828544071486,0.135,0.0,0.0,0.0,0.0,-0.5942966417361978
1666091828593797598,0.15000000000000002,0.0,0.0,0.0,0.0,-0.5793748813202192
1666091828643761604,0.16500000000000004,0.0,0.0,0.0,0.0,-0.5650629698091785
1666091828694109090,0.18000000000000005,0.0,0.0,0.0,0.0,-0.5510710580360355
1666091828743821563,0.19500000000000006,0.0,0.0,0.0,0.0,-0.5370791462628925
1666091828794253175,0.21000000000000008,0.0,0.0,0.0,0.0,-0.5230872344897496
1666091828843972523,0.2250000000000001,0.0,0.0,0.0,0.0,-0.509593388240261
1666091828893969863,0.2400000000000001,0.0,0.0,0.0,0.0,-0.49609954199077244
1666091828943807620,0.2550000000000001,0.0,0.0,0.0,0.0,-0.4834671520355199
1666091828993834108,0.27000000000000013,0.0,0.0,0.0,0.0,-0.4711031909409726
1666091829044251208,0.28500000000000014,0.0,0.0,0.0,0.0,-0.4525181879238135
1666091829094065322,0.30000000000000016,0.0,0.0,0.0,0.0,-0.4339331849066544
1666091829143978428,0.31500000000000017,0.0,0.0,0.0,0.0,-0.4153481818894953
1666091829193939831,0.3300000000000002,0.0,0.0,0.0,0.0,-0.40354003175033004
1666091829243864892,0.3450000000000002,0.0,0.0,0.0,0.0,-0.3917318816111648
1666091829293971144,0.3600000000000002,0.0,0.0,0.0,0.0,-0.37973064010284835
1666091829344249430,0.3750000000000002,0.0,0.0,0.0,0.0,-0.3677293985945319
1666091829394744584,0.39000000000000024,0.0,0.0,0.0,0.0,-0.35483441035880087
1666091829444864435,0.40500000000000025,0.0,0.0,0.0,0.0,-0.3414054274315266
1666091829494120565,0.42000000000000026,0.0,0.0,0.0,0.0,-0.3279764445042523
1666091829544210619,0.4350000000000003,0.0,0.0,0.0,0.0,-0.3134147545253918
1666091829593991419,0.4500000000000003,0.0,0.0,0.0,0.0,-0.29128714335642497
1666091829643978999,0.4650000000000003,0.0,0.0,0.0,0.0,-0.26915953218745814
1666091829694529462,0.4800000000000003,0.0,0.0,0.0,0.0,-0.2470319210184913
1666091829743789673,0.49500000000000033,0.0,0.0,0.0,0.0,-0.2275976065699125
1666091829793783077,0.5100000000000003,0.0,0.0,0.0,0.0,-0.1916626084286219
1666091829844018469,0.5250000000000004,0.0,0.0,0.0,0.0,-0.1555428794838264
1666091829903259461,0.5400000000000004,0.0,0.0,0.0,0.0,-0.11674474031136592
1666091829943844468,0.5550000000000004,0.0,0.0,0.0,0.0,-0.07420627598655374
1666091829996421848,0.5700000000000004,0.0,0.0,0.0,0.0,-0.031667811661741554
1666091830044426853,0.5850000000000004,0.0,0.0,0.0,0.0,0.010870652663070642
1666091830094058827,0.6000000000000004,0.0,0.0,0.0,0.0,0.056610479471130404
1666091830143973412,0.4500000000000004,0.0,0.0,0.0,0.0,0.091987213189621
1666091830194027044,0.4650000000000004,0.0,0.0,0.0,0.0,0.11362552700467038
1666091830243828526,0.4800000000000004,0.0,0.0,0.0,0.0,0.13594662530319465
1666091830293891225,0.49500000000000044,0.0,0.0,0.0,0.0,0.15826772360171892
1666091830344018818,0.5100000000000005,0.0,0.0,0.0,0.0,0.18197821126757702
1666091830394117134,0.5250000000000005,0.0,0.0,0.0,0.0,0.20732084852303112
1666091830444757917,0.5400000000000005,0.0,0.0,0.0,0.0,0.23676250878149538
1666091830494088573,0.5550000000000005,0.0,0.0,0.0,0.0,0.26620416903995964
1666091830544538521,0.5700000000000005,0.0,0.0,0.0,0.0,0.31257777486065197
1666091830594969291,0.5818024277687073,0.0,0.0,0.0,0.0,0.3490658503988654
1666091830644156857,0.5760118616922622,0.0,0.0,0.0,0.0,0.4490658503988654
1666091830693988315,0.42601186169226213,0.0,0.0,0.0,0.0,0.3625555297662727
1666091830744711154,0.2760118616922621,0.0,0.0,0.0,0.0,0.2760452091336801
1666091830794000063,0.12601186169226208,0.0,0.0,0.0,0.0,0.1895348885010874
1666091830844701281,0.12089742505731707,0.0,0.0,0.0,0.0,0.28953488850108744
1666091830894278379,0.11578298842237206,0.0,0.0,0.0,0.0,0.3895348885010874
1666091830944496405,0.13078298842237207,0.0,0.0,0.0,0.0,0.3813164277098148
1666091830993896159,0.14578298842237208,0.0,0.0,0.0,0.0,0.3727577408381507
1666091831043744196,0.1607829884223721,0.0,0.0,0.0,0.0,0.36419905396648666
1666091831094127082,0.1757829884223721,0.0,0.0,0.0,0.0,0.35511595264141427
1666091831144465230,0.19078298842237212,0.0,0.0,0.0,0.0,0.3463382957240554
1666091831193764845,0.20578298842237214,0.0,0.0,0.0,0.0,0.3375606388066965
1666091831243945731,0.22078298842237215,0.0,0.0,0.0,0.0,0.3279402657817104
1666091831293875035,0.23578298842237216,0.0,0.0,0.0,0.0,0.3191248616946776
1666091831344247573,0.2507829884223722,0.0,0.0,0.0,0.0,0.30995055179929554
1666091831393950041,0.2657829884223722,0.0,0.0,0.0,0.0,0.3007762419039135
1666091831444923646,0.2807829884223722,0.0,0.0,0.0,0.0,0.2920726837608676
1666091831494091067,0.2957829884223722,0.0,0.0,0.0,0.0,0.27860033792681826
1666091831543887969,0.31078298842237223,0.0,0.0,0.0,0.0,0.26512799209276894
1666091831593892899,0.32578298842237224,0.0,0.0,0.0,0.0,0.25828038939415165
1666091831643742955,0.34078298842237226,0.0,0.0,0.0,0.0,0.2517248035154492
1666091831694034387,0.35578298842237227,0.0,0.0,0.0,0.0,0.2451692176367467
1666091831743921075,0.3707829884223723,0.0,0.0,0.0,0.0,0.23878868617085758
1666091831794009169,0.3857829884223723,0.0,0.0,0.0,0.0,0.23240815470496845
1666091831843885061,0.4007829884223723,0.0,0.0,0.0,0.0,0.226316548115119
1666091831893822417,0.4157829884223723,0.0,0.0,0.0,0.0,0.22022494152526956
1666091831943798916,0.43078298842237234,0.0,0.0,0.0,0.0,0.21425340829467332
1666091831993776358,0.44578298842237235,0.0,0.0,0.0,0.0,0.20828187506407708
1666091832044027239,0.46078298842237236,0.0,0.0,0.0,0.0,0.20231034183348084
1666091832093775784,0.4757829884223724,0.0,0.0,0.0,0.0,0.19745308093660424
1666091832144591328,0.4907829884223724,0.0,0.0,0.0,0.0,0.19254654854126987
1666091832194316772,0.5057829884223723,0.0,0.0,0.0,0.0,0.1876400161459355
1666091832243857925,0.5161007046699524,0.0,0.0,0.0,0.0,0.17453292519943245
1666091832293795278,0.5061681866645813,0.0,0.0,0.0,0.0,0.17453292519943245
1666091832343896248,0.5061681866645813,0.0,0.0,0.0,0.0,0.17453292519943245
1666091832393931887,0.4908365309238434,0.0,0.0,0.0,0.0,0.17453292519943245
1666091832443769275,0.4908365309238434,0.0,0.0,0.0,0.0,0.17453292519943245
1666091832494324640,0.46270808577537537,0.0,0.0,0.0,0.0,0.17453292519943245
1666091832543856215,0.4626370072364807,0.0,0.0,0.0,0.0,0.17453292519943245
1666091832594260689,0.4562675654888153,0.0,0.0,0.0,0.0,0.17453292519943245
1666091832643829055,0.4562675654888153,0.0,0.0,0.0,0.0,0.17453292519943245
1666091832694051655,0.4415725171566009,0.0,0.0,0.0,0.0,0.17453292519943245
1666091832743822081,0.4415725171566009,0.0,0.0,0.0,0.0,0.17453292519943245
1666091832796153912,0.43534649236962164,0.0,0.0,0.0,0.0,0.27453292519943245
1666091832843782529,0.40576428174972534,0.0,0.0,0.0,0.0,0.3490658503988654
1666091832893740434,0.40576428174972534,0.0,0.0,0.0,0.0,0.3490658503988654
1666091832943741412,0.40576428174972534,0.0,0.0,0.0,0.0,0.3490658503988654
1666091832994750277,0.38808810710906977,0.0,0.0,0.0,0.0,0.3490658503988654
1666091833043966510,0.38808810710906977,0.0,0.0,0.0,0.0,0.3490658503988654
1666091833094130622,0.38808810710906977,0.0,0.0,0.0,0.0,0.3490658503988654
1666091833143811671,0.37535187602043146,0.0,0.0,0.0,0.0,0.3490658503988654
1666091833194260199,0.34770822525024414,0.0,0.0,0.0,0.0,0.3490658503988654
1666091833243784795,0.19770822525024412,0.0,0.0,0.0,0.0,0.34384158887615973
1666091833293894210,0.047708225250244096,0.0,0.0,0.0,0.0,0.33861732735345407
1666091833343757331,0.0,0.0,0.0,0.0,0.0,0.33695572571684457
1666091833394192206,0.0,0.0,0.0,0.0,0.0,0.3702670697228907
1666091833444340270,0.0,0.0,0.0,0.0,0.0,0.3702670697228907
1666091833494429270,0.0,0.0,0.0,0.0,0.0,0.3798127053744605
1666091833543938034,0.0,0.0,0.0,0.0,0.0,0.3798127053744605
1666091833593724240,0.0,0.0,0.0,0.0,0.0,0.3798127053744605
1666091833643821244,0.0,0.0,0.0,0.0,0.0,0.42438783449143985
1666091833694674426,0.0,0.0,0.0,0.0,0.0,0.4184881326539485
1666091833743832733,0.0,0.0,0.0,0.0,0.0,0.42048892467900184
1666091833793772024,0.0,0.0,0.0,0.0,0.0,0.41674180303135516
1666091833843805360,0.0,0.0,0.0,0.0,0.0,0.41674180303135516
1666091833894370610,0.015,0.0,0.0,0.0,0.0,0.42118660998397817
1666091833943709932,0.03,0.0,0.0,0.0,0.0,0.4256314169366011
1666091833994659714,0.045,0.0,0.0,0.0,0.0,0.4297599286019999
1666091834043835460,0.06,0.0,0.0,0.0,0.0,0.4338884402673987
1666091834093806383,0.075,0.0,0.0,0.0,0.0,0.43760387652053434
1666091834144094642,0.09,0.0,0.0,0.0,0.0,0.4411022450293485
1666091834193712332,0.105,0.0,0.0,0.0,0.0,0.4446006135381627
1666091834243876463,0.12,0.0,0.0,0.0,0.0,0.44795697407097107
1666091834293744530,0.135,0.0,0.0,0.0,0.0,0.4513133346037794
1666091834344096230,0.15000000000000002,0.0,0.0,0.0,0.0,0.4544591202334946
1666091834394125981,0.16500000000000004,0.0,0.0,0.0,0.0,0.45752103182176945
1666091834443769354,0.18000000000000005,0.0,0.0,0.0,0.0,0.4605829434100443
1666091834493732753,0.19500000000000006,0.0,0.0,0.0,0.0,0.46364485499831914
1666091834544150777,0.21000000000000008,0.0,0.0,0.0,0.0,0.46650996500103536
1666091834594045476,0.2250000000000001,0.0,0.0,0.0,0.0,0.4693235785346053
1666091834643754588,0.2400000000000001,0.0,0.0,0.0,0.0,0.4721371920681753
1666091834693950935,0.2550000000000001,0.0,0.0,0.0,0.0,0.4656160294579701
1666091834744015795,0.27000000000000013,0.0,0.0,0.0,0.0,0.4595080722948791
1666091834793766392,0.28500000000000014,0.0,0.0,0.0,0.0,0.45340011513178813
1666091834844365688,0.30000000000000016,0.0,0.0,0.0,0.0,0.4480550258692579
1666091834893777283,0.31500000000000017,0.0,0.0,0.0,0.0,0.44270993660672764
1666091834944086417,0.3300000000000002,0.0,0.0,0.0,0.0,0.43811228427310994
1666091834993894988,0.3450000000000002,0.0,0.0,0.0,0.0,0.4240738120718697
1666091835043746036,0.3600000000000002,0.0,0.0,0.0,0.0,0.4100353398706295
1666091835093731697,0.3750000000000002,0.0,0.0,0.0,0.0,0.3959968676693893
1666091835144281855,0.39000000000000024,0.0,0.0,0.0,0.0,0.38204203933903413
1666091835194086909,0.40500000000000025,0.0,0.0,0.0,0.0,0.36808721100867897
1666091835243928963,0.42000000000000026,0.0,0.0,0.0,0.0,0.34907770464656823
1666091835293755038,0.4350000000000003,0.0,0.0,0.0,0.0,0.32873148030526933
1666091835343763914,0.4500000000000003,0.0,0.0,0.0,0.0,0.3083852559639704
1666091835395142497,0.4650000000000003,0.0,0.0,0.0,0.0,0.2880390316226714
1666091835444614326,0.4800000000000003,0.0,0.0,0.0,0.0,0.25525367875574567
1666091835493811085,0.49500000000000033,0.0,0.0,0.0,0.0,0.21857880896154713
1666091835543823853,0.5100000000000003,0.0,0.0,0.0,0.0,0.15716068109210773
1666091835594127595,0.5250000000000004,0.0,0.0,0.0,0.0,0.09574255322266831
1666091835644123795,0.5400000000000004,0.0,0.0,0.0,0.0,0.034324425353228875
1666091835694019419,0.5550000000000004,0.0,0.0,0.0,0.0,0.012530968617204027
1666091835743767228,0.5700000000000004,0.0,0.0,0.0,0.0,-0.009262488118820827
1666091835793896804,0.5850000000000004,0.0,0.0,0.0,0.0,-0.07168498814574328
1666091835844009549,0.6000000000000004,0.0,0.0,0.0,0.0,-0.13429896886407816
1666091835893996505,0.6150000000000004,0.0,0.0,0.0,0.0,-0.16493681195429646
1666091835944125661,0.619698166847229,0.0,0.0,0.0,0.0,-0.17453292519943345
1666091835994457156,0.6235545873641967,0.0,0.0,0.0,0.0,-0.17453292519943345
1666091836044033923,0.6235545873641967,0.0,0.0,0.0,0.0,-0.17453292519943345
1666091836094928634,0.6235545873641967,0.0,0.0,0.0,0.0,-0.17453292519943345
1666091836143781763,0.6227785348892211,0.0,0.0,0.0,0.0,-0.17453292519943345
1666091836194751978,0.6009365916252136,0.0,0.0,0.0,0.0,-0.17453292519943345
1666091836244464494,0.6136956810951233,0.0,0.0,0.0,0.0,-0.17453292519943345
1666091836293825585,0.6136956810951233,0.0,0.0,0.0,0.0,-0.17453292519943345
1666091836344136564,0.605652928352356,0.0,0.0,0.0,0.0,-0.17453292519943345
1666091836394027493,0.605652928352356,0.0,0.0,0.0,0.0,-0.17453292519943345
1666091836444120024,0.573523223400116,0.0,0.0,0.0,0.0,-0.17453292519943345
1666091836493768292,0.573523223400116,0.0,0.0,0.0,0.0,-0.17453292519943345
1666091836544014271,0.5542151927947998,0.0,0.0,0.0,0.0,-0.08021493256092072
1666091836593842118,0.5542151927947998,0.0,0.0,0.0,0.0,-0.08021493256092072
1666091836644017826,0.5085573792457581,0.0,0.0,0.0,0.0,-0.07242459803819656
1666091836694743310,0.5099789500236511,0.0,0.0,0.0,0.0,-0.07235478609800339
1666091836743848023,0.4843751788139343,0.0,0.0,0.0,0.0,-0.06902064383029938
1666091836794520224,0.46060267090797424,0.0,0.0,0.0,0.0,-0.06555695086717606
1666091836843762153,0.46060267090797424,0.0,0.0,0.0,0.0,-0.06555695086717606
1666091836893881586,0.43529099225997925,0.0,0.0,0.0,0.0,-4.996003610813204e-16
1666091836943876092,0.43529099225997925,0.0,0.0,0.0,0.0,-4.996003610813204e-16
1666091836994067356,0.38509848713874817,0.0,0.0,0.0,0.0,-4.996003610813204e-16
1666091837043865347,0.23509848713874815,0.0,0.0,0.0,0.0,-4.996003610813204e-16
1666091837093743195,0.08509848713874812,0.0,0.0,0.0,0.0,-4.996003610813204e-16
1666091837144112627,0.0,0.0,0.0,0.0,0.0,-4.996003610813204e-16
1666091837193948653,0.0,0.0,0.0,0.0,0.0,-4.996003610813204e-16
1666091837243918308,0.0,0.0,0.0,0.0,0.0,-4.996003610813204e-16
1666091837293825732,0.0,0.0,0.0,0.0,0.0,-4.996003610813204e-16
1666091837343756717,0.0,0.0,0.0,0.0,0.0,-4.996003610813204e-16
1666091837393796809,0.0,0.0,0.0,0.0,0.0,-4.996003610813204e-16
1666091837444154006,0.0,0.0,0.0,0.0,0.0,-4.996003610813204e-16
1666091837494017250,0.0,0.0,0.0,0.0,0.0,-4.996003610813204e-16
1666091837543957555,0.0,0.0,0.0,0.0,0.0,-4.996003610813204e-16
1666091837593771500,0.0,0.0,0.0,0.0,0.0,-4.996003610813204e-16
1666091837643835270,0.0,0.0,0.0,0.0,0.0,-4.996003610813204e-16
1666091837693834052,0.0,0.0,0.0,0.0,0.0,-4.996003610813204e-16
1666091837744151296,0.0,0.0,0.0,0.0,0.0,-4.996003610813204e-16
1666091837794052138,0.0,0.0,0.0,0.0,0.0,-4.996003610813204e-16
1666091837844279568,0.0,0.0,0.0,0.0,0.0,-4.996003610813204e-16
1666091837893909809,0.0,0.0,0.0,0.0,0.0,-4.996003610813204e-16
1666091837944589799,0.0,0.0,0.0,0.0,0.0,-4.996003610813204e-16
1666091837993770782,0.0,0.0,0.0,0.0,0.0,-4.996003610813204e-16
1666091838044012958,0.0,0.0,0.0,0.0,0.0,-4.996003610813204e-16
1666091838093770424,0.0,0.0,0.0,0.0,0.0,-4.996003610813204e-16
1666091838144059058,0.0,0.0,0.0,0.0,0.0,-4.996003610813204e-16
1666091838193940252,0.0,0.0,0.0,0.0,0.0,-4.996003610813204e-16
1666091838244126958,0.0,0.0,0.0,0.0,0.0,-4.996003610813204e-16
1666091838294146524,0.0,0.0,0.0,0.0,0.0,-4.996003610813204e-16
1666091838345534892,0.0,0.0,0.0,0.0,0.0,-4.996003610813204e-16
1666091838394046595,0.015,0.0,0.0,0.0,0.0,-4.996003610813204e-16
1666091838443841480,0.03,0.0,0.0,0.0,0.0,-4.996003610813204e-16
1666091838495405979,0.045,0.0,0.0,0.0,0.0,0.0022683639721471074
1666091838543944019,0.06,0.0,0.0,0.0,0.0,0.004536727944294714
1666091838593975466,0.075,0.0,0.0,0.0,0.0,0.0067619543334043524
1666091838643983084,0.09,0.0,0.0,0.0,0.0,0.006503790839749054
1666091838696256591,0.105,0.0,0.0,0.0,0.0,0.006250242434631374
1666091838743873896,0.12,0.0,0.0,0.0,0.0,0.005996694029513694
1666091838794820266,0.135,0.0,0.0,0.0,0.0,0.005754069358695332
1666091838844228841,0.15000000000000002,0.0,0.0,0.0,0.0,0.00551144468787697
1666091838893853851,0.16500000000000004,0.0,0.0,0.0,0.0,0.00527434777770019
1666091838944395117,0.18000000000000005,0.0,0.0,0.0,0.0,0.005038585064581717
1666091838993883233,0.19500000000000006,0.0,0.0,0.0,0.0,0.004802822351463243
1666091839044283764,0.21000000000000008,0.0,0.0,0.0,0.0,0.0045670596383447695
1666091839093824141,0.2250000000000001,0.0,0.0,0.0,0.0,0.004332589857384002
1666091839144239357,0.2400000000000001,0.0,0.0,0.0,0.0,0.004101023444274479
1666091839193807957,0.2550000000000001,0.0,0.0,0.0,0.0,0.0038694570311649554
1666091839244006975,0.27000000000000013,0.0,0.0,0.0,0.0,0.003634057843003448
1666091839293807951,0.28500000000000014,0.0,0.0,0.0,0.0,0.0033986586548419404
1666091839344457196,0.30000000000000016,0.0,0.0,0.0,0.0,0.0075779343845087475
1666091839394397685,0.31500000000000017,0.0,0.0,0.0,0.0,0.006992518621038225
1666091839443810808,0.3300000000000002,0.0,0.0,0.0,0.0,0.006379211415235528
1666091839493868190,0.3450000000000002,0.0,0.0,0.0,0.0,0.005765904209432832
1666091839543999384,0.3600000000000002,0.0,0.0,0.0,0.0,0.005101357997342473
1666091839593791887,0.3750000000000002,0.0,0.0,0.0,0.0,0.004436811785252114
1666091839643911605,0.39000000000000024,0.0,0.0,0.0,0.0,0.0035218635795986417
1666091839693802139,0.40500000000000025,0.0,0.0,0.0,0.0,0.002606915373945169
1666091839743924860,0.42000000000000026,0.0,0.0,0.0,0.0,0.0011680256310204614
1666091839794517342,0.4321763217449188,0.0,0.0,0.0,0.0,-4.996003610813204e-16
1666091839844128415,0.4008634388446808,0.0,0.0,0.0,0.0,-4.996003610813204e-16
1666091839894081924,0.40001049637794495,0.0,0.0,0.0,0.0,-4.996003610813204e-16
1666091839943947372,0.2500104963779449,0.0,0.0,0.0,0.0,-4.996003610813204e-16
1666091839994392871,0.1000104963779449,0.0,0.0,0.0,0.0,-4.996003610813204e-16
1666091840043857122,0.0,0.0,0.0,0.0,0.0,-4.996003610813204e-16
1666091840094202099,0.0,0.0,0.0,0.0,0.0,-4.996003610813204e-16
1666091840144054422,0.0,0.0,0.0,0.0,0.0,-4.996003610813204e-16
1666091840193906247,0.0,0.0,0.0,0.0,0.0,-4.996003610813204e-16
1666091840244017061,0.0,0.0,0.0,0.0,0.0,-4.996003610813204e-16
1666091840294136730,0.0,0.0,0.0,0.0,0.0,-4.996003610813204e-16
1666091840343976407,0.0,0.0,0.0,0.0,0.0,-4.996003610813204e-16
1666091840393735661,0.0,0.0,0.0,0.0,0.0,-4.996003610813204e-16
1666091840444292388,0.0,0.0,0.0,0.0,0.0,-4.996003610813204e-16
1666091840493797348,0.0,0.0,0.0,0.0,0.0,-4.996003610813204e-16
1666091840544066581,0.0,0.0,0.0,0.0,0.0,-4.996003610813204e-16
1666091840593762554,0.0,0.0,0.0,0.0,0.0,-4.996003610813204e-16
1666091840644055960,0.0,0.0,0.0,0.0,0.0,-4.996003610813204e-16
1666091840694072033,0.0,0.0,0.0,0.0,0.0,-4.996003610813204e-16
1666091840744046876,0.0,0.0,0.0,0.0,0.0,-4.996003610813204e-16
1666091840794141928,0.0,0.0,0.0,0.0,0.0,-4.996003610813204e-16
1666091840843865532,0.0,0.0,0.0,0.0,0.0,-4.996003610813204e-16
1666091840893948738,0.0,0.0,0.0,0.0,0.0,-4.996003610813204e-16
1666091840944283440,0.0,0.0,0.0,0.0,0.0,-4.996003610813204e-16
1666091840993810830,0.0,0.0,0.0,0.0,0.0,-4.996003610813204e-16
1666091841043775322,0.0,0.0,0.0,0.0,0.0,-4.996003610813204e-16
1666091841093786972,0.0,0.0,0.0,0.0,0.0,-4.996003610813204e-16
1666091841144097430,0.0,0.0,0.0,0.0,0.0,-4.996003610813204e-16
1666091841194143805,0.0,0.0,0.0,0.0,0.0,-4.996003610813204e-16
1666091841243728232,0.0,0.0,0.0,0.0,0.0,-4.996003610813204e-16
1666091841293884678,0.0,0.0,0.0,0.0,0.0,-4.996003610813204e-16
1666091841344476950,0.0,0.0,0.0,0.0,0.0,-4.996003610813204e-16
1666091841393766741,0.0,0.0,0.0,0.0,0.0,-4.996003610813204e-16
1666091841443777897,0.0,0.0,0.0,0.0,0.0,-4.996003610813204e-16
1666091841494126256,0.0,0.0,0.0,0.0,0.0,-4.996003610813204e-16
1666091841543778685,0.0,0.0,0.0,0.0,0.0,-4.996003610813204e-16
1666091841593747955,0.0,0.0,0.0,0.0,0.0,-4.996003610813204e-16
1666091841644521789,0.0,0.0,0.0,0.0,0.0,-4.996003610813204e-16
1666091841693764711,0.0,0.0,0.0,0.0,0.0,-4.996003610813204e-16
1666091841744058747,0.0,0.0,0.0,0.0,0.0,-4.996003610813204e-16
1666091841794312201,0.0,0.0,0.0,0.0,0.0,-4.996003610813204e-16
1666091841844118174,0.0,0.0,0.0,0.0,0.0,-4.996003610813204e-16
1666091841893989859,0.0,0.0,0.0,0.0,0.0,-4.996003610813204e-16
1666091841944238388,0.0,0.0,0.0,0.0,0.0,-4.996003610813204e-16
1666091841993942624,0.0,0.0,0.0,0.0,0.0,-4.996003610813204e-16
1666091842043922756,0.0,0.0,0.0,0.0,0.0,-4.996003610813204e-16
1666091842093859987,0.0,0.0,0.0,0.0,0.0,-4.996003610813204e-16
1666091842143807903,0.0,0.0,0.0,0.0,0.0,-4.996003610813204e-16
1666091842194139660,0.0,0.0,0.0,0.0,0.0,-4.996003610813204e-16
1666091842244783532,0.0,0.0,0.0,0.0,0.0,-4.996003610813204e-16
1666091842294433360,0.0,0.0,0.0,0.0,0.0,-4.996003610813204e-16
1666091842344438274,0.0,0.0,0.0,0.0,0.0,-4.996003610813204e-16
1666091842393946824,0.0,0.0,0.0,0.0,0.0,-4.996003610813204e-16
1666091842443841209,0.0,0.0,0.0,0.0,0.0,-4.996003610813204e-16
1666091842493798711,0.0,0.0,0.0,0.0,0.0,-4.996003610813204e-16
1666091842548637993,0.0,0.0,0.0,0.0,0.0,-4.996003610813204e-16
1666091842593719286,0.0,0.0,0.0,0.0,0.0,-4.996003610813204e-16
1666091842643981752,0.0,0.0,0.0,0.0,0.0,-4.996003610813204e-16
1666091842693848805,0.0,0.0,0.0,0.0,0.0,-4.996003610813204e-16
1666091842743753238,0.0,0.0,0.0,0.0,0.0,-4.996003610813204e-16
1666091842794008590,0.0,0.0,0.0,0.0,0.0,-4.996003610813204e-16
1666091842844364888,0.0,0.0,0.0,0.0,0.0,-4.996003610813204e-16
1666091842893814206,0.0,0.0,0.0,0.0,0.0,-4.996003610813204e-16
1666091842944210917,0.0,0.0,0.0,0.0,0.0,-4.996003610813204e-16
1666091842994120696,0.0,0.0,0.0,0.0,0.0,-4.996003610813204e-16
1666091843044030678,0.0,0.0,0.0,0.0,0.0,-4.996003610813204e-16
1666091843094318217,0.0,0.0,0.0,0.0,0.0,-4.996003610813204e-16
1666091843143970241,0.0,0.0,0.0,0.0,0.0,-4.996003610813204e-16
1666091843193904727,0.0,0.0,0.0,0.0,0.0,-4.996003610813204e-16
1666091843244055734,0.0,0.0,0.0,0.0,0.0,-4.996003610813204e-16
1666091843294427354,0.0,0.0,0.0,0.0,0.0,-4.996003610813204e-16
1666091843344126621,0.0,0.0,0.0,0.0,0.0,-4.996003610813204e-16
1666091843393793784,0.0,0.0,0.0,0.0,0.0,-4.996003610813204e-16
1666091843443757328,0.0,0.0,0.0,0.0,0.0,-4.996003610813204e-16
1666091843493830389,0.0,0.0,0.0,0.0,0.0,-4.996003610813204e-16
1666091843546206907,0.0,0.0,0.0,0.0,0.0,-4.996003610813204e-16
1666091843594124217,0.0,0.0,0.0,0.0,0.0,-4.996003610813204e-16
1666091843644320259,0.0,0.0,0.0,0.0,0.0,-4.996003610813204e-16
1666091843694161097,0.0,0.0,0.0,0.0,0.0,-4.996003610813204e-16
1666091843747552490,0.0,0.0,0.0,0.0,0.0,-4.996003610813204e-16
1666091843793977436,0.0,0.0,0.0,0.0,0.0,-4.996003610813204e-16
1666091843843954412,0.0,0.0,0.0,0.0,0.0,-4.996003610813204e-16
1666091843893940132,0.0,0.0,0.0,0.0,0.0,-4.996003610813204e-16
1666091843943908768,0.0,0.0,0.0,0.0,0.0,-4.996003610813204e-16
1666091843994414046,0.0,0.0,0.0,0.0,0.0,-4.996003610813204e-16
1666091844044359312,0.0,0.0,0.0,0.0,0.0,-4.996003610813204e-16
1666091844093822202,0.0,0.0,0.0,0.0,0.0,-4.996003610813204e-16
1666091844145865022,0.0,0.0,0.0,0.0,0.0,-4.996003610813204e-16
1666091844193756316,0.0,0.0,0.0,0.0,0.0,-4.996003610813204e-16
1666091844243965868,0.0,0.0,0.0,0.0,0.0,-4.996003610813204e-16
1666091844294433555,0.0,0.0,0.0,0.0,0.0,-4.996003610813204e-16
1666091844344715518,0.0,0.0,0.0,0.0,0.0,-4.996003610813204e-16
1666091844394195118,0.0,0.0,0.0,0.0,0.0,-4.996003610813204e-16
1666091844444114272,0.0,0.0,0.0,0.0,0.0,-4.996003610813204e-16
1666091844494187794,0.0,0.0,0.0,0.0,0.0,-4.996003610813204e-16
1666091844550301211,0.0,0.0,0.0,0.0,0.0,-4.996003610813204e-16
1666091844594152373,0.0,0.0,0.0,0.0,0.0,-4.996003610813204e-16
1666091844643876626,0.0,0.0,0.0,0.0,0.0,-4.996003610813204e-16
1666091844693834613,0.0,0.0,0.0,0.0,0.0,-4.996003610813204e-16
1666091844743872567,0.0,0.0,0.0,0.0,0.0,-4.996003610813204e-16
1666091844794475726,0.0,0.0,0.0,0.0,0.0,-4.996003610813204e-16
1666091844844035340,0.0,0.0,0.0,0.0,0.0,-4.996003610813204e-16
1666091844893799092,0.0,0.0,0.0,0.0,0.0,-4.996003610813204e-16
1666091844944886871,0.015,0.0,0.0,0.0,0.0,0.006596477011528212
1666091844993799027,0.03,0.0,0.0,0.0,0.0,0.013192954023056924
1666091845044496186,0.045,0.0,0.0,0.0,0.0,0.019789961030064144
1666091845096908601,0.06,0.0,0.0,0.0,0.0,0.026386968037071364
1666091845144194258,0.075,0.0,0.0,0.0,0.0,0.03298397504407858
1666091845194772403,0.09,0.0,0.0,0.0,0.0,0.03961853193694793
1666091845244602796,0.0,0.0,0.0,0.0,0.0,-4.996003610813204e-16
1666091845294252956,0.0,0.0,0.0,0.0,0.0,-4.996003610813204e-16
1666091845343886796,0.0,0.0,0.0,0.0,0.0,-4.996003610813204e-16
1666091845394123918,0.0,0.0,0.0,0.0,0.0,-4.996003610813204e-16
1666091845443916108,0.0,0.0,0.0,0.0,0.0,-4.996003610813204e-16
1666091845493957552,0.0,0.0,0.0,0.0,0.0,-4.996003610813204e-16
1666091845544022181,0.0,0.0,0.0,0.0,0.0,-4.996003610813204e-16
1666091845593711051,0.0,0.0,0.0,0.0,0.0,-4.996003610813204e-16
1666091845644145826,0.0,0.0,0.0,0.0,0.0,-4.996003610813204e-16
1666091845694308163,0.0,0.0,0.0,0.0,0.0,-4.996003610813204e-16
1666091845744385491,0.0,0.0,0.0,0.0,0.0,-0.1000000000000005
1666091845793739359,0.0,0.0,0.0,0.0,0.0,-0.2000000000000005
1666091845844011790,0.0,0.0,0.0,0.0,0.0,-0.3000000000000005
1666091845894213027,0.0,0.0,0.0,0.0,0.0,-0.3172917785736705
1666091845944277866,0.0,0.0,0.0,0.0,0.0,-0.3638422900826791
1666091845993861834,0.0,0.0,0.0,0.0,0.0,-0.414820969375067
1666091846045140158,0.0,0.0,0.0,0.0,0.0,-0.414820969375067
1666091846093999664,0.0,0.0,0.0,0.0,0.0,-0.48999650911107834
1666091846144105307,0.0,0.0,0.0,0.0,0.0,-0.48999650911107834
1666091846193920010,0.0,0.0,0.0,0.0,0.0,-0.5348326667488909
1666091846244171295,0.0,0.0,0.0,0.0,0.0,-0.5348326667488909
1666091846294293765,0.0,0.0,0.0,0.0,0.0,-0.6316953127550955
1666091846344430027,0.0,0.0,0.0,0.0,0.0,-0.6316953127550955
1666091846394533155,0.0,0.0,0.0,0.0,0.0,-0.6380926104839294
1666091846445363685,0.0,0.0,0.0,0.0,0.0,-0.6194095449059905
1666091846494407731,0.0,0.0,0.0,0.0,0.0,-0.6194095449059905
1666091846544214592,0.0,0.0,0.0,0.0,0.0,-0.6031133823479785
