%time,field.x,field.y,field.z
1666091802941916936,0.7428026203694548,-1.3243297638144225,0.0
1666091803055157568,0.7374879781878168,-1.3495603585614078,0.0
1666091803122020956,0.7368970170400461,-1.3672305586859,0.0
1666091803191838320,0.7366558101426193,-1.3719740935005964,0.0
1666091803291904167,0.7703849411076881,-1.3559170245165197,0.0
1666091803293962468,0.766647181555081,-1.3778083050418455,0.0
1666091803366802808,0.766575339273864,-1.4018537070507227,0.0
1666091803514880651,0.7772307103700696,-1.3833937482223817,0.0
1666091803516100152,0.7843445664327158,-1.369583846474311,0.0
1666091803605525041,0.7756176131626644,-1.3642033387435475,0.0
1666091803679456178,0.774290637090442,-1.3623894219125057,0.0
1666091803782453007,0.7662189360913318,-1.372041075614764,0.0
1666091803878652226,0.7651705549707064,-1.37723935106894,0.0
1666091803953767176,0.7626770625007118,-1.3756633949989352,0.0
1666091804118144828,0.7579722944564777,-1.4016406612163557,0.0
1666091804153996538,0.7758437672581613,-1.381050513240937,0.0
1666091804279928327,0.7574376873103226,-1.4062401796830053,0.0
1666091804281989659,0.7772749400737711,-1.377301748171997,0.0
1666091804375811884,0.7675736408241436,-1.3872881676560218,0.0
1666091804439852235,0.7709946490357094,-1.3796686044977864,0.0
1666091804519345854,0.7535333035564447,-1.370069922834697,0.0
1666091804614842721,0.7481823458318779,-1.357581102561864,0.0
1666091804710665211,0.752482950365805,-1.333833537360614,0.0
1666091804806658645,0.7606498406255107,-1.314826306576897,0.0
1666091804922460882,0.7701914358182049,-1.2994655275989786,0.0
1666091805009903662,0.7914709674160249,-1.2814370907839971,0.0
1666091805081035821,0.8074250656033806,-1.2654821030511763,0.0
1666091805160844488,0.8218297466017006,-1.2497300013322357,0.0
1666091805162166108,0.8439938154139481,-1.2337989147675619,0.0
1666091805286260317,0.8481501028434693,-1.2293753635117022,0.0
1666091805375231492,0.8644841322755165,-1.2210949784433722,0.0
1666091805386404446,0.8774113799105363,-1.2147620642794226,0.0
1666091805455928279,0.8897939000290931,-1.209004734620407,0.0
1666091805515770524,0.8981771662941138,-1.205450732421494,0.0
1666091805661074780,0.9005369127413081,-1.2066576737111057,0.0
1666091805678382889,0.9027078997196196,-1.207098213575918,0.0
1666091805750467261,0.9021932453009878,-1.2086150733231293,0.0
1666091805892010150,0.8972358325188999,-1.2124916637151242,0.0
1666091805923905824,0.8919581274102191,-1.2153927913184117,0.0
1666091805989608894,0.886102145581796,-1.2188615979139263,0.0
1666091806053836313,0.8766121304777418,-1.2225231141155493,0.0
1666091806165668732,0.865716114686009,-1.2238611953478358,0.0
1666091806218781099,0.8546888276137494,-1.2248587139177263,0.0
1666091806349992147,0.8455423339885457,-1.227734385031755,0.0
1666091806351292641,0.835036813674007,-1.2316856584381108,0.0
1666091806459413314,0.8248424379522816,-1.2332116924802583,0.0
1666091806540647556,0.8117819940164923,-1.2334116217030298,0.0
1666091806583697884,0.7965397894140442,-1.230992780393923,0.0
1666091806678367245,0.7870349085808195,-1.2275005992767474,0.0
1666091806701024141,0.7667578066596771,-1.2090083532679414,0.0
1666091806787299750,0.7456686775459016,-1.187167966066811,0.0
1666091806836546436,0.7205853419149886,-1.1760711936634527,0.0
1666091806941665124,0.6942647113597729,-1.1720964012611212,0.0
1666091806994395348,0.6735166715177473,-1.170887876630652,0.0
1666091807085346150,0.6501039769346686,-1.1640448835119561,0.0
1666091807206738365,0.6246647812290553,-1.1576760645661643,0.0
1666091807255168574,0.6085299564584392,-1.1420345625246595,0.0
1666091807326149444,0.5917577452039269,-1.131145491718246,0.0
1666091807406925944,0.5700814096562443,-1.1233381542520933,0.0
1666091807450315439,0.5548385191576202,-1.1152435977924218,0.0
1666091807545244036,0.5346407648765359,-1.1095464581758692,0.0
1666091807634325603,0.5193359802635004,-1.102632234948686,0.0
1666091807676167029,0.5131134391795161,-1.0946417203410017,0.0
1666091807734868880,0.5062826509167401,-1.089541499777699,0.0
1666091807790156392,0.5007005305923743,-1.0852176131286688,0.0
1666091807863857379,0.4913495681941526,-1.0823595419060876,0.0
1666091807938061760,0.488058629870622,-1.079811350819327,0.0
1666091808038567285,0.48201787779230176,-1.0802539149806234,0.0
1666091808108347988,0.48199758891313216,-1.0803463625102556,0.0
1666091808167643934,0.483764874393513,-1.0824176461413955,0.0
1666091808249246926,0.48564905986168816,-1.0845142804406884,0.0
1666091808309428177,0.492017087056007,-1.0874582816246183,0.0
1666091808365753722,0.49938747209721257,-1.0910903410412058,0.0
1666091808427928760,0.5032871698927472,-1.0886670880773477,0.0
1666091808556454560,0.5032344906712929,-1.088641025153318,0.0
1666091808621116697,0.5104137691402482,-1.0896423584392487,0.0
1666091808700732002,0.5182064787333065,-1.0926401489013964,0.0
1666091808761331608,0.5298884550311967,-1.0980991608353716,0.0
1666091808802761202,0.5398200428380571,-1.1079107246391324,0.0
1666091808885014232,0.5510333208071266,-1.1280472959229506,0.0
1666091808967471328,0.5598863781821186,-1.1448638048916107,0.0
1666091809030747847,0.5708151906061201,-1.1702943136368105,0.0
1666091809082275827,0.5805735472319056,-1.1887792964962773,0.0
1666091809163586718,0.5879555194980364,-1.2080805853708179,0.0
1666091809278958760,0.5917850779931766,-1.2231247297827381,0.0
1666091809369175637,0.6010151200271925,-1.250132976875477,0.0
1666091809409624942,0.6079156528319809,-1.2706825190424063,0.0
1666091809473338643,0.5988142448679005,-1.2831992099707228,0.0
1666091809525263410,0.5924369619677796,-1.2954574814830184,0.0
1666091809601949509,0.5888543275299614,-1.3133474158132483,0.0
1666091809665458068,0.5858023788824841,-1.332372265974751,0.0
1666091809777558046,0.5789344021799373,-1.3417897115307047,0.0
1666091809814313009,0.572793276505192,-1.3494058499467925,0.0
1666091809936735062,0.5610027674888015,-1.3670096997768901,0.0
1666091809938689568,0.556099799067447,-1.3815551515558706,0.0
1666091810004985305,0.5488118566613959,-1.3923585711342663,0.0
1666091810120723122,0.5371104887764575,-1.4063320692579757,0.0
1666091810227351135,0.5229436021197496,-1.4194439804380194,0.0
1666091810333921560,0.5091850611021449,-1.4371502562646805,0.0
1666091810440867411,0.500822156914687,-1.4560907905912535,0.0
1666091810442754190,0.5043597587622506,-1.4731640223991795,0.0
1666091810528346217,0.4981881003312957,-1.4941939383394245,0.0
1666091810641035203,0.4873159123564418,-1.511249042020078,0.0
1666091810643705023,0.4930637883408999,-1.529411505980796,0.0
1666091810704880479,0.48959898135494034,-1.541606827784974,0.0
1666091810827607931,0.4795814236726299,-1.5594774437074612,0.0
1666091810894803745,0.48019294314910654,-1.5775295391637152,0.0
1666091810896049704,0.48869351636106495,-1.5910317838481438,0.0
1666091810958450376,0.48929993004985717,-1.613961063862917,0.0
1666091811063031114,0.4832472796483698,-1.6414381235990945,0.0
1666091811064991374,0.4938365714441497,-1.657315639638295,0.0
1666091811151117762,0.4985424579879735,-1.6869888353998532,0.0
1666091811239001563,0.5030010424166846,-1.717896369336895,0.0
1666091811307316896,0.5083918851093528,-1.7480452074696575,0.0
1666091811424724808,0.5122221028533427,-1.7836802720099842,0.0
1666091811525115631,0.5138308314519322,-1.8176208551598778,0.0
1666091811526636174,0.5172961977432288,-1.8276145514258475,0.0
1666091811619040011,0.5156366681072011,-1.8526926913314443,0.0
1666091811749922086,0.5118084086515547,-1.894779725359794,0.0
1666091811836931518,0.508426876697766,-1.922531839505873,0.0
1666091811838615986,0.5032574661132437,-1.9269633398766912,0.0
1666091811970315562,0.49946195788029996,-1.9688884912103295,0.0
1666091812053956263,0.5014816640083787,-1.9948850629684844,0.0
1666091812065267250,0.5012903191182164,-2.000326242170992,0.0
1666091812148458821,0.49327560321250685,-2.0255226501408754,0.0
1666091812256094536,0.49039282267298434,-2.0594207438520176,0.0
1666091812348851199,0.4898074601772398,-2.0959675027016704,0.0
1666091812426293259,0.48975165611411253,-2.1253498223652385,0.0
1666091812435022817,0.4881100762574966,-2.1230535458290323,0.0
1666091812512051765,0.4880434583978157,-2.1453116202683598,0.0
1666091812613917720,0.4906614194092504,-2.1793494228135253,0.0
1666091812687707168,0.4943703150876644,-2.20258248463181,0.0
1666091812768135908,0.49567914199694596,-2.223185389173575,0.0
1666091812867348509,0.5014681630760939,-2.24896075111369,0.0
1666091812997033317,0.5083245439667993,-2.2862432897346983,0.0
1666091812998270618,0.5030691074357351,-2.2614845837380306,0.0
1666091813097715994,0.5062289430413436,-2.287158265254174,0.0
1666091813161681059,0.5053300584578219,-2.294635425333799,0.0
1666091813272838698,0.5073108874417145,-2.335394463481011,0.0
1666091813368368322,0.5082104344917413,-2.3688219880025834,0.0
1666091813373136788,0.5010880962898866,-2.3643497276849583,0.0
1666091813451779520,0.49698049782891796,-2.3944258121267663,0.0
1666091813521712651,0.49265936513135666,-2.410705443002588,0.0
1666091813610786793,0.49080941504084374,-2.4376620074433912,0.0
1666091813685206731,0.486193052218281,-2.455591162702423,0.0
1666091813788236473,0.4837297009887198,-2.4865452881167336,0.0
1666091813842312766,0.47696583878870547,-2.493553173822969,0.0
1666091813965267194,0.47741662157202386,-2.5344201832279736,0.0
1666091814048594863,0.4741152250160481,-2.5374137963002052,0.0
1666091814155741864,0.46080653168246466,-2.5416924775311704,0.0
1666091814213531038,0.44379801076411823,-2.527221031155044,0.0
1666091814340778676,0.41777111206165773,-2.5183087117133676,0.0
1666091814342696700,0.42045092566014536,-2.52805875911506,0.0
1666091814448215326,0.38344926173656724,-2.521047114892405,0.0
1666091814508022617,0.37756797762466354,-2.5345907718796274,0.0
1666091814607162236,0.36193580553892,-2.534993030005504,0.0
1666091814654380105,0.3567386322600126,-2.5404914604239934,0.0
1666091814728979757,0.3410239889767793,-2.553984563829697,0.0
1666091814799073397,0.3573897943768392,-2.5843035067334625,0.0
1666091814860598560,0.3517289195585919,-2.595272756480141,0.0
1666091814926900977,0.3665746184013703,-2.621220032926553,0.0
1666091814997327208,0.36500545489035824,-2.6359383547451234,0.0
1666091815070703778,0.36099059899839014,-2.6562388749984756,0.0
1666091815171858803,0.3561711070441946,-2.689576151298891,0.0
1666091815266368586,0.36751082044747796,-2.7461277576987677,0.0
1666091815367373701,0.3757488286444185,-2.8010131843809116,0.0
1666091815463842161,0.3821175766843109,-2.848379515185616,0.0
1666091815503418967,0.4042434490408763,-2.8839030094166636,0.0
1666091815570639068,0.42223602761668766,-2.925776395096371,0.0
1666091815639738811,0.44065549369457224,-2.9593182170236494,0.0
1666091815753769865,0.432636773691168,-3.0041922746085854,0.0
1666091815838542864,0.4362664711941927,-3.038230355929577,0.0
1666091815940598618,0.4427813486021695,-3.0711422412722866,0.0
1666091816027193038,0.45138688290257784,-3.101006257695797,0.0
1666091816108588587,0.4655378034237693,-3.12611794088703,0.0
1666091816172908225,0.48129309062321335,-3.15286523064938,0.0
1666091816212251705,0.4936664654264776,-3.163870597843796,0.0
1666091816267024337,0.5026705293670441,-3.191130144387848,0.0
1666091816382699951,0.5034099950667044,-3.225642016274283,0.0
1666091816384727382,0.5129158590962959,-3.2143907395300344,0.0
1666091816498142222,0.5071538858768936,-3.2597947511600074,0.0
1666091816499773238,0.5158970245913935,-3.2501824664168897,0.0
1666091816617885832,0.5050186053386032,-3.2873087960933534,0.0
1666091816676357196,0.5022052414458862,-3.2990482147565574,0.0
1666091816740676160,0.49892461302110647,-3.308461637204833,0.0
1666091816790965261,0.4985870327376023,-3.3206743622098047,0.0
1666091816853917268,0.4976313222264949,-3.3343580968075583,0.0
1666091816925746153,0.49517449556959964,-3.3552427798049576,0.0
1666091817010455853,0.49150491259179174,-3.372012639852866,0.0
1666091817108984654,0.49244239359413927,-3.403161437435098,0.0
1666091817191066984,0.4949078030115471,-3.416815008608995,0.0
1666091817273117107,0.49500705272173456,-3.4277310727089243,0.0
1666091817339240995,0.5027033978494865,-3.432057220144627,0.0
1666091817415148565,0.5051660467688319,-3.4544034449744103,0.0
1666091817519860026,0.5049037424693172,-3.4799158071991854,0.0
1666091817592890120,0.5182601233983357,-3.5011446283324617,0.0
1666091817682253953,0.5296311598869352,-3.5241358337382236,0.0
1666091817718696238,0.5382236481217687,-3.5351699105341337,0.0
1666091817827554637,0.5427533158910667,-3.571770643204338,0.0
1666091817830161487,0.5454892748083033,-3.5678085934195183,0.0
1666091817912117803,0.544281929921968,-3.5864505751327007,0.0
1666091817980979432,0.5441121163510401,-3.5929825324148625,0.0
1666091818103197715,0.5439897762506251,-3.620283851556966,0.0
1666091818167705119,0.5451663925961577,-3.6298885008403596,0.0
1666091818256737569,0.54612149363998,-3.646834327976325,0.0
1666091818384992308,0.5498693725747856,-3.6789660542198357,0.0
1666091818387526572,0.5523574624701042,-3.677270844143138,0.0
1666091818458708813,0.537979577352268,-3.6942291990444445,0.0
1666091818580359898,0.5311483277601687,-3.7142582254092567,0.0
1666091818628924174,0.5242896800935926,-3.7322969702606987,0.0
1666091818706892176,0.5309072194713036,-3.739022131868227,0.0
1666091818784352203,0.5306472383784155,-3.7522457692663815,0.0
1666091818858077729,0.5352716689317739,-3.7582271657042896,0.0
1666091818981029598,0.5459355696605157,-3.7507154191473253,0.0
1666091819066406143,0.5591064206355187,-3.7322531979618705,0.0
1666091819180430427,0.5807989819788492,-3.71091386142179,0.0
1666091819295742536,0.6086199365689909,-3.692007587255568,0.0
1666091819330681176,0.6213328765339421,-3.6800612800471413,0.0
1666091819408040865,0.6420019453671046,-3.6725388078838286,0.0
1666091819495792987,0.6619308394157544,-3.6737235046068983,0.0
1666091819614878520,0.6904713888650879,-3.675903721492495,0.0
1666091819682831675,0.7134954345364796,-3.6865335573669986,0.0
1666091819769115754,0.7361052226475997,-3.684827808999989,0.0
1666091819813065297,0.7449087938823249,-3.692444189650618,0.0
1666091819946434581,0.7674073843339225,-3.68106592025401,0.0
1666091819947738259,0.7548254184338408,-3.7106368798353073,0.0
1666091820078861489,0.7720055890547743,-3.7238001375499494,0.0
1666091820162113060,0.7797156069873791,-3.7430775364909055,0.0
1666091820231452004,0.7691136094750708,-3.7914556977036002,0.0
1666091820308977124,0.7735626659537985,-3.827746318347728,0.0
1666091820359294481,0.7658835188338843,-3.86466733088176,0.0
1666091820466679789,0.8000198007081514,-3.880207250786241,0.0
1666091820469253537,0.7914626714725885,-3.925668260830792,0.0
1666091820598971240,0.8274163516300164,-3.9597381461687364,0.0
1666091820705380261,0.8589580514572559,-3.993222928690528,0.0
1666091820707779160,0.8597102017187541,-4.026330844314256,0.0
1666091820817123468,0.8816475921525568,-4.067908232444276,0.0
1666091820920112596,0.9128363483301729,-4.106925235168392,0.0
1666091820964417947,0.9191921169218018,-4.1412619409541565,0.0
1666091821019097273,0.9319868127253811,-4.170507845119689,0.0
1666091821081977599,0.9397082891333097,-4.1980994958488,0.0
1666091821170680598,0.9648556056652942,-4.231047448237564,0.0
1666091821278309846,0.9856850059711304,-4.263372912620545,0.0
1666091821346155721,0.9953032971967384,-4.292001057144905,0.0
1666091821417601765,1.0075168081040766,-4.326079841009015,0.0
1666091821482423965,1.0110203243992304,-4.347738181483358,0.0
1666091821549932609,1.0232346571905606,-4.382654102350427,0.0
1666091821668462695,1.0349998403560319,-4.412285398025541,0.0
1666091821732701263,1.051098265180182,-4.447542347067844,0.0
1666091821809469145,1.06181133339579,-4.467250169883708,0.0
1666091821882108628,1.0653725475488767,-4.478219406128133,0.0
1666091821922961071,1.076888477668741,-4.499107021839744,0.0
1666091821999952699,1.097839740580289,-4.53162265955012,0.0
1666091822054170227,1.1075931180231546,-4.552800324901293,0.0
1666091822147961507,1.121616007245333,-4.576833461465423,0.0
1666091822196738471,1.1162387748695435,-4.57312428521681,0.0
1666091822269058972,1.1323222015118009,-4.601855860869552,0.0
1666091822350230326,1.14670713975099,-4.624291756964337,0.0
1666091822418421901,1.1549255945708272,-4.644796115939334,0.0
1666091822471958683,1.1668397083665467,-4.667998605740358,0.0
1666091822561754312,1.1822210975434082,-4.697182019595114,0.0
1666091822614730211,1.1926253106964215,-4.718508789813054,0.0
1666091822682814866,1.2025665518475899,-4.73723151561674,0.0
1666091822750698163,1.2157048377325248,-4.760699089108634,0.0
1666091822836060264,1.222728123689632,-4.776307836900841,0.0
1666091822889401977,1.2251228696867789,-4.782572106928692,0.0
1666091822971482733,1.227152389634509,-4.794870141281139,0.0
1666091823022151871,1.2239046847367205,-4.790578069688627,0.0
1666091823107192324,1.232510697055383,-4.80162537816261,0.0
1666091823152557100,1.23466307489256,-4.803127492481508,0.0
1666091823211269722,1.238655832574559,-4.802222573389054,0.0
1666091823329665712,1.2519481316584844,-4.820854962562924,0.0
1666091823331068590,1.2401691815649714,-4.80186939582085,0.0
1666091823468093021,1.2582429760713705,-4.827485159493917,0.0
1666091823521838673,1.2530916088606658,-4.820245797292079,0.0
1666091823606141037,1.2705838792488728,-4.813053186696401,0.0
1666091823662357000,1.2682776292239808,-4.815391255790064,0.0
1666091823735358817,1.2583326689502319,-4.817114704638197,0.0
1666091823812526366,1.2438630453552795,-4.819973078505805,0.0
1666091823875816952,1.23413998464453,-4.82501072732876,0.0
1666091823932423672,1.2279887991174443,-4.823914680852502,0.0
1666091824012465664,1.2244867342148642,-4.8283287345011106,0.0
1666091824070389417,1.218012560354421,-4.835861895189058,0.0
1666091824137469878,1.2112901095356663,-4.848062495694105,0.0
1666091824188260171,1.2090365586944039,-4.8583583893987345,0.0
1666091824268569642,1.2072548676295434,-4.8737013113886425,0.0
1666091824322200710,1.2097937108776406,-4.88920680465474,0.0
1666091824408846810,1.2121529122134609,-4.91556086343431,0.0
1666091824460150425,1.2187419550993057,-4.944812850542224,0.0
1666091824533652298,1.2472581760306007,-4.984512656024492,0.0
1666091824623078365,1.2443598605528883,-5.009110140712162,0.0
1666091824662822897,1.2415656479396906,-5.033986136266347,0.0
1666091824731699180,1.2341049005671287,-5.068194712380322,0.0
1666091824796117755,1.2341210235389677,-5.100255221312982,0.0
1666091824856739036,1.2385580220062082,-5.130073399535399,0.0
1666091824976332066,1.2351940897416862,-5.161705135691333,0.0
1666091824978123424,1.2459212024159152,-5.1787336194239,0.0
1666091825045524037,1.2596106643649247,-5.202731759599695,0.0
1666091825161153212,1.2741763642434698,-5.236725740199338,0.0
1666091825217680143,1.2816548070043918,-5.262450236970036,0.0
1666091825288321636,1.295003672377903,-5.290226505916376,0.0
1666091825401524057,1.3036747768548531,-5.323672048624934,0.0
1666091825512876370,1.3159240713812332,-5.364751138616877,0.0
1666091825618258214,1.3245464098051358,-5.399884700484842,0.0
1666091825652874373,1.331512826886027,-5.416395861853016,0.0
1666091825737775130,1.341805890781186,-5.449815540352372,0.0
1666091825801592137,1.3474054422901067,-5.485642390414012,0.0
1666091825974844530,1.3644129203604143,-5.556100049855221,0.0
1666091825976088719,1.3611870361940417,-5.563480836981871,0.0
1666091826067289045,1.3641840650199402,-5.594108186348508,0.0
1666091826170537895,1.3747671976697735,-5.643316285333192,0.0
1666091826260722364,1.3801673311452083,-5.680185026302719,0.0
1666091826410954528,1.3941704099315477,-5.759497320652921,0.0
1666091826415575934,1.380338881783735,-5.741915078160885,0.0
1666091826498434606,1.3759005341664157,-5.7636965231666775,0.0
1666091826574672592,1.366891720292435,-5.785191899152756,0.0
1666091826675486743,1.3307889561782997,-5.80289771403709,0.0
1666091826790045736,1.307295735892332,-5.828526394950237,0.0
1666091826852011844,1.2905421718650143,-5.847421770833989,0.0
1666091826937503467,1.2636848804259861,-5.848655499420593,0.0
1666091827036170528,1.2532569198992676,-5.856683182608851,0.0
1666091827120456778,1.2445721448899072,-5.865034908572525,0.0
1666091827215101190,1.2333096675313613,-5.868707901782885,0.0
1666091827293947000,1.220260103636278,-5.865035007588869,0.0
1666091827359735393,1.2014838163987798,-5.848898290263681,0.0
1666091827509630039,1.1926776531771859,-5.861773263174168,0.0
1666091827513288988,1.170092031999273,-5.841456080688694,0.0
1666091827619445884,1.1563576303292724,-5.842064774655364,0.0
1666091827732611222,1.1379934988897826,-5.848190028122793,0.0
1666091827804177013,1.1116781529059994,-5.850341902297353,0.0
1666091827818176269,1.0911969231147074,-5.850956976300501,0.0
1666091827938837406,1.0339107561704384,-5.851490399031668,0.0
1666091827980121515,1.0032313557744121,-5.854131726566496,0.0
1666091828077556425,0.9415957851271,-5.858405704074863,0.0
1666091828104560105,0.9321105350018739,-5.876682050981864,0.0
1666091828176218593,0.8974139730863774,-5.884455833002399,0.0
1666091828294422122,0.8426186161442561,-5.892761233862528,0.0
1666091828357834840,0.8272444697345961,-5.915902031299008,0.0
1666091828422954754,0.8188724782951761,-5.93897083549877,0.0
1666091828504085151,0.7954456114873238,-5.968168204919375,0.0
1666091828556129826,0.794135308515407,-5.992932494624273,0.0
1666091828670598875,0.7792844339222136,-6.012622334606632,0.0
1666091828752321907,0.757307646114398,-6.034783214156474,0.0
1666091828837648794,0.7412155170707696,-6.065352426022385,0.0
1666091828881958512,0.7540626732606939,-6.097866324998907,0.0
1666091828946409033,0.7480641988266106,-6.126615878882346,0.0
1666091828997378980,0.7577018824356991,-6.158585128336546,0.0
1666091829114245332,0.7465036311241546,-6.198432639302027,0.0
1666091829228364510,0.7303757285803235,-6.228992871322214,0.0
1666091829311485418,0.7324354207009673,-6.260630139565642,0.0
1666091829372731102,0.7433369565040779,-6.291504847405749,0.0
1666091829428732565,0.7613827674340568,-6.321976304842603,0.0
1666091829500635036,0.7595397243963492,-6.353384042832214,0.0
1666091829557647597,0.7666808972007332,-6.380071645964095,0.0
1666091829651722734,0.7621099764713603,-6.421756931256481,0.0
1666091829704158253,0.7820315702758628,-6.447762003940824,0.0
1666091829775238230,0.7860117658794556,-6.479891525966908,0.0
1666091829836900865,0.7935853233733019,-6.502977364114096,0.0
1666091829905288175,0.7965299353413482,-6.526053660737166,0.0
1666091830004289558,0.7825479650620054,-6.570400556747456,0.0
1666091830056343715,0.7787947474807597,-6.5979421769312285,0.0
1666091830138268819,0.7709334075740326,-6.633773801753619,0.0
1666091830196887048,0.7713272740406495,-6.657514187430235,0.0
1666091830265501296,0.7708047968439978,-6.680918975462662,0.0
1666091830331619520,0.7694202751512754,-6.701533850889552,0.0
1666091830403499820,0.7625243001749016,-6.726140701782351,0.0
1666091830480219114,0.7536081944482091,-6.745744298660235,0.0
1666091830561098303,0.7406350073502471,-6.771337511403376,0.0
1666091830624058431,0.7306285804454784,-6.78821683633363,0.0
1666091830707800899,0.7127219457802613,-6.807213941259279,0.0
1666091830789951692,0.6974990569606585,-6.82337318609588,0.0
1666091830854977649,0.6874732214108317,-6.826489960622235,0.0
1666091830903067145,0.6857122863974309,-6.809325749336397,0.0
1666091830970352252,0.681334573053532,-6.802103972746885,0.0
1666091831044646511,0.6808831635712321,-6.796671092983765,0.0
1666091831093476724,0.6788435951714618,-6.787815260182537,0.0
1666091831188480403,0.6686890673885724,-6.7942641682387865,0.0
1666091831242426520,0.6584952791167915,-6.801779072948991,0.0
1666091831320787363,0.6407482709503312,-6.8252672153478136,0.0
1666091831377158117,0.6214619595218204,-6.843894535500021,0.0
1666091831444943201,0.605344657107713,-6.866988596494741,0.0
1666091831523783957,0.5875906316455464,-6.8941372632218805,0.0
1666091831585123997,0.5780545146903866,-6.917487984175485,0.0
1666091831699751374,0.5631510637244534,-6.95456954440858,0.0
1666091831761262961,0.5558316783864807,-6.980787928224353,0.0
1666091831866106294,0.54409672495988,-7.013524460832519,0.0
1666091831921740031,0.5396412670162736,-7.037536671946983,0.0
1666091832012551246,0.5307312090170588,-7.0757004163132615,0.0
1666091832058903469,0.5337167690065221,-7.0906854863181135,0.0
1666091832153968390,0.512724941067629,-7.124271268525622,0.0
1666091832193513342,0.506300584087618,-7.13359146272344,0.0
1666091832261057446,0.5012587745706371,-7.149559011365628,0.0
1666091832345421612,0.49492189454251156,-7.171614443546282,0.0
1666091832393093817,0.49675596592287574,-7.177622420615095,0.0
1666091832446405967,0.49409092271621274,-7.191219699898369,0.0
1666091832557746189,0.4795342759477711,-7.23579575921812,0.0
1666091832614620826,0.49997691332348104,-7.25912995501434,0.0
1666091832696539358,0.515505244871264,-7.282215241960573,0.0
1666091832751027987,0.5259909394969677,-7.302561700144556,0.0
1666091832819975647,0.5271513862823017,-7.3244276829745285,0.0
1666091832943730716,0.5314856036423551,-7.357157030838856,0.0
1666091833053149518,0.5268083500252869,-7.38997962676032,0.0
1666091833155464734,0.5251258703417,-7.410072539183787,0.0
1666091833160913410,0.533707228186074,-7.40164407060769,0.0
1666091833238293401,0.5330876565684107,-7.414895793069952,0.0
1666091833339245662,0.5333232950915003,-7.437444329933254,0.0
1666091833340714789,0.5448396555264843,-7.432445268276807,0.0
1666091833453031793,0.5625174786483922,-7.431784625849764,0.0
1666091833589960890,0.585895563297625,-7.439044522090222,0.0
1666091833591381542,0.5938604312613345,-7.442706029443759,0.0
1666091833654702691,0.6138885295917131,-7.450015201331117,0.0
1666091833734822355,0.6139796115890443,-7.4685408407484255,0.0
1666091833858647302,0.622081128108827,-7.488697812179582,0.0
1666091833943487572,0.6282255645345316,-7.515234197257468,0.0
1666091834027745893,0.6529417430245148,-7.534712000330497,0.0
1666091834029078937,0.6483333651499897,-7.555917601766584,0.0
1666091834109145824,0.6613798769849857,-7.579275895814958,0.0
1666091834195291868,0.6891815178458374,-7.600154150168455,0.0
1666091834285432872,0.700941576566563,-7.626836185600871,0.0
1666091834368899366,0.7170923016332558,-7.641365399057497,0.0
1666091834478113123,0.7384281045152705,-7.671506690965043,0.0
1666091834560926300,0.7590157886857523,-7.6847672221447745,0.0
1666091834639342283,0.7791946817366222,-7.701722238627312,0.0
1666091834707254099,0.7848490606055509,-7.727745086400661,0.0
1666091834758277551,0.7798722972050848,-7.753511714349508,0.0
1666091834827369817,0.7815361559071875,-7.7804126135077345,0.0
1666091834887903923,0.7754172220842186,-7.807009406249292,0.0
1666091834964178967,0.7817587149101948,-7.839862923623413,0.0
1666091835083214098,0.8107675212326785,-7.869629941038767,0.0
1666091835175794896,0.809779974242099,-7.890965179384963,0.0
1666091835265490312,0.814894336216864,-7.919887179802819,0.0
1666091835357711082,0.8054705226261433,-7.956981860440328,0.0
1666091835447943273,0.8023823928257372,-7.981010739157226,0.0
1666091835458678544,0.7786212161346698,-7.988430230442974,0.0
1666091835528424679,0.7670625091846296,-8.004648870479372,0.0
1666091835635163965,0.7726936340214988,-8.061225532544993,0.0
1666091835735854485,0.7827422698183752,-8.111408646183584,0.0
1666091835817177158,0.773744655236849,-8.150679745616118,0.0
1666091835849862720,0.7642259156282322,-8.170774003659897,0.0
1666091835921560416,0.7638491424649905,-8.216523498841484,0.0
1666091836050464570,0.7714306019762172,-8.27837883845698,0.0
1666091836102614577,0.7766896936248527,-8.308240128894173,0.0
1666091836208688070,0.7894645479182785,-8.354993183769535,0.0
1666091836262446976,0.8012579093366607,-8.377539994946186,0.0
1666091836363529960,0.818312560071766,-8.41570183078376,0.0
1666091836408324354,0.8315255112532055,-8.418933016989412,0.0
1666091836496453532,0.8531142482602554,-8.449728825692384,0.0
1666091836547763055,0.8670257979255449,-8.448019355800595,0.0
1666091836627098527,0.8869687179456416,-8.46311299186826,0.0
1666091836704991678,0.9055067750980035,-8.476118057421798,0.0
1666091836746297963,0.9204197523371919,-8.468564399304748,0.0
1666091836845740304,0.942379584502787,-8.485857887382997,0.0
1666091836893085894,0.9526893614578369,-8.477175020535551,0.0
1666091836949679724,0.9709863078354939,-8.476043514221267,0.0
1666091837008701295,0.9889441490121544,-8.478599440743698,0.0
1666091837085372249,1.0000942442652603,-8.483671957255279,0.0
1666091837129151558,1.0093036067224181,-8.475033068434941,0.0
1666091837193355363,1.0191408750664968,-8.466513135636033,0.0
1666091837265417114,1.0229496027829859,-8.448407881897486,0.0
1666091837343486864,1.0274311899709274,-8.432146754588947,0.0
1666091837469036988,1.0293619307305792,-8.417414047658315,0.0
1666091837524301303,1.0195833520062543,-8.416272709347865,0.0
1666091837664424551,1.0161244701735936,-8.423753198769568,0.0
1666091837720281061,1.0163466066785172,-8.419698193147333,0.0
1666091837777450034,1.0135667149987304,-8.433143234130892,0.0
1666091837902637985,1.0144875763625494,-8.431708083885239,0.0
1666091837969849259,1.0058415709414643,-8.457331262587548,0.0
1666091838026972323,1.0072169970379048,-8.460869479455045,0.0
1666091838110905046,1.0027142723705453,-8.488292594371076,0.0
1666091838183293669,0.9967482513577725,-8.513848818400488,0.0
1666091838255572639,1.0000957346410038,-8.524607124682335,0.0
1666091838326974320,0.9972367666842992,-8.553829110359198,0.0
1666091838369676106,0.9938984491165068,-8.576846823922162,0.0
1666091838427076211,0.9990059123860606,-8.594280473288569,0.0
1666091838526995493,1.0034795175383582,-8.603303743265675,0.0
1666091838594022438,1.008124813134892,-8.61238844208795,0.0
1666091838647911992,1.0129473147919985,-8.62148473933312,0.0
1666091838715967369,1.0138269435049836,-8.636005917047267,0.0
1666091838772638629,1.0184719964484952,-8.643973692390928,0.0
1666091838834160286,1.0198333120424836,-8.65668814995115,0.0
1666091838909588208,1.0249018484412962,-8.666740417438348,0.0
1666091839017301948,1.025477394465974,-8.684318499627993,0.0
1666091839097454633,1.0274710749659421,-8.69913101277967,0.0
1666091839193445390,1.0324248788144943,-8.709210787185956,0.0
1666091839297472449,1.0335926761619616,-8.73043214532714,0.0
1666091839356103284,1.0352450072942803,-8.734871837513232,0.0
1666091839408956991,1.0344122953441461,-8.740652986577926,0.0
1666091839493898646,1.0389200014873554,-8.749708932078644,0.0
1666091839548574741,1.043316857271605,-8.752047898490158,0.0
1666091839619124161,1.0444583830287477,-8.761408273086579,0.0
1666091839698205496,1.0467789815483655,-8.77114317265437,0.0
1666091839765649206,1.0494849525241345,-8.775366797649873,0.0
1666091839807258393,1.047006885267543,-8.772525717268548,0.0
1666091839904744170,1.048854857151984,-8.788401918394825,0.0
1666091839948509919,1.0472200514876664,-8.785005784998685,0.0
1666091840013922845,1.043974413814477,-8.784214456027813,0.0
1666091840075881870,1.043014182476029,-8.771207941665445,0.0
1666091840132164907,1.0402427426221004,-8.751659678613887,0.0
1666091840221673810,1.035236591082976,-8.73463758512048,0.0
1666091840309621874,1.0313576603912558,-8.71295870613266,0.0
1666091840390170498,1.026718299567671,-8.693108301121313,0.0
1666091840391555296,1.0251576713606085,-8.678123376343967,0.0
1666091840513533427,1.023817154651051,-8.663971181084992,0.0
1666091840605187695,1.0211909912608363,-8.656604479534844,0.0
1666091840717578108,1.0198622984791617,-8.648735770701293,0.0
1666091840812986617,1.0203228642006255,-8.632726583404006,0.0
1666091840901079069,1.0205190380575402,-8.630836165996666,0.0
1666091840902960808,1.0216074676255915,-8.61739212514448,0.0
1666091841014946300,1.0218014169422676,-8.619847289041283,0.0
1666091841106297761,1.0205969514943698,-8.619270950793075,0.0
1666091841171103369,1.0181164651342844,-8.619604647650178,0.0
1666091841242507460,1.0156499179731138,-8.623026648666137,0.0
1666091841351517595,1.0158684561376674,-8.626771649962778,0.0
1666091841353343133,1.0176856707715274,-8.619330313197828,0.0
1666091841441909572,1.0206588399092522,-8.62955187633278,0.0
1666091841589267210,1.024017690891993,-8.637918810919722,0.0
1666091841590496583,1.0209316583888144,-8.647535130423911,0.0
1666091841752058297,1.0213313712311447,-8.654297878823812,0.0
1666091841753562174,1.0238991726908633,-8.655881816565323,0.0
1666091841859582004,1.0252653568213006,-8.655457262929666,0.0
1666091841980844947,1.02692714277893,-8.650396631024202,0.0
1666091842066735659,1.0240557735918558,-8.64464056115728,0.0
1666091842091505225,1.0236722598393782,-8.636472473617692,0.0
1666091842167211769,1.024428052493102,-8.628507098074206,0.0
1666091842278083375,1.024060741399937,-8.62339737584951,0.0
1666091842312539295,1.0226235457439978,-8.61869297196896,0.0
1666091842379192994,1.0227768231001384,-8.61511736684727,0.0
1666091842432760483,1.0219223405536262,-8.609486756377326,0.0
1666091842507310747,1.020525894187262,-8.604594645613668,0.0
1666091842582876244,1.016815739383733,-8.602364549141628,0.0
1666091842730708542,1.0128298212323923,-8.594133278649666,0.0
1666091842731526093,1.0082535716133754,-8.58727724013353,0.0
1666091842809794403,1.0045510398820505,-8.58219254454693,0.0
1666091842925732394,1.0014077133500936,-8.581504911502266,0.0
1666091843018353043,1.0056386437194322,-8.58476493978499,0.0
1666091843107046523,1.0037002467862697,-8.589227008398627,0.0
1666091843109966339,0.9994346753411131,-8.594859659573746,0.0
1666091843256516401,0.9970212553271327,-8.608342778451572,0.0
1666091843302277046,0.9982847164983056,-8.611505892357203,0.0
1666091843362429683,0.9933870617336497,-8.614545203581507,0.0
1666091843441370623,0.9898074015712207,-8.624931181233581,0.0
1666091843570946830,0.9826918694681858,-8.63451191723989,0.0
1666091843620823596,0.9827064093594325,-8.641165316793694,0.0
1666091843720185701,0.9794320745900486,-8.645805075815113,0.0
1666091843777495072,0.9744336245747421,-8.6625978649169,0.0
1666091843863740750,0.9771813581231804,-8.683031988643531,0.0
1666091843952592274,0.9807127346414608,-8.696022359228461,0.0
1666091844024422806,0.9852873061421996,-8.713135822030234,0.0
1666091844033593636,1.0002426944719616,-8.733050384638332,0.0
1666091844107162207,1.012119648195183,-8.75550193841316,0.0
1666091844232160262,1.0243949014378249,-8.775153518124787,0.0
1666091844316570565,1.034845653830928,-8.789014166945195,0.0
1666091844383700185,1.0456198889434343,-8.795115737834337,0.0
1666091844424806582,1.0569890147310634,-8.806710669414489,0.0
1666091844509461658,1.06794049384373,-8.815970687900405,0.0
1666091844666265724,1.076715639108083,-8.824587167028007,0.0
1666091844748648021,1.0818246394652182,-8.826592734252644,0.0
1666091844820015803,1.0832117914783155,-8.827917473868716,0.0
1666091844866044718,1.0822484635389222,-8.829020315335447,0.0
1666091844924445774,1.0802793603150276,-8.832280307108954,0.0
1666091844999004808,1.0766414414232375,-8.8326308916993,0.0
1666091845111977246,1.0734370896344216,-8.832147200328222,0.0
1666091845193007431,1.0699662646401535,-8.831336301363732,0.0
1666091845275396196,1.0665936641799114,-8.832691946791677,0.0
1666091845345518421,1.0536810312498632,-8.822974548363069,0.0
1666091845460101707,1.0281387227356957,-8.813933167034927,0.0
1666091845508220958,0.9768540175155719,-8.806579889863112,0.0
1666091845591406532,0.919070580356141,-8.799176480720817,0.0
1666091845661509986,0.8644018484489892,-8.790890707700429,0.0
1666091845725768363,0.8137289449618911,-8.78455468795521,0.0
1666091845791633188,0.7768593698139254,-8.77817899856321,0.0
1666091845863647347,0.7430543511643105,-8.770807521338153,0.0
1666091845927242994,0.7015288884841796,-8.76399342442727,0.0
1666091846004866005,0.6657788922587922,-8.75290738134241,0.0
1666091846061354888,0.6473795490056075,-8.740722751836442,0.0
1666091846111087913,0.6225365262713718,-8.727276958460054,0.0
1666091846250419952,0.5552059310066799,-8.714701627471655,0.0
1666091846335548600,0.5493002604960593,-8.696805123458121,0.0
1666091846399419914,0.5547846565844041,-8.68891592025562,0.0
1666091846433398886,0.5594298574131784,-8.683954884687328,0.0
1666091846526099718,0.5645543281872236,-8.672815604277144,0.0
1666091846609972362,0.5780935562281794,-8.656659460660943,0.0
1666091846709615849,0.5615514146891049,-8.634944765426997,0.0
1666091846772856400,0.5558342312401765,-8.616776712524148,0.0
1666091846854185727,0.5389525110372646,-8.602940277775849,0.0
1666091846940397260,0.5199261541339121,-8.587674805243779,0.0
1666091847001831402,0.6405813298921271,-8.574842857503,0.0
1666091847044597337,0.6405660444887549,-8.562671240810317,0.0
1666091847197887345,0.7802119678363798,-8.534222681652624,0.0
1666091847270486477,0.8968844820148443,-8.517061928837103,0.0
1666091847334264571,1.0019941408293611,-8.501168217742531,0.0
1666091847451848263,1.0939330543980854,-8.508731563016052,0.0
1666091847517057771,1.1670092681832733,-8.507194615800255,0.0
1666091847628147404,1.231146776540161,-8.509517943775377,0.0
1666091847690560729,1.2836421621952054,-8.510489116689413,0.0
1666091847777290036,1.3055420422352872,-8.511589138296424,0.0
1666091847825586255,1.2858762512831048,-8.5290919670237,0.0
1666091847888428184,1.3439520460061811,-8.528728667573636,0.0
1666091847993124619,1.3897582664345853,-8.520448097936255,0.0
1666091848075857460,1.4177015078796307,-8.526798886040577,0.0
1666091848122491698,1.353702349461937,-8.536888406257303,0.0
1666091848199775002,1.2888405122795281,-8.534783813962482,0.0
1666091848278231500,1.2161480183347564,-8.539004536203358,0.0
1666091848337263209,1.138109017110327,-8.542368938569325,0.0
1666091848408548440,1.0774326499299616,-8.539770722087214,0.0
1666091848471596735,1.010044700117309,-8.537788524451388,0.0
1666091848520839414,0.9348331157734066,-8.541052079202789,0.0
1666091848602499590,0.8590198518582874,-8.548610240531124,0.0
1666091848664017401,0.8006166913217836,-8.556054372517528,0.0
1666091848783959080,0.7524975935308118,-8.57085014269628,0.0
1666091848874729025,0.68855663464612,-8.589224855255011,0.0
1666091848941446246,0.6484692096402545,-8.60529729774176,0.0
1666091849067502770,0.6382699155417086,-8.61294621139246,0.0
1666091849068751045,0.6078068907148275,-8.641877015038263,0.0
1666091849167559066,0.5840549103321331,-8.65836209968278,0.0
1666091849244361557,0.6306642053016925,-8.66714205563889,0.0
1666091849367280622,0.681349077656666,-8.656689241005363,0.0
1666091849458499703,0.7558937654353003,-8.653480492724215,0.0
1666091849471706508,0.8394847350064126,-8.648559770930248,0.0
1666091849543277169,0.9073380516140948,-8.634453128566884,0.0
1666091849662802570,0.9802608018110145,-8.613570605982769,0.0
1666091849708523200,1.0552022398929028,-8.586195497425706,0.0
1666091849774429759,1.1341350438402367,-8.563026847856108,0.0
1666091849877131450,1.1913599995295276,-8.560953881799673,0.0
1666091849984893751,1.2275563450437341,-8.56330967705735,0.0
1666091849996347402,1.2574525872171172,-8.553915256329452,0.0
1666091850072051680,1.3106739455200591,-8.55030510755769,0.0
1666091850198389860,1.3078007770491373,-8.547448999813543,0.0
1666091850246411409,1.334919104949539,-8.54096229065113,0.0
1666091850317129927,1.3584604149746766,-8.532822194699229,0.0
1666091850390288520,1.3281981330233033,-8.546954225356085,0.0
1666091850512351333,1.295699759745149,-8.547600613778691,0.0
1666091850587491425,1.2526634373673404,-8.549221363235228,0.0
1666091850663815047,1.1916721083205024,-8.55431964616085,0.0
1666091850760731873,1.1168217077462779,-8.561523153530203,0.0
1666091850768847414,1.0352072996484691,-8.566704016531112,0.0
1666091850842290335,0.9721950605286663,-8.565437590281189,0.0
1666091850910387370,0.9069284311421735,-8.56313552172228,0.0
1666091851031634132,0.7745812646707257,-8.573656593625556,0.0
1666091851133087785,0.6652791873659183,-8.58384353815164,0.0
1666091851194924838,0.5676879404280342,-8.60031558953373,0.0
1666091851269967284,0.4920436648770758,-8.608296042890444,0.0
1666091851381516782,0.4455753438298198,-8.6100537219392,0.0
1666091851433057168,0.45185639079347006,-8.610519086164636,0.0
1666091851558936567,0.40590590276658334,-8.593603663402826,0.0
1666091851561097060,0.37432399790709014,-8.586710124155855,0.0
1666091851632349882,0.33060714281987025,-8.569203072282594,0.0
1666091851720924652,0.37313017147893496,-8.561989834889586,0.0
1666091851826446145,0.41419420694500986,-8.547256357822134,0.0
1666091851891371717,0.48861611487301193,-8.54473747020379,0.0
1666091851989994995,0.5597979910024052,-8.53726171812815,0.0
1666091852072966190,0.6348884056061183,-8.533701842362547,0.0
1666091852074572939,0.7172289265154466,-8.536556051682648,0.0
1666091852150988213,0.723657647748258,-8.535074269935722,0.0
1666091852262850480,0.7355702793142472,-8.534951288294241,0.0
1666091852349142773,0.7534313281957068,-8.536096438187954,0.0
1666091852409753429,0.9439352436605684,-8.524618070862893,0.0
1666091852453654686,1.0816888356904455,-8.535565121806638,0.0
1666091852548547330,1.1930789644364395,-8.537878622542033,0.0
1666091852586678059,1.2897054793887193,-8.544775640551741,0.0
1666091852669924509,1.3550767907559744,-8.551263693416557,0.0
1666091852719343564,1.3966382997158222,-8.556518131528417,0.0
1666091852781485759,1.4213906401817147,-8.556276595970502,0.0
1666091852841231871,1.4428941842960499,-8.551725417916009,0.0
1666091852909111826,1.48838495075131,-8.550435662777133,0.0
1666091852976154346,1.5118274490423715,-8.538467085755128,0.0
1666091853040097361,1.5303521145452454,-8.523945781422897,0.0
1666091853126722070,1.4939649843965008,-8.51126240959649,0.0
1666091853204268701,1.4364163621487176,-8.499033072607233,0.0
1666091853250176581,1.356276269293634,-8.50633719707814,0.0
1666091853313973956,1.2760348109933084,-8.507875421603948,0.0
1666091853376227712,1.2123432042784865,-8.50955915837419,0.0
1666091853452174293,1.1355732906649392,-8.502870782770973,0.0
1666091853574823311,1.0481368026711053,-8.512449083002421,0.0
1666091853632660930,1.0276912735097252,-8.516475450279255,0.0
1666091853705436762,1.0051902511137019,-8.521212925608047,0.0
1666091853767259298,0.9820939070975025,-8.526029067503744,0.0
1666091853845045800,0.8086552717452997,-8.556361018226342,0.0
1666091853946857607,0.7270827460971415,-8.593951401828704,0.0
1666091854006636883,0.6721369667541672,-8.596868926260658,0.0
1666091854076216719,0.6320884092697021,-8.602932461556893,0.0
1666091854159473651,0.5816976181060433,-8.601735348512568,0.0
1666091854216586972,0.5378586439236026,-8.603645647825921,0.0
1666091854323768091,0.5207704952216224,-8.594253649986957,0.0
1666091854364147118,0.544720161517416,-8.600034512132138,0.0
1666091854449688815,0.5855334152839456,-8.58859874593827,0.0
1666091854518022480,0.6657124663655418,-8.581420608388628,0.0
1666091854646981054,0.7320508552018831,-8.566687574531752,0.0
1666091854728047070,0.8147390667191153,-8.552153735435029,0.0
1666091854845884460,0.9084402428348145,-8.540733246654462,0.0
1666091854942000318,1.0189857508286129,-8.52649424886551,0.0
1666091855005390133,1.1196852348535091,-8.509263192815268,0.0
1666091855050186313,1.2094694819223835,-8.487017460994222,0.0
1666091855137599447,1.289328572306908,-8.47777784794797,0.0
1666091855185395892,1.3507594533816238,-8.464063611505455,0.0
1666091855292619518,1.410828174499445,-8.461013059919118,0.0
1666091855345120382,1.4408758007069857,-8.472726059739909,0.0
1666091855437580092,1.4654635925378199,-8.466122454343115,0.0
1666091855483206257,1.4888168960125543,-8.459087580979702,0.0
1666091855577110170,1.5081251382135472,-8.45003975484495,0.0
1666091855631000157,1.52714134979135,-8.439102002662244,0.0
1666091855696093747,1.5416663845467826,-8.429162200175641,0.0
1666091855764976013,1.5421548212942666,-8.42649207691804,0.0
1666091855837198896,1.5504206757589274,-8.415234265174828,0.0
1666091855886950759,1.547570134443742,-8.414670397035724,0.0
1666091855966974891,1.5559888372557484,-8.409826864744153,0.0
1666091856056057720,1.5456604561207554,-8.414535169145482,0.0
1666091856169220050,1.5435028038157999,-8.407585969918223,0.0
1666091856208685494,1.5239941439390559,-8.421981413547412,0.0
1666091856311784361,1.5192124609542512,-8.422150806030698,0.0
1666091856395195526,1.5101667888445345,-8.426722455506813,0.0
1666091856478732738,1.4925898983416666,-8.43897525771104,0.0
1666091856557574437,1.4789100530615704,-8.449015307802094,0.0
1666091856604506994,1.4689968655539103,-8.467883984239302,0.0
1666091856672771719,1.4513612736854016,-8.480454063862119,0.0
1666091856736474964,1.435535119671119,-8.49744922181662,0.0
1666091856803464853,1.4172074574966138,-8.511185711789002,0.0
1666091856878772367,1.401068235090713,-8.520088228969165,0.0
1666091857001944197,1.3871403054787912,-8.527970451175461,0.0
1666091857039855330,1.3745441693536806,-8.533544852927424,0.0
1666091857099716909,1.3696759028760859,-8.537949370689788,0.0
1666091857191550491,1.36272834069303,-8.538839690400195,0.0
1666091857284046382,1.3598272048399345,-8.545973271018122,0.0
1666091857370337678,1.3595183645391127,-8.544438795448633,0.0
1666091857499550799,1.3584257027770068,-8.541682036299441,0.0
1666091857613285080,1.3569050232855748,-8.539140972471026,0.0
1666091857700643432,1.3565675608319547,-8.537625055698161,0.0
1666091857811434233,1.3571069220437963,-8.536954812771926,0.0
1666091857812246625,1.3539622181566853,-8.531687409155799,0.0
1666091857938839444,1.349364950666751,-8.536431371511132,0.0
