%time,field.linear.x,field.linear.y,field.linear.z,field.angular.x,field.angular.y,field.angular.z
1666091025968593161,0.0,0.0,0.0,0.0,0.0,0.0
1666091025988570004,0.0,0.0,0.0,0.0,0.0,0.0
1666091026009481046,0.0,0.0,0.0,0.0,0.0,0.0
1666091026029509725,0.0,0.0,0.0,0.0,0.0,0.0
1666091026049522567,0.0,0.0,0.0,0.0,0.0,0.0
1666091026069505837,0.0,0.0,0.0,0.0,0.0,0.0
1666091026088501582,0.0,0.0,0.0,0.0,0.0,0.0
1666091026108489707,0.0,0.0,0.0,0.0,0.0,0.0
1666091026128474546,0.0,0.0,0.0,0.0,0.0,0.0
1666091026172040624,0.0,0.0,0.0,0.0,0.0,0.0
1666091026172059478,0.0,0.0,0.0,0.0,0.0,0.0
1666091026220041034,0.0,0.0,0.0,0.0,0.0,0.0
1666091026220052964,0.0,0.0,0.0,0.0,0.0,0.0
1666091026264038669,0.0,0.0,0.0,0.0,0.0,0.0
1666091026264048395,0.0,0.0,0.0,0.0,0.0,0.0
1666091026308046631,0.0,0.0,0.0,0.0,0.0,-0.023561944901923447
1666091026308058005,0.0,0.0,0.0,0.0,0.0,-0.023736477827122886
1666091026352039159,0.0,0.0,0.0,0.0,0.0,-0.032812189937493394
1666091026352052862,0.0,0.0,0.0,0.0,0.0,-0.03717551306747922
1666091026352063736,0.002132302208337933,0.0,0.0,0.0,0.0,-0.046774823953448036
1666091026396054218,0.002132302208337933,0.0,0.0,0.0,0.0,-0.053930673886624786
1666091026396070746,0.0,0.0,0.0,0.0,0.0,-0.03717551306747922
1666091026409371645,0.0,0.0,0.0,0.0,0.0,-0.012391837689159739
1666091026429406121,0.0,0.0,0.0,0.0,0.0,0.0
1666091026476031780,0.0,0.0,0.0,0.0,0.0,0.0
1666091026476040070,0.0,0.0,0.0,0.0,0.0,0.0
1666091026520067851,0.0,0.0,0.0,0.0,0.0,0.0
1666091026520076536,0.0,0.0,0.0,0.0,0.0,0.0
1666091026564049807,0.0,0.0,0.0,0.0,0.0,-0.012740903539558606
1666091026564058625,0.0,0.0,0.0,0.0,0.0,-0.014660765716752367
1666091026608060889,0.0,0.0,0.0,0.0,0.0,-0.01832595714594046
1666091026608069156,0.0,0.0,0.0,0.0,0.0,-0.014835298641951801
1666091026656058099,0.0,0.0,0.0,0.0,0.0,-0.007330382858376183
1666091026656077355,0.0,0.0,0.0,0.0,0.0,0.0
1666091026656083268,0.002132302208337933,0.0,0.0,0.0,0.0,0.0
1666091026700038620,0.0,0.0,0.0,0.0,0.0,-0.006632251157578452
1666091026700048363,0.002132302208337933,0.0,0.0,0.0,0.0,-0.01064650843716541
1666091026709211325,0.006396906625013799,0.0,0.0,0.0,0.0,-0.01361356816555577
1666091026729137735,0.004264604416675866,0.0,0.0,0.0,0.0,-0.014486232791552934
1666091026772075532,0.004264604416675866,0.0,0.0,0.0,0.0,-0.022514747350726852
1666091026772091828,0.004264604416675866,0.0,0.0,0.0,0.0,-0.033335788713091695
1666091026816077307,0.004264604416675866,0.0,0.0,0.0,0.0,-0.03228859116189509
1666091026816089673,0.008529208833351731,0.0,0.0,0.0,0.0,-0.035953782591083186
1666091026860066457,0.004264604416675866,0.0,0.0,0.0,0.0,-0.04276056667386108
1666091026860075091,0.006396906625013799,0.0,0.0,0.0,0.0,-0.05672320068981571
1666091026904039002,0.002132302208337933,0.0,0.0,0.0,0.0,-0.05951572749300663
1666091026904047220,0.0,0.0,0.0,0.0,0.0,-0.04729842272904633
1666091026948025391,0.0,0.0,0.0,0.0,0.0,-0.038397243543875255
1666091026948033283,0.0,0.0,0.0,0.0,0.0,-0.012042771838760872
1666091026992023343,0.0,0.0,0.0,0.0,0.0,0.0
1666091026992031933,0.0,0.0,0.0,0.0,0.0,0.0
1666091026992043304,0.0,0.0,0.0,0.0,0.0,0.0
1666091027036023227,0.0,0.0,0.0,0.0,0.0,0.0
1666091027036033507,0.0,0.0,0.0,0.0,0.0,0.0
1666091027049048028,-0.002132302208337933,0.0,0.0,0.0,0.0,-0.0008726646259971648
1666091027069057149,0.0,0.0,0.0,0.0,0.0,0.0
1666091027112023992,0.0,0.0,0.0,0.0,0.0,0.0
1666091027112032166,0.0,0.0,0.0,0.0,0.0,0.0
1666091027156022769,0.0,0.0,0.0,0.0,0.0,0.0
1666091027156030421,0.0,0.0,0.0,0.0,0.0,0.0
1666091027204032980,0.0,0.0,0.0,0.0,0.0,0.0
1666091027204041982,0.0,0.0,0.0,0.0,0.0,0.009250245035569947
1666091027248027367,0.0,0.0,0.0,0.0,0.0,0.0054105206811824215
1666091027248035865,0.0,0.0,0.0,0.0,0.0,0.0
1666091027296020612,0.0,0.0,0.0,0.0,0.0,0.0
1666091027296025979,0.0,0.0,0.0,0.0,0.0,0.0
1666091027296031913,0.0,0.0,0.0,0.0,0.0,0.0
1666091027340025490,0.0,0.0,0.0,0.0,0.0,0.0
1666091027340037398,0.0,0.0,0.0,0.0,0.0,0.0
1666091027349951577,0.0,0.0,0.0,0.0,0.0,0.0
1666091027369936366,0.0,0.0,0.0,0.0,0.0,0.0
1666091027412028475,0.0,0.0,0.0,0.0,0.0,0.0
1666091027412037569,0.0,0.0,0.0,0.0,0.0,0.0
1666091027456028370,0.0,0.0,0.0,0.0,0.0,0.0
1666091027456036549,0.0,0.0,0.0,0.0,0.0,0.0
1666091027504021938,0.0,0.0,0.0,0.0,0.0,0.0
1666091027504031429,0.0,0.0,0.0,0.0,0.0,0.0
1666091027548026293,0.0,0.0,0.0,0.0,0.0,0.0
1666091027548034106,0.0,0.0,0.0,0.0,0.0,0.0
1666091027592028208,0.0,0.0,0.0,0.0,0.0,0.0
1666091027592037491,0.0,0.0,0.0,0.0,0.0,0.0
1666091027592045150,0.0,0.0,0.0,0.0,0.0,0.0
1666091027636051440,0.0,0.0,0.0,0.0,0.0,0.0
1666091027636059657,0.0,0.0,0.0,0.0,0.0,0.0
1666091027649985399,0.0,0.0,0.0,0.0,0.0,0.0
1666091027669886093,0.0,0.0,0.0,0.0,0.0,0.0
1666091027712080023,0.0,0.0,0.0,0.0,0.0,0.0
1666091027712090879,0.0,0.0,0.0,0.0,0.0,0.0
1666091027756052961,0.0,0.0,0.0,0.0,0.0,0.0
1666091027756067693,0.0,0.0,0.0,0.0,0.0,0.0
1666091027800047840,0.0,0.0,0.0,0.0,0.0,0.0
1666091027800061028,0.0,0.0,0.0,0.0,0.0,0.0
1666091027844038340,0.0,0.0,0.0,0.0,0.0,0.0
1666091027844051691,0.0,0.0,0.0,0.0,0.0,0.0
1666091027888067779,0.0,0.0,0.0,0.0,0.0,0.0
1666091027888081153,0.0,0.0,0.0,0.0,0.0,0.0
1666091027932051025,0.0,0.0,0.0,0.0,0.0,0.0
1666091027932063805,0.0,0.0,0.0,0.0,0.0,0.0
1666091027932075353,0.0,0.0,0.0,0.0,0.0,0.0
1666091027976050393,0.0,0.0,0.0,0.0,0.0,0.0
1666091027976064547,0.0,0.0,0.0,0.0,0.0,0.0
1666091027989744394,0.0,0.0,0.0,0.0,0.0,0.0
1666091028010739860,0.0,0.0,0.0,0.0,0.0,0.0
1666091028052049331,0.0,0.0,0.0,0.0,0.0,0.0
1666091028052061724,0.0,0.0,0.0,0.0,0.0,0.0
1666091028096061473,0.0,0.0,0.0,0.0,0.0,0.0
1666091028096074686,0.0,0.0,0.0,0.0,0.0,0.0
1666091028140051127,0.0,0.0,0.0,0.0,0.0,0.0
1666091028140062083,0.0,0.0,0.0,0.0,0.0,0.0
1666091028184076390,0.0,0.0,0.0,0.0,0.0,0.0
1666091028184088792,0.0,0.0,0.0,0.0,0.0,0.0
1666091028228082731,0.0,0.0,0.0,0.0,0.0,0.0
1666091028228094162,0.0,0.0,0.0,0.0,0.0,0.0
1666091028272345260,0.0,0.0,0.0,0.0,0.0,0.0
1666091028272359865,0.0,0.0,0.0,0.0,0.0,0.0
1666091028272367581,0.0,0.0,0.0,0.0,0.0,0.0
1666091028316058715,0.0,0.0,0.0,0.0,0.0,0.0
1666091028316071355,0.0,0.0,0.0,0.0,0.0,0.0
1666091028330624496,0.0,0.0,0.0,0.0,0.0,0.0
1666091028350591063,0.0,0.0,0.0,0.0,0.0,0.0
1666091028392049089,0.0,0.0,0.0,0.0,0.0,0.0
1666091028392059584,0.0,0.0,0.0,0.0,0.0,0.0
1666091028440086477,0.0,0.0,0.0,0.0,0.0,0.0
1666091028440096227,0.0,0.0,0.0,0.0,0.0,0.0
1666091028484071701,0.0,0.0,0.0,0.0,0.0,0.0
1666091028484087076,0.0,0.0,0.0,0.0,0.0,0.0
1666091028528055134,0.0,0.0,0.0,0.0,0.0,0.0
1666091028528068054,0.0,0.0,0.0,0.0,0.0,0.0
1666091028572042451,0.0,0.0,0.0,0.0,0.0,0.0
1666091028572054015,0.0,0.0,0.0,0.0,0.0,0.0
1666091028572061998,0.0,0.0,0.0,0.0,0.0,0.0
1666091028620034225,0.0,0.0,0.0,0.0,0.0,0.0
1666091028620040236,0.0,0.0,0.0,0.0,0.0,0.0
1666091028630475571,0.0,0.0,0.0,0.0,0.0,0.0
1666091028650895584,0.0,0.0,0.0,0.0,0.0,0.0
1666091028692139914,0.0,0.0,0.0,0.0,0.0,0.0
1666091028692153650,0.0,0.0,0.0,0.0,0.0,0.0
1666091028740112327,0.0,0.0,0.0,0.0,0.0,0.0
1666091028740128062,0.0,0.0,0.0,0.0,0.0,0.0
1666091028788221626,0.0,0.0,0.0,0.0,0.0,0.0
1666091028788254108,0.0,0.0,0.0,0.0,0.0,0.0
1666091028836091979,0.0,0.0,0.0,0.0,0.0,0.0
1666091028836105188,0.0,0.0,0.0,0.0,0.0,0.0
1666091028836116299,0.0,0.0,0.0,0.0,0.0,0.0
1666091028882631510,0.0,0.0,0.0,0.0,0.0,0.0
1666091028882650194,0.0,0.0,0.0,0.0,0.0,0.0
1666091028891091163,0.0,0.0,0.0,0.0,0.0,0.0
1666091028911373357,0.0,0.0,0.0,0.0,0.0,0.0
1666091028956085665,0.0,0.0,0.0,0.0,0.0,0.0
1666091028956101241,0.0,0.0,0.0,0.0,0.0,0.0
1666091029000356233,0.0,0.0,0.0,0.0,0.0,0.0
1666091029000398098,0.0,0.0,0.0,0.0,0.0,0.0
1666091029044204236,0.0,0.0,0.0,0.0,0.0,0.0
1666091029044224019,0.0,0.0,0.0,0.0,0.0,0.0
1666091029088146206,0.0,0.0,0.0,0.0,0.0,0.0
1666091029088159761,0.0,0.0,0.0,0.0,0.0,0.0
1666091029132201538,0.0,0.0,0.0,0.0,0.0,0.0
1666091029132229759,0.0,0.0,0.0,0.0,0.0,0.0
1666091029132239624,0.0,0.0,0.0,0.0,0.0,0.0
1666091029176143318,0.0,0.0,0.0,0.0,0.0,0.0
1666091029176165209,0.0,0.0,0.0,0.0,0.0,0.0
1666091029190665172,0.0,0.0,0.0,0.0,0.0,0.0
1666091029210884525,0.0,0.0,0.0,0.0,0.0,0.0
1666091029256095568,0.0,0.0,0.0,0.0,0.0,0.0
1666091029256120979,0.0,0.0,0.0,0.0,0.0,0.0
1666091029304159614,0.0,0.0,0.0,0.0,0.0,0.0
1666091029304177562,0.0,0.0,0.0,0.0,0.0,0.0
1666091029352053303,0.0,0.0,0.0,0.0,0.0,0.0
1666091029352060548,0.0,0.0,0.0,0.0,0.0,0.0
1666091029352072251,0.0,0.0,0.0,0.0,0.0,0.0
1666091029396076037,0.0,0.0,0.0,0.0,0.0,0.0
1666091029396088736,0.0,0.0,0.0,0.0,0.0,0.0
1666091029411148563,0.0,0.0,0.0,0.0,0.0,0.0
1666091029431155270,0.0,0.0,0.0,0.0,0.0,0.0
1666091029472055332,0.0,0.0,0.0,0.0,0.0,0.0
1666091029472067910,0.0,0.0,0.0,0.0,0.0,0.0
1666091029516047275,0.0,0.0,0.0,0.0,0.0,0.0
1666091029516060228,0.0,0.0,0.0,0.0,0.0,0.0
1666091029560051193,0.0,0.0,0.0,0.0,0.0,0.0
1666091029560062182,0.002132302208337933,0.0,0.0,0.0,0.0,0.0
1666091029604041740,0.0,0.0,0.0,0.0,0.0,0.0
1666091029604051584,0.0,0.0,0.0,0.0,0.0,0.0
1666091029648053504,0.0,0.0,0.0,0.0,0.0,0.0
1666091029648068311,0.0,0.0,0.0,0.0,0.0,0.0
1666091029692057434,-0.002132302208337933,0.0,0.0,0.0,0.0,-0.0020943951023931952
1666091029692068614,0.0,0.0,0.0,0.0,0.0,-0.008377580409572781
1666091029736118536,0.0,0.0,0.0,0.0,0.0,-0.010821041362364843
1666091029736130943,0.0,0.0,0.0,0.0,0.0,-0.008552113334772213
1666091029736141076,0.0,0.0,0.0,0.0,0.0,0.0
1666091029780108790,0.0,0.0,0.0,0.0,0.0,0.0
1666091029780120155,0.0,0.0,0.0,0.0,0.0,0.0
1666091029791107495,0.0,0.0,0.0,0.0,0.0,0.0
1666091029811209090,0.0,0.0,0.0,0.0,0.0,0.0
1666091029852103849,0.0,0.0,0.0,0.0,0.0,0.0
1666091029852117268,0.0,0.0,0.0,0.0,0.0,0.0
1666091029896092075,0.0,0.0,0.0,0.0,0.0,0.0
1666091029896108430,0.0,0.0,0.0,0.0,0.0,0.0
1666091029944052277,0.0,0.0,0.0,0.0,0.0,0.0
1666091029944064541,0.0,0.0,0.0,0.0,0.0,0.0
1666091029988069503,0.0,0.0,0.0,0.0,0.0,0.0
1666091029988082083,-0.002132302208337933,0.0,0.0,0.0,0.0,0.0
1666091030032197060,-0.002132302208337933,0.0,0.0,0.0,0.0,-0.0012217304763960308
1666091030032227421,0.0,0.0,0.0,0.0,0.0,0.0
1666091030032288502,0.0,0.0,0.0,0.0,0.0,0.0
1666091030080252746,0.0,0.0,0.0,0.0,0.0,0.0
1666091030080280214,0.0,0.0,0.0,0.0,0.0,0.0
1666091030091020928,0.0,0.0,0.0,0.0,0.0,0.0
1666091030111050061,0.0,0.0,0.0,0.0,0.0,0.0
1666091030152059789,0.002132302208337933,0.0,0.0,0.0,0.0,0.0
1666091030152070188,0.006396906625013799,0.0,0.0,0.0,0.0,0.0
1666091030196068066,0.006396906625013799,0.0,0.0,0.0,0.0,0.0
1666091030196077131,0.0,0.0,0.0,0.0,0.0,0.0
1666091030240110396,0.0,0.0,0.0,0.0,0.0,0.0
1666091030240123901,0.0,0.0,0.0,0.0,0.0,0.0
1666091030284146535,0.0,0.0,0.0,0.0,0.0,0.0
1666091030284167249,0.0,0.0,0.0,0.0,0.0,0.0
1666091030328065387,0.0,0.0,0.0,0.0,0.0,0.0
1666091030328080549,-0.006396906625013799,0.0,0.0,0.0,0.0,0.0
1666091030372166973,-0.004264604416675866,0.0,0.0,0.0,0.0,0.0006981317007977319
1666091030372198488,-0.002132302208337933,0.0,0.0,0.0,0.0,0.0
1666091030416405819,0.0,0.0,0.0,0.0,0.0,0.0
1666091030416452411,0.0,0.0,0.0,0.0,0.0,-0.012566370614359173
1666091030416706638,0.0,0.0,0.0,0.0,0.0,-0.00942477796076938
1666091030460063707,0.0,0.0,0.0,0.0,0.0,0.0
1666091030460078228,0.0,0.0,0.0,0.0,0.0,0.0
1666091030472111580,0.0,0.0,0.0,0.0,0.0,0.0
1666091030492070007,0.0,0.0,0.0,0.0,0.0,0.0
1666091030536092081,0.0,0.0,0.0,0.0,0.0,0.0
1666091030536109403,0.0,0.0,0.0,0.0,0.0,0.0
1666091030580079640,0.0,0.0,0.0,0.0,0.0,0.0
1666091030580090188,0.0,0.0,0.0,0.0,0.0,0.0
1666091030624077711,0.0,0.0,0.0,0.0,0.0,0.0
1666091030624093966,0.0,0.0,0.0,0.0,0.0,0.0
1666091030668056336,0.0,0.0,0.0,0.0,0.0,0.0
1666091030668063165,0.0,0.0,0.0,0.0,0.0,0.0
1666091030712155761,0.0,0.0,0.0,0.0,0.0,0.0
1666091030712179202,0.0,0.0,0.0,0.0,0.0,0.0
1666091030712186145,0.0,0.0,0.0,0.0,0.0,0.0
1666091030756090922,0.0,0.0,0.0,0.0,0.0,0.0
1666091030756101032,0.0,0.0,0.0,0.0,0.0,0.0
1666091030771860421,0.0,0.0,0.0,0.0,0.0,0.0
1666091030791931633,0.0,0.0,0.0,0.0,0.0,0.0
1666091030832054288,0.0,0.0,0.0,0.0,0.0,0.0
1666091030832065172,0.0,0.0,0.0,0.0,0.0,0.0
1666091030876080376,0.0,0.0,0.0,0.0,0.0,0.0
1666091030876099023,0.0,0.0,0.0,0.0,0.0,0.0
1666091030920094763,0.0,0.0,0.0,0.0,0.0,0.0
1666091030920114972,0.0,0.0,0.0,0.0,0.0,0.0
1666091030964062634,0.0,0.0,0.0,0.0,0.0,0.0
1666091030964074313,0.0,0.0,0.0,0.0,0.0,0.0
1666091031012142354,0.0,0.0,0.0,0.0,0.0,0.0
1666091031012158321,0.0,0.0,0.0,0.0,0.0,0.0
1666091031012165365,0.0,0.0,0.0,0.0,0.0,0.0
1666091031056083636,0.0,0.0,0.0,0.0,0.0,0.0
1666091031056099006,0.0,0.0,0.0,0.0,0.0,0.0
1666091031071954985,0.0,0.0,0.0,0.0,0.0,0.0
1666091031091734180,0.0,0.0,0.0,0.0,0.0,0.0
1666091031136132771,0.0,0.0,0.0,0.0,0.0,0.0
1666091031136148540,0.0,0.0,0.0,0.0,0.0,0.0
1666091031184109341,0.0,0.0,0.0,0.0,0.0,0.0
1666091031184126885,0.0,0.0,0.0,0.0,0.0,0.0
1666091031228090098,0.0,0.0,0.0,0.0,0.0,0.0
1666091031228101404,0.0,0.0,0.0,0.0,0.0,0.0
1666091031272129802,0.0,0.0,0.0,0.0,0.0,0.0
1666091031272150171,0.0,0.0,0.0,0.0,0.0,0.0
1666091031320142788,0.0,0.0,0.0,0.0,0.0,0.0
1666091031320164002,0.0,0.0,0.0,0.0,0.0,0.0
1666091031320174331,0.0,0.0,0.0,0.0,0.0,0.0
1666091031364078080,0.0,0.0,0.0,0.0,0.0,0.0
1666091031364094575,0.0,0.0,0.0,0.0,0.0,0.0
1666091031373096495,0.0,0.0,0.0,0.0,0.0,0.0
1666091031392505369,0.0,0.0,0.0,0.0,0.0,0.0
1666091031436243376,0.0,0.0,0.0,0.0,0.0,0.0
1666091031436269718,0.0,0.0,0.0,0.0,0.0,0.0
1666091031484045196,0.0,0.0,0.0,0.0,0.0,0.0
1666091031484057177,0.0,0.0,0.0,0.0,0.0,0.0
1666091031528102121,0.0,0.0,0.0,0.0,0.0,0.0
1666091031528118342,0.0,0.0,0.0,0.0,0.0,0.0
1666091031580067549,0.0,0.0,0.0,0.0,0.0,0.0
1666091031580092422,0.0,0.0,0.0,0.0,0.0,0.0
1666091031626830994,0.0,0.0,0.0,0.0,0.0,0.0
1666091031626842268,0.0,0.0,0.0,0.0,0.0,0.0
1666091031626853534,0.0,0.0,0.0,0.0,0.0,0.0
1666091031668076308,0.0,0.0,0.0,0.0,0.0,0.0
1666091031668091704,0.0,0.0,0.0,0.0,0.0,0.0
1666091031674013551,0.0,0.0,0.0,0.0,0.0,0.0
1666091031692659088,0.0,0.0,0.0,0.0,0.0,0.0
1666091031736185420,0.0,0.0,0.0,0.0,0.0,0.0
1666091031736199094,0.0,0.0,0.0,0.0,0.0,0.0
1666091031784160259,0.0,0.0,0.0,0.0,0.0,0.0
1666091031784185937,0.0,0.0,0.0,0.0,0.0,0.0
1666091031828857875,0.0,0.0,0.0,0.0,0.0,0.0
1666091031828874336,0.0,0.0,0.0,0.0,0.0,0.0
1666091031872152149,0.0,0.0,0.0,0.0,0.0,0.0
1666091031872173602,0.0,0.0,0.0,0.0,0.0,0.0
1666091031916144089,0.0,0.0,0.0,0.0,0.0,0.0
1666091031916167028,0.0,0.0,0.0,0.0,0.0,0.0
1666091031916194753,0.0,0.0,0.0,0.0,0.0,0.0
1666091031960115000,0.0,0.0,0.0,0.0,0.0,0.0
1666091031960136487,0.0,0.0,0.0,0.0,0.0,0.0
1666091031973948101,0.0,0.0,0.0,0.0,0.0,0.0
1666091031992979724,0.0,0.0,0.0,0.0,0.0,0.0
1666091032036216905,0.0,0.0,0.0,0.0,0.0,0.0
1666091032036241866,0.0,0.0,0.0,0.0,0.0,0.0
1666091032080091090,0.0,0.0,0.0,0.0,0.0,0.0
1666091032080111896,0.0,0.0,0.0,0.0,0.0,0.0
1666091032124055024,0.0,0.0,0.0,0.0,0.0,0.0
1666091032124066948,0.0,0.0,0.0,0.0,0.0,0.0
1666091032168089200,0.0,0.0,0.0,0.0,0.0,0.0
1666091032168105745,0.0,0.0,0.0,0.0,0.0,0.0
1666091032212204903,0.0,0.0,0.0,0.0,0.0,0.0
1666091032212236998,0.0,0.0,0.0,0.0,0.0,0.0
1666091032256134576,0.0,0.0,0.0,0.0,0.0,0.0
1666091032256157106,0.0,0.0,0.0,0.0,0.0,0.0
1666091032256168796,0.0,0.0,0.0,0.0,0.0,0.0
1666091032300051953,0.0,0.0,0.0,0.0,0.0,0.0
1666091032300065432,0.0,0.0,0.0,0.0,0.0,0.0
1666091032313250887,0.0,0.0,0.0,0.0,0.0,0.0
1666091032333259368,0.0,0.0,0.0,0.0,0.0,0.0
1666091032376278884,0.0,0.0,0.0,0.0,0.0,0.0
1666091032376293691,0.0,0.0,0.0,0.0,0.0,0.0
1666091032420131598,0.0,0.0,0.0,0.0,0.0,0.0
1666091032420161770,0.0,0.0,0.0,0.0,0.0,0.0
1666091032464076522,0.0,0.0,0.0,0.0,0.0,0.0
1666091032464089600,0.0,0.0,0.0,0.0,0.0,0.0
1666091032508076814,0.0,0.0,0.0,0.0,0.0,0.0
1666091032508088902,0.0,0.0,0.0,0.0,0.0,0.0
1666091032552302808,0.0,0.0,0.0,0.0,0.0,0.0
1666091032552350575,0.0,0.0,0.0,0.0,0.0,0.0
1666091032596103015,0.0,0.0,0.0,0.0,0.0,0.0
1666091032596124082,0.0,0.0,0.0,0.0,0.0,0.0
1666091032596130711,0.0,0.0,0.0,0.0,0.0,0.0
1666091032640197310,0.0,0.0,0.0,0.0,0.0,0.0
1666091032640232575,0.0,0.0,0.0,0.0,0.0,0.0
1666091032653524072,0.0,0.0,0.0,0.0,0.0,0.0
1666091032674738189,0.0,0.0,0.0,0.0,0.0,0.0
1666091032720167071,0.0,0.0,0.0,0.0,0.0,0.0
1666091032720198023,0.0,0.0,0.0,0.0,0.0,0.0
1666091032764164698,0.0,0.0,0.0,0.0,0.0,0.0
1666091032764187260,0.0,0.0,0.0,0.0,0.0,0.0
1666091032812194575,0.0,0.0,0.0,0.0,0.0,0.0
1666091032812212453,0.0,0.0,0.0,0.0,0.0,0.0
1666091032856059331,0.0,0.0,0.0,0.0,0.0,0.0
1666091032856073843,0.0,0.0,0.0,0.0,0.0,0.0
1666091032856079371,0.0,0.0,0.0,0.0,0.0,0.0
1666091032900043133,0.0,0.0,0.0,0.0,0.0,0.0
1666091032900056598,0.0,0.0,0.0,0.0,0.0,0.0
1666091032913123315,0.0,0.0,0.0,0.0,0.0,0.0
1666091032933114229,0.0,0.0,0.0,0.0,0.0,0.0
1666091032976206485,0.0,0.0,0.0,0.0,0.0,0.0
1666091032976232651,0.0,0.0,0.0,0.0,0.0,0.0
1666091033020151363,0.0,0.0,0.0,0.0,0.0,0.0
1666091033020208914,0.0,0.0,0.0,0.0,0.0,0.0
1666091033064150734,0.0,0.0,0.0,0.0,0.0,0.0
1666091033064168275,0.0,0.0,0.0,0.0,0.0,0.0
1666091033108121541,0.0,0.0,0.0,0.0,0.0,0.0
1666091033108140940,0.0,0.0,0.0,0.0,0.0,0.0
1666091033152122747,0.0,0.0,0.0,0.0,0.0,0.0
1666091033152148184,0.0,0.0,0.0,0.0,0.0,0.0
1666091033196119097,0.0,0.0,0.0,0.0,0.0,0.0
1666091033196138643,0.0,0.0,0.0,0.0,0.0,0.0
1666091033196155318,0.0,0.0,0.0,0.0,0.0,0.0
1666091033240129944,0.0,0.0,0.0,0.0,0.0,0.0
1666091033240152380,0.0,0.0,0.0,0.0,0.0,0.0
1666091033253268062,0.0,0.0,0.0,0.0,0.0,0.0
1666091033273575014,0.0,0.0,0.0,0.0,0.0,0.0
1666091033320055185,0.0,0.0,0.0,0.0,0.0,0.0
1666091033320068226,0.0,0.0,0.0,0.0,0.0,0.0
1666091033368079318,0.0,0.0,0.0,0.0,0.0,0.0
1666091033368094743,0.0,0.0,0.0,0.0,0.0,0.0
1666091033412229044,0.0,0.0,0.0,0.0,0.0,0.0
1666091033412261732,0.0,0.0,0.0,0.0,0.0,0.0
1666091033456101612,0.0,0.0,0.0,0.0,0.0,0.0
1666091033456119239,0.0,0.0,0.0,0.0,0.0,0.0
1666091033456126849,0.0,0.0,0.0,0.0,0.0,0.0
1666091033500122842,0.0,0.0,0.0,0.0,0.0,0.0
1666091033500141831,0.0,0.0,0.0,0.0,0.0,0.0
1666091033514226554,0.0,0.0,0.0,0.0,0.0,0.0
1666091033534103027,0.0,0.0,0.0,0.0,0.0,0.0
1666091033580088058,0.0,0.0,0.0,0.0,0.0,0.0
1666091033580105122,0.0,0.0,0.0,0.0,0.0,0.0
1666091033624373075,0.0,0.0,0.0,0.0,0.0,0.0
1666091033624387311,0.0,0.0,0.0,0.0,0.0,0.0
1666091033668209484,0.0,0.0,0.0,0.0,0.0,0.0
1666091033668252193,0.0,0.0,0.0,0.0,0.0,0.0
1666091033712280504,0.0,0.0,0.0,0.0,0.0,0.0
1666091033712297962,0.0,0.0,0.0,0.0,0.0,0.0
1666091033756352260,0.0,0.0,0.0,0.0,0.0,0.0
1666091033756442210,0.0,0.0,0.0,0.0,0.0,0.0
1666091033756510496,0.0,0.0,0.0,0.0,0.0,0.0
1666091033804103780,0.0,0.0,0.0,0.0,0.0,0.0
1666091033804120578,0.0,0.0,0.0,0.0,0.0,0.0
1666091033813942891,0.0,0.0,0.0,0.0,0.0,0.0
1666091033833971512,0.0,0.0,0.0,0.0,0.0,0.0
1666091033876087254,0.0,0.0,0.0,0.0,0.0,0.0
1666091033876105645,0.0,0.0,0.0,0.0,0.0,0.0
1666091033920139242,0.0,0.0,0.0,0.0,0.0,0.0
1666091033920152124,0.0,0.0,0.0,0.0,0.0,0.0
1666091033964097516,0.0,0.0,0.0,0.0,0.0,0.0
1666091033964115447,0.0,0.0,0.0,0.0,0.0,0.0
1666091034009404448,0.0,0.0,0.0,0.0,0.0,0.0
1666091034009426653,0.0,0.0,0.0,0.0,0.0,0.0
1666091034052119447,0.0,0.0,0.0,0.0,0.0,0.0
1666091034052141023,0.0,0.0,0.0,0.0,0.0,0.0
1666091034096157252,0.0,0.0,0.0,0.0,0.0,0.0
1666091034096180607,0.0,0.0,0.0,0.0,0.0,0.0
1666091034096198932,0.0,0.0,0.0,0.0,0.0,0.0
1666091034140173181,0.0,0.0,0.0,0.0,0.0,0.0
1666091034140197985,0.0,0.0,0.0,0.0,0.0,0.0
1666091034154285149,0.0,0.0,0.0,0.0,0.0,0.0
1666091034174012771,0.0,0.0,0.0,0.0,0.0,0.0
1666091034217219743,0.0,0.0,0.0,0.0,0.0,0.0
1666091034217285977,0.0,0.0,0.0,0.0,0.0,0.0
1666091034260111066,0.0,0.0,0.0,0.0,0.0,0.0
1666091034260163330,0.0,0.0,0.0,0.0,0.0,0.0
1666091034304375695,0.0,0.0,0.0,0.0,0.0,0.0
1666091034304433554,0.0,0.0,0.0,0.0,0.0,0.0
1666091034348112650,0.0,0.0,0.0,0.0,0.0,0.0
1666091034348142042,0.0,0.0,0.0,0.0,0.0,0.0
1666091034392066498,0.0,0.0,0.0,0.0,0.0,0.0
1666091034392082423,0.0,0.0,0.0,0.0,0.0,0.0
1666091034436112299,0.0,0.0,0.0,0.0,0.0,0.0
1666091034436124254,0.0,0.0,0.0,0.0,0.0,0.0
1666091034436134997,0.0,0.0,0.0,0.0,0.0,0.0
1666091034480153749,0.0,0.0,0.0,0.0,0.0,0.0
1666091034480183375,0.0,0.0,0.0,0.0,0.0,0.0
1666091034493686155,0.0,0.0,0.0,0.0,0.0,0.0
1666091034513749707,0.0,0.0,0.0,0.0,0.0,0.0
1666091034556111246,0.0,0.0,0.0,0.0,0.0,0.0
1666091034556125504,0.0,0.0,0.0,0.0,0.0,0.0
1666091034600270317,0.0,0.0,0.0,0.0,0.0,0.0
1666091034600317806,0.0,0.0,0.0,0.0,0.0,0.0
1666091034662461816,0.0,0.0,0.0,0.0,0.0,0.0
1666091034662514890,0.0,0.0,0.0,0.0,0.0,0.0
1666091034688286401,0.0,0.0,0.0,0.0,0.0,0.0
1666091034688332437,0.0,0.0,0.0,0.0,0.0,0.0
1666091034732204943,0.0,0.0,0.0,0.0,0.0,0.0
1666091034732243045,0.0,0.0,0.0,0.0,0.0,0.0
1666091034780175414,0.0,0.0,0.0,0.0,0.0,0.0
1666091034780210439,0.0,0.0,0.0,0.0,0.0,0.0
1666091034780219730,0.0,0.0,0.0,0.0,0.0,0.0
1666091034824078606,0.0,0.0,0.0,0.0,0.0,0.0
1666091034824091460,0.0,0.0,0.0,0.0,0.0,0.0
1666091034833794541,0.0,0.0,0.0,0.0,0.0,0.0
1666091034853409890,0.0,0.0,0.0,0.0,0.0,0.0
1666091034900253849,0.0,0.0,0.0,0.0,0.0,0.0
1666091034900271382,0.0,0.0,0.0,0.0,0.0,0.0
1666091034944190403,0.0,0.0,0.0,0.0,0.0,0.0
1666091034944208001,0.0,0.0,0.0,0.0,0.0,0.0
1666091034988231474,0.0,0.0,0.0,0.0,0.0,0.0
1666091034988250346,0.0,0.0,0.0,0.0,0.0,0.0
1666091035032061339,0.0,0.0,0.0,0.0,0.0,0.0
1666091035032073395,0.0,0.0,0.0,0.0,0.0,0.0
1666091035076172978,0.0,0.0,0.0,0.0,0.0,0.0
1666091035076200702,0.0,0.0,0.0,0.0,0.0,0.0
1666091035076208171,0.0,0.0,0.0,0.0,0.0,0.0
1666091035120055923,0.0,0.0,0.0,0.0,0.0,0.0
1666091035120066945,0.0,0.0,0.0,0.0,0.0,0.0
1666091035134426827,0.0,0.0,0.0,0.0,0.0,0.0
1666091035154283170,0.0,0.0,0.0,0.0,0.0,0.0
1666091035196084733,0.0,0.0,0.0,0.0,0.0,0.0
1666091035196101892,0.0,0.0,0.0,0.0,0.0,0.0
1666091035240270039,0.0,0.0,0.0,0.0,0.0,0.0
1666091035240294894,0.0,0.0,0.0,0.0,0.0,0.0
1666091035284122376,0.0,0.0,0.0,0.0,0.0,0.0
1666091035284144241,0.0,0.0,0.0,0.0,0.0,0.0
1666091035328282490,0.0,0.0,0.0,0.0,0.0,0.0
1666091035328321413,0.0,0.0,0.0,0.0,0.0,0.0
1666091035376202726,0.0,0.0,0.0,0.0,0.0,0.0
1666091035376234017,0.0,0.0,0.0,0.0,0.0,0.0
1666091035376259123,0.0,0.0,0.0,0.0,0.0,0.0
1666091035420062316,0.0,0.0,0.0,0.0,0.0,0.0
1666091035420076430,0.0,0.0,0.0,0.0,0.0,0.0
1666091035434132346,0.0,0.0,0.0,0.0,0.0,0.0
1666091035454966513,0.0,0.0,0.0,0.0,0.0,0.0
1666091035496072411,0.0,0.0,0.0,0.0,0.0,0.0
1666091035496086256,0.0,0.0,0.0,0.0,0.0,0.0
1666091035540206819,0.0,0.0,0.0,0.0,0.0,0.0
1666091035540232851,0.0,0.0,0.0,0.0,0.0,0.0
1666091035584077503,0.0,0.0,0.0,0.0,0.0,0.0
1666091035584090346,0.0,0.0,0.0,0.0,0.0,0.0
1666091035628088712,0.0,0.0,0.0,0.0,0.0,0.0
1666091035628112159,0.0,0.0,0.0,0.0,0.0,0.0
1666091035672126347,0.0,0.0,0.0,0.0,0.0,0.0
1666091035672146829,0.0,0.0,0.0,0.0,0.0,0.0
1666091035716337019,0.0,0.0,0.0,0.0,0.0,0.0
1666091035716379882,0.0,0.0,0.0,0.0,0.0,0.0
1666091035716391622,0.0,0.0,0.0,0.0,0.0,0.0
1666091035760141995,0.0,0.0,0.0,0.0,0.0,0.0
1666091035760161457,0.0,0.0,0.0,0.0,0.0,0.0
1666091035774926615,0.0,0.0,0.0,0.0,0.0,0.0
1666091035793947080,0.0,0.0,0.0,0.0,0.0,0.0
1666091035840205465,0.0,0.0,0.0,0.0,0.0,0.0
1666091035840241433,0.0,0.0,0.0,0.0,0.0,0.0
1666091035884147841,0.0,0.0,0.0,0.0,0.0,0.0
1666091035884174157,0.0,0.0,0.0,0.0,0.0,0.0
1666091035928066431,0.0,0.0,0.0,0.0,0.0,0.0
1666091035928082859,0.0,0.0,0.0,0.0,0.0,0.0
1666091035972139297,0.0,0.0,0.0,0.0,0.0,0.0
1666091035972166135,0.0,0.0,0.0,0.0,0.0,0.0
1666091036016249980,0.0,0.0,0.0,0.0,0.0,0.0
1666091036016288429,0.0,0.0,0.0,0.0,0.0,0.0
1666091036016320069,0.0,0.0,0.0,0.0,0.0,0.0
1666091036060085183,0.0,0.0,0.0,0.0,0.0,0.0
1666091036060097135,0.0,0.0,0.0,0.0,0.0,0.0
1666091036073929901,0.0,0.0,0.0,0.0,0.0,0.0
1666091036094034685,0.0,0.0,0.0,0.0,0.0,0.0
1666091036136091525,0.0,0.0,0.0,0.0,0.0,0.0
1666091036136101691,0.0,0.0,0.0,0.0,0.0,0.0
1666091036180111910,0.0,0.0,0.0,0.0,0.0,0.0
1666091036180128919,0.0,0.0,0.0,0.0,0.0,0.0
1666091036224073422,0.0,0.0,0.0,0.0,0.0,0.0
1666091036224091134,0.0,0.0,0.0,0.0,0.0,0.0
1666091036268087403,0.0,0.0,0.0,0.0,0.0,0.0
1666091036268100249,0.0,0.0,0.0,0.0,0.0,0.0
1666091036312098428,0.0,0.0,0.0,0.0,0.0,0.0
1666091036312110374,0.0,0.0,0.0,0.0,0.0,0.0
1666091036356154376,0.0,0.0,0.0,0.0,0.0,0.0
1666091036356187856,0.0,0.0,0.0,0.0,0.0,0.0
1666091036356193532,0.0,0.0,0.0,0.0,0.0,0.0
1666091036400053399,0.0,0.0,0.0,0.0,0.0,0.0
1666091036400065880,0.0,0.0,0.0,0.0,0.0,0.0
1666091036416373516,0.0,0.0,0.0,0.0,0.0,0.0
1666091036434883709,0.0,0.0,0.0,0.0,0.0,0.0
1666091036480072944,0.0,0.0,0.0,0.0,0.0,0.0
1666091036480086256,0.0,0.0,0.0,0.0,0.0,0.0
1666091036524091224,0.0,0.0,0.0,0.0,0.0,0.0
1666091036524107725,0.0,0.0,0.0,0.0,0.0,0.0
1666091036572056941,0.0,0.0,0.0,0.0,0.0,0.0
1666091036572068611,0.0,0.0,0.0,0.0,0.0,0.0
1666091036616150776,0.0,0.0,0.0,0.0,0.0,0.0
1666091036616175585,0.0,0.0,0.0,0.0,0.0,0.0
1666091036616183904,0.0,0.0,0.0,0.0,0.0,0.0
1666091036660103214,0.0,0.0,0.0,0.0,0.0,0.0
1666091036660119777,0.0,0.0,0.0,0.0,0.0,0.0
1666091036675709069,0.0,0.0,0.0,0.0,0.0,0.0
1666091036694792412,0.0,0.0,0.0,0.0,0.0,0.0
1666091036736064546,0.0,0.0,0.0,0.0,0.0,0.0
1666091036736096031,0.0,0.0,0.0,0.0,0.0,0.0
1666091036784111284,0.0,0.0,0.0,0.0,0.0,0.0
1666091036784128601,0.0,0.0,0.0,0.0,0.0,0.0
1666091036832127283,0.0,0.0,0.0,0.0,0.0,0.0
1666091036832148438,0.0,0.0,0.0,0.0,0.0,0.0
1666091036880178963,0.0,0.0,0.0,0.0,0.0,0.0
1666091036880200930,0.0,0.0,0.0,0.0,0.0,0.0
1666091036880209233,0.0,0.0,0.0,0.0,0.0,0.0
1666091036924041160,0.0,0.0,0.0,0.0,0.0,0.0
1666091036924048729,0.0,0.0,0.0,0.0,0.0,0.0
1666091036936365420,0.0,0.0,0.0,0.0,0.0,0.0
1666091036955965100,0.0,0.0,0.0,0.0,0.0,0.0
1666091036996135040,0.0,0.0,0.0,0.0,0.0,0.0
1666091036996153712,0.0,0.0,0.0,0.0,0.0,0.0
1666091037040172177,0.0,0.0,0.0,0.0,0.0,0.0
1666091037040201080,0.0,0.0,0.0,0.0,0.0,0.0
1666091037088571633,0.0,0.0,0.0,0.0,0.0,0.0
1666091037088663874,0.0,0.0,0.0,0.0,0.0,0.0
1666091037128067769,0.0,0.0,0.0,0.0,0.0,0.0
1666091037128084282,0.0,0.0,0.0,0.0,0.0,0.0
1666091037172086431,0.0,0.0,0.0,0.0,0.0,0.0
1666091037172098645,0.0,0.0,0.0,0.0,0.0,0.0
1666091037216501984,0.0,0.0,0.0,0.0,0.0,0.0
1666091037216533314,0.0,0.0,0.0,0.0,0.0,0.0
1666091037216562675,0.0,0.0,0.0,0.0,0.0,0.0
1666091037260113130,0.0,0.0,0.0,0.0,0.0,0.0
1666091037260131944,0.0,0.0,0.0,0.0,0.0,0.0
1666091037278105803,0.0,0.0,0.0,0.0,0.0,0.0
1666091037297634434,0.0,0.0,0.0,0.0,0.0,0.0
1666091037340050963,0.0,0.0,0.0,0.0,0.0,0.0
1666091037340061907,0.0,0.0,0.0,0.0,0.0,0.0
1666091037384065924,0.0,0.0,0.0,0.0,0.0,0.0
1666091037384079358,0.0,0.0,0.0,0.0,0.0,0.0
1666091037428180855,0.0,0.0,0.0,0.0,0.0,0.0
1666091037428211943,0.0,0.0,0.0,0.0,0.0,0.0
1666091037476100149,0.0,0.0,0.0,0.0,0.0,0.0
1666091037476116603,0.0,0.0,0.0,0.0,0.0,0.0
1666091037476126807,0.0,0.0,0.0,0.0,0.0,0.0
1666091037520060374,0.0,0.0,0.0,0.0,0.0,0.0
1666091037520072294,0.0,0.0,0.0,0.0,0.0,0.0
1666091037535221807,0.0,0.0,0.0,0.0,0.0,0.0
1666091037555588057,0.0,0.0,0.0,0.0,0.0,0.0
1666091037596132141,0.0,0.0,0.0,0.0,0.0,0.0
1666091037596152154,0.0,0.0,0.0,0.0,0.0,0.0
1666091037640170660,0.0,0.0,0.0,0.0,0.0,0.0
1666091037640198221,0.0,0.0,0.0,0.0,0.0,0.0
1666091037684062540,0.0,0.0,0.0,0.0,0.0,0.0
1666091037684075462,0.0,0.0,0.0,0.0,0.0,0.0
1666091037732107292,0.0,0.0,0.0,0.0,0.0,0.0
1666091037732125669,0.0,0.0,0.0,0.0,0.0,0.0
1666091037776109913,0.0,0.0,0.0,0.0,0.0,0.0
1666091037776126973,0.0,0.0,0.0,0.0,0.0,0.0
1666091037776138683,0.0,0.0,0.0,0.0,0.0,0.0
1666091037820261568,0.0,0.0,0.0,0.0,0.0,0.0
1666091037820299753,0.0,0.0,0.0,0.0,0.0,0.0
1666091037835594784,0.0,0.0,0.0,0.0,0.0,0.0
1666091037856103336,0.0,0.0,0.0,0.0,0.0,0.0
1666091037896071047,0.0,0.0,0.0,0.0,0.0,0.0
1666091037896085334,0.0,0.0,0.0,0.0,0.0,0.0
1666091037940098479,0.0,0.0,0.0,0.0,0.0,0.0
1666091037940116309,0.0,0.0,0.0,0.0,0.0,0.0
1666091037984363084,0.0,0.0,0.0,0.0,0.0,0.0
1666091037984402830,0.0,0.0,0.0,0.0,0.0,0.0
1666091038032129569,0.0,0.0,0.0,0.0,0.0,0.0
1666091038032150367,0.0,0.0,0.0,0.0,0.0,0.0
1666091038080648803,0.0,0.0,0.0,0.0,0.0,0.0
1666091038080732205,0.0,0.0,0.0,0.0,0.0,0.0
1666091038080867239,0.0,0.0,0.0,0.0,0.0,0.0
1666091038124266644,0.0,0.0,0.0,0.0,0.0,0.0
1666091038124294171,0.0,0.0,0.0,0.0,0.0,0.0
1666091038138471288,0.0,0.0,0.0,0.0,0.0,0.0
1666091038157415345,0.0,0.0,0.0,0.0,0.0,0.0
1666091038200182551,0.0,0.0,0.0,0.0,0.0,0.0
1666091038200208801,0.0,0.0,0.0,0.0,0.0,0.0
1666091038248160560,0.0,0.0,0.0,0.0,0.0,0.0
1666091038248196694,0.0,0.0,0.0,0.0,0.0,0.0
1666091038292060638,0.0,0.0,0.0,0.0,0.0,0.0
1666091038292074878,0.0,0.0,0.0,0.0,0.0,0.0
1666091038336460297,0.0,0.0,0.0,0.0,0.0,0.0
1666091038336524032,0.0,0.0,0.0,0.0,0.0,0.0
1666091038336575443,0.0,0.0,0.0,0.0,0.0,0.0
1666091038384242293,0.0,0.0,0.0,0.0,0.0,0.0
1666091038384271172,0.0,0.0,0.0,0.0,0.0,0.0
1666091038395273565,0.0,0.0,0.0,0.0,0.0,0.0
1666091038416833437,0.0,0.0,0.0,0.0,0.0,0.0
1666091038464279934,0.0,0.0,0.0,0.0,0.0,0.0
1666091038464311590,0.0,0.0,0.0,0.0,0.0,0.0
1666091038508072781,0.0,0.0,0.0,0.0,0.0,0.0
1666091038508086503,0.0,0.0,0.0,0.0,0.0,0.0
1666091038556276408,0.0,0.0,0.0,0.0,0.0,0.0
1666091038556315952,0.0,0.0,0.0,0.0,0.0,0.0
1666091038600132777,0.0,0.0,0.0,0.0,0.0,0.0
1666091038600155753,0.0,0.0,0.0,0.0,0.0,0.0
1666091038600168265,0.0,0.0,0.0,0.0,0.0,0.0
1666091038644215273,0.0,0.0,0.0,0.0,0.0,0.0
1666091038644246178,0.0,0.0,0.0,0.0,0.0,0.0
1666091038655973047,0.0,0.0,0.0,0.0,0.0,0.0
1666091038675742786,0.0,0.0,0.0,0.0,0.0,0.0
1666091038716203129,0.0,0.0,0.0,0.0,0.0,0.0
1666091038760078547,0.0,0.0,0.0,0.0,0.0,0.0
1666091038760096949,0.0,0.0,0.0,0.0,0.0,0.0
1666091038760102328,0.0,0.0,0.0,0.0,0.0,0.0
1666091038804163637,0.0,0.0,0.0,0.0,0.0,0.0
1666091038804184146,0.0,0.0,0.0,0.0,0.0,0.0
1666091038816414145,0.0,0.0,0.0,0.0,0.0,0.0
1666091038835858539,0.0,0.0,0.0,0.0,0.0,0.0
1666091038876040977,0.0,0.0,0.0,0.0,0.0,0.0
1666091038920390845,0.0,0.0,0.0,0.0,0.0,0.0
1666091038920443834,0.0,0.0,0.0,0.0,0.0,0.0
1666091038920455840,0.0,0.0,0.0,0.0,0.0,0.0
1666091038964205503,0.0,0.0,0.0,0.0,0.0,0.0
1666091038964234341,0.0,0.0,0.0,0.0,0.0,0.0
1666091038975956612,0.0,0.0,0.0,0.0,0.0,0.0
1666091038995877753,0.0,0.0,0.0,0.0,0.0,0.0
1666091039036252981,0.0,0.0,0.0,0.0,0.0,0.0
1666091039036269941,0.0,0.0,0.0,0.0,0.0,0.0
1666091039080107148,0.0,0.0,0.0,0.0,0.0,0.0
1666091039080136234,0.0,0.0,0.0,0.0,0.0,0.0
1666091039124122829,0.0,0.0,0.0,0.0,0.0,0.0
1666091039124133339,0.0,0.0,0.0,0.0,0.0,0.0
1666091039168128422,0.0,0.0,0.0,0.0,0.0,0.0
1666091039168169972,0.0,0.0,0.0,0.0,0.0,0.0
1666091039212192785,0.0,0.0,0.0,0.0,0.0,0.0
1666091039212211938,0.0,0.0,0.0,0.0,0.0,0.0
1666091039260162429,0.0,0.0,0.0,0.0,0.0,0.0
1666091039260230539,0.0,0.0,0.0,0.0,0.0,0.0
1666091039260535208,0.0,0.0,0.0,0.0,0.0,0.0
1666091039308069548,0.0,0.0,0.0,0.0,0.0,0.0
1666091039308088947,0.0,0.0,0.0,0.0,0.0,0.0
1666091039315685867,0.0,0.0,0.0,0.0,0.0,0.0
1666091039336712244,0.0,0.0,0.0,0.0,0.0,0.0
1666091039380340895,0.0,0.0,0.0,0.0,0.0,0.0
1666091039380379937,0.0,0.0,0.0,0.0,0.0,0.0
1666091039424637318,0.0,0.0,0.0,0.0,0.0,0.0
1666091039424735152,0.0,0.0,0.0,0.0,0.0,0.0
1666091039468077361,0.0,0.0,0.0,0.0,0.0,0.0
1666091039468096222,0.0,0.0,0.0,0.0,0.0,0.0
1666091039512258724,0.0,0.0,0.0,0.0,0.0,0.0
1666091039512290986,0.0,0.0,0.0,0.0,0.0,0.0
1666091039556265173,0.0,0.0,0.0,0.0,0.0,0.0
1666091039556303516,0.0,0.0,0.0,0.0,0.0,0.0
1666091039600164575,0.0,0.0,0.0,0.0,0.0,0.0
1666091039600192278,0.0,0.0,0.0,0.0,0.0,0.0
1666091039600207520,0.0,0.0,0.0,0.0,0.0,0.0
1666091039644869410,0.0,0.0,0.0,0.0,0.0,0.0
1666091039644931873,0.0,0.0,0.0,0.0,0.0,0.0
1666091039660978999,0.0,0.0,0.0,0.0,0.0,0.003490658503988659
1666091039676727977,0.0,0.0,0.0,0.0,0.0,0.0020943951023931952
1666091039724119315,0.0,0.0,0.0,0.0,0.0,0.0010471975511965976
1666091039724138030,0.0,0.0,0.0,0.0,0.0,0.0015707963267948967
1666091039768304328,0.0,0.0,0.0,0.0,0.0,-0.00034906585039886593
1666091039768400073,0.002132302208337933,0.0,0.0,0.0,0.0,-0.0038397243543875246
1666091039812303811,0.02345532429171726,0.0,0.0,0.0,0.0,-0.002617993877991494
1666091039812363147,0.017058417666703463,0.0,0.0,0.0,0.0,-0.0019198621771937623
1666091039856467877,0.017058417666703463,0.0,0.0,0.0,0.0,-0.0027925268031909274
1666091039856534714,0.017058417666703463,0.0,0.0,0.0,0.0,-0.002967059728390361
1666091039900110273,0.021323022083379328,0.0,0.0,0.0,0.0,-0.0008726646259971648
1666091039900124112,0.03838143975008279,0.0,0.0,0.0,0.0,-0.002617993877991494
1666091039900142694,0.025587626500055197,0.0,0.0,0.0,0.0,-0.0036651914291880917
1666091039948264053,0.04051374195842073,0.0,0.0,0.0,0.0,-0.006108652381980153
1666091039948279872,0.04691064858343452,0.0,0.0,0.0,0.0,-0.012042771838760872
1666091039956473297,0.04691064858343452,0.0,0.0,0.0,0.0,-0.006283185307179587
1666091039976942689,0.06610136845847592,0.0,0.0,0.0,0.0,-0.006632251157578452
1666091040020386642,0.059704461833462126,0.0,0.0,0.0,0.0,-0.012740903539558606
1666091040020446842,0.07249827508348972,0.0,0.0,0.0,0.0,-0.012566370614359173
1666091040064180388,0.0703659728751518,0.0,0.0,0.0,0.0,-0.0158824961931484
1666091040064204904,0.07676287950016558,0.0,0.0,0.0,0.0,-0.023736477827122886
1666091040108256115,0.09808590158354492,0.0,0.0,0.0,0.0,-0.03979350694547071
1666091040108313188,0.09595359937520698,0.0,0.0,0.0,0.0,-0.060388392119003806
1666091040156082276,0.10448280820855872,0.0,0.0,0.0,0.0,-0.04782202150464464
1666091040156096933,0.10021820379188286,0.0,0.0,0.0,0.0,-0.03979350694547071
1666091040200297824,0.10874741262523457,0.0,0.0,0.0,0.0,-0.05183627878423159
1666091040200345664,0.12154122587526218,0.0,0.0,0.0,0.0,-0.07836528341454539
1666091040200356170,0.11940892366692425,0.0,0.0,0.0,0.0,-0.08168140899333462
1666091040244086752,0.1364673413336277,0.0,0.0,0.0,0.0,-0.07190756518216637
1666091040244109432,0.1364673413336277,0.0,0.0,0.0,0.0,-0.08499753457212385
1666091040258092660,0.13433503912528977,0.0,0.0,0.0,0.0,-0.10349802464326374
1666091040276319368,0.1492611545836553,0.0,0.0,0.0,0.0,-0.10978120995044333
1666091040320474820,0.14712885237531736,0.0,0.0,0.0,0.0,-0.12479104151759457
1666091040320499899,0.15352575900033116,0.0,0.0,0.0,0.0,-0.11606439525762292
1666091040364255935,0.16418727004202083,0.0,0.0,0.0,0.0,-0.12252211349000193
1666091040364279790,0.1556580612086691,0.0,0.0,0.0,0.0,-0.1514945790731078
1666091040408050136,0.17484878108371052,0.0,0.0,0.0,0.0,-0.15865042900628457
1666091040408064347,0.17698108329204845,0.0,0.0,0.0,0.0,-0.16755160819145562
1666091040452075053,0.1876425943337381,0.0,0.0,0.0,0.0,-0.17435839227423353
1666091040452090857,0.18337798991706222,0.0,0.0,0.0,0.0,-0.1816887751326097
1666091040496240493,0.17698108329204845,0.0,0.0,0.0,0.0,-0.20734511513692636
1666091040496272536,0.19617180316708985,0.0,0.0,0.0,0.0,-0.21048670779051615
1666091040540083394,0.2004364075837657,0.0,0.0,0.0,0.0,-0.22322761133007474
1666091040540098394,0.21109791862545538,0.0,0.0,0.0,0.0,-0.2118829711921116
1666091040540103069,0.20470101200044158,0.0,0.0,0.0,0.0,-0.21362830044410594
1666091040584340220,0.21109791862545538,0.0,0.0,0.0,0.0,-0.24626595745639987
1666091040584391621,0.22815633629215884,0.0,0.0,0.0,0.0,-0.2558652683423687
1666091040598528900,0.22602403408382088,0.0,0.0,0.0,0.0,-0.2569124658935653
1666091040617283795,0.23668554512551054,0.0,0.0,0.0,0.0,-0.2647664475275398
1666091040660132649,0.22389173187548297,0.0,0.0,0.0,0.0,-0.27157323161031766
1666091040660150950,0.23668554512551054,0.0,0.0,0.0,0.0,-0.29478611066184224
1666091040704194785,0.24734705616720024,0.0,0.0,0.0,0.0,-0.30944687637859464
1666091040704221837,0.24734705616720024,0.0,0.0,0.0,0.0,-0.33667401270970615
1666091040748183316,0.25587626500055194,0.0,0.0,0.0,0.0,-0.35046211380046133
1666091040748206254,0.253743962792214,0.0,0.0,0.0,0.0,-0.3556981015564444
1666091040792043069,0.25800856720888987,0.0,0.0,0.0,0.0,-0.3797836452339662
1666091040792056700,0.26867007825057954,0.0,0.0,0.0,0.0,-0.40177479380909464
1666091040836212661,0.26440547383390367,0.0,0.0,0.0,0.0,-0.4150392961242516
1666091040836237991,0.28572849591728305,0.0,0.0,0.0,0.0,-0.4417428336797648
1666091040880577440,0.28359619370894507,0.0,0.0,0.0,0.0,-0.45238934211693027
1666091040880626586,0.28999310033395886,0.0,0.0,0.0,0.0,-0.47472955654245763
1666091040880657787,0.3006546113756486,0.0,0.0,0.0,0.0,-0.48345620280242924
1666091040924053644,0.2985223091673106,0.0,0.0,0.0,0.0,-0.5064945489287543
1666091040924066311,0.3006546113756486,0.0,0.0,0.0,0.0,-0.5239478414486977
1666091040937400014,0.30491921579232445,0.0,0.0,0.0,0.0,-0.5323254218582705
1666091040959004238,0.3134484246256761,0.0,0.0,0.0,0.0,-0.5628686837681712
1666091041000073677,0.31984533125069,0.0,0.0,0.0,0.0,-0.5770058507093254
1666091041000085654,0.31984533125069,0.0,0.0,0.0,0.0,-0.5852088981936987
1666091041044363637,0.3390360511257314,0.0,0.0,0.0,0.0,-0.6068509809184285
1666091041044412070,0.3326391445007175,0.0,0.0,0.0,0.0,-0.6302383928951524
1666091041088084709,0.3347714467090555,0.0,0.0,0.0,0.0,-0.6487388829662923
1666091041088098047,0.34330065554240724,0.0,0.0,0.0,0.0,-0.6640977803838423
1666091041132107483,0.34116835333406925,0.0,0.0,0.0,0.0,-0.6766641509982017
1666091041132119397,0.34756525995908305,0.0,0.0,0.0,0.0,-0.6738716241950107
1666091041176334728,0.34756525995908305,0.0,0.0,0.0,0.0,-0.6934193118173471
1666091041176401588,0.34969756216742104,0.0,0.0,0.0,0.0,-0.7239625737272478
1666091041220289116,0.34330065554240724,0.0,0.0,0.0,0.0,-0.7316420224360229
1666091041220321278,0.3390360511257314,0.0,0.0,0.0,0.0,-0.7358308126408092
1666091041220351026,0.34116835333406925,0.0,0.0,0.0,0.0,-0.7241371066524473
1666091041265482655,0.34969756216742104,0.0,0.0,0.0,0.0,-0.7021459580773187
1666091041265564759,0.34116835333406925,0.0,0.0,0.0,0.0,-0.6853907972581733
1666091041277121082,0.3454329577507451,0.0,0.0,0.0,0.0,-0.6707300315414209
1666091041296854520,0.3454329577507451,0.0,0.0,0.0,0.0,-0.6684611035138281
1666091041344110502,0.34330065554240724,0.0,0.0,0.0,0.0,-0.6424556976591127
1666091041344128931,0.3369037489173934,0.0,0.0,0.0,0.0,-0.6391395720803233
1666091041388209885,0.3390360511257314,0.0,0.0,0.0,0.0,-0.6506587451434861
1666091041388327777,0.3347714467090555,0.0,0.0,0.0,0.0,-0.6475171524898963
1666091041436615777,0.3369037489173934,0.0,0.0,0.0,0.0,-0.6445500927615059
1666091041436695118,0.3326391445007175,0.0,0.0,0.0,0.0,-0.641757565958315
1666091041484183129,0.3347714467090555,0.0,0.0,0.0,0.0,-0.6274458660919615
1666091041484216364,0.3369037489173934,0.0,0.0,0.0,0.0,-0.6150540284028018
1666091041484228908,0.3369037489173934,0.0,0.0,0.0,0.0,-0.6105161723476165
1666091041532163214,0.32837454008404166,0.0,0.0,0.0,0.0,-0.5981243346584567
1666091041532189380,0.22815633629215884,0.0,0.0,0.0,0.0,-0.5920156822764766
1666091041538079039,0.22389173187548297,0.0,0.0,0.0,0.0,-0.603883921190038
1666091041557231234,0.26440547383390367,0.0,0.0,0.0,0.0,-0.6089453760208217
1666091041600161490,0.29425770475063473,0.0,0.0,0.0,0.0,-0.6243042734383717
1666091041600187158,0.26440547383390367,0.0,0.0,0.0,0.0,-0.645422757387503
1666091041644250831,0.22815633629215884,0.0,0.0,0.0,0.0,-0.6028367236388413
1666091041644755678,0.2409501495421864,0.0,0.0,0.0,0.0,-0.5302310267558773
1666091041688158657,0.2622731716255658,0.0,0.0,0.0,0.0,-0.5026548245743669
1666091041688176766,0.26440547383390367,0.0,0.0,0.0,0.0,-0.4820599394008338
1666091041732296996,0.2409501495421864,0.0,0.0,0.0,0.0,-0.4419173666049642
1666091041732358892,0.09808590158354492,0.0,0.0,0.0,0.0,-0.3996803987067014
1666091041776067789,0.08742439054185526,0.0,0.0,0.0,0.0,-0.3536037064540512
1666091041776079997,0.16418727004202083,0.0,0.0,0.0,0.0,-0.35238197597765514
1666091041820146491,0.04904295079177246,0.0,0.0,0.0,0.0,-0.3820525732615587
1666091041820178550,0.019190719875041395,0.0,0.0,0.0,0.0,-0.3825761720371571
1666091041820183645,0.025587626500055197,0.0,0.0,0.0,0.0,-0.3817035074111599
1666091041864616190,0.034116835333406925,0.0,0.0,0.0,0.0,-0.36110862223762685
1666091041864703310,0.034116835333406925,0.0,0.0,0.0,0.0,-0.2834414705238791
1666091041878202603,0.027719928708393127,0.0,0.0,0.0,0.0,-0.1998401993533507
1666091041897927702,0.021323022083379328,0.0,0.0,0.0,0.0,-0.17208946424664087
1666091041940386276,0.025587626500055197,0.0,0.0,0.0,0.0,-0.1630137521362704
1666091041940411245,0.021323022083379328,0.0,0.0,0.0,0.0,-0.15742869852988853
1666091041984497750,0.019190719875041395,0.0,0.0,0.0,0.0,-0.15795229730548682
1666091041984546150,0.0,0.0,0.0,0.0,0.0,-0.15132004614790837
1666091042028104210,-0.006396906625013799,0.0,0.0,0.0,0.0,-0.1349139511791617
1666091042028121088,-0.004264604416675866,0.0,0.0,0.0,0.0,-0.11990411961201045
1666091042072131215,-0.004264604416675866,0.0,0.0,0.0,0.0,-0.11972958668681102
1666091042072140479,-0.006396906625013799,0.0,0.0,0.0,0.0,-0.08656833089891874
1666091042116595051,-0.012793813250027599,0.0,0.0,0.0,0.0,-0.03316125578789226
1666091042116666059,-0.008529208833351731,0.0,0.0,0.0,0.0,-0.016057029118347832
1666091042160041348,-0.002132302208337933,0.0,0.0,0.0,0.0,-0.015358897417550098
1666091042160050763,0.0,0.0,0.0,0.0,0.0,-0.025132741228718346
1666091042160054771,-0.002132302208337933,0.0,0.0,0.0,0.0,-0.029670597283903602
1666091042204310610,-0.002132302208337933,0.0,0.0,0.0,0.0,-0.02391101075232232
1666091042204341579,0.006396906625013799,0.0,0.0,0.0,0.0,-0.01064650843716541
1666091042218004453,0.008529208833351731,0.0,0.0,0.0,0.0,0.0015707963267948967
1666091042238882402,0.008529208833351731,0.0,0.0,0.0,0.0,0.0005235987755982988
1666091042283042152,0.010661511041689664,0.0,0.0,0.0,0.0,0.0
1666091042283070022,0.006396906625013799,0.0,0.0,0.0,0.0,0.0
1666091042324124393,0.010661511041689664,0.0,0.0,0.0,0.0,-0.002617993877991494
1666091042324145207,0.0,0.0,0.0,0.0,0.0,0.0
1666091042368119974,0.0,0.0,0.0,0.0,0.0,-0.016057029118347832
1666091042368151187,0.0,0.0,0.0,0.0,0.0,-0.00942477796076938
1666091042412173963,0.0,0.0,0.0,0.0,0.0,0.0
1666091042412203700,0.0,0.0,0.0,0.0,0.0,0.008377580409572781
1666091042456038425,0.0,0.0,0.0,0.0,0.0,0.01658062789394613
1666091042456048008,-0.002132302208337933,0.0,0.0,0.0,0.0,0.028623399732707
1666091042500538168,-0.002132302208337933,0.0,0.0,0.0,0.0,0.019547687622336492
1666091042500600940,-0.004264604416675866,0.0,0.0,0.0,0.0,0.0013962634015954637
1666091042500692121,-0.002132302208337933,0.0,0.0,0.0,0.0,-0.003316125578789226
1666091042544146686,0.0,0.0,0.0,0.0,0.0,0.0
1666091042544155229,0.0,0.0,0.0,0.0,0.0,0.0
1666091042557566470,0.0,0.0,0.0,0.0,0.0,0.0
1666091042578073457,0.0,0.0,0.0,0.0,0.0,0.0
1666091042620154107,0.0,0.0,0.0,0.0,0.0,0.0
1666091042620185793,0.0,0.0,0.0,0.0,0.0,0.0
1666091042664404625,0.0,0.0,0.0,0.0,0.0,0.0
1666091042664462516,0.0,0.0,0.0,0.0,0.0,0.0
1666091042708194988,0.0,0.0,0.0,0.0,0.0,0.0
1666091042708219258,0.0,0.0,0.0,0.0,0.0,0.0
1666091042752185847,0.0,0.0,0.0,0.0,0.0,0.0
1666091042752241966,0.0,0.0,0.0,0.0,0.0,0.0
1666091042796037081,0.0,0.0,0.0,0.0,0.0,0.0
1666091042796046611,0.0,0.0,0.0,0.0,0.0,0.0
1666091042840104804,0.0,0.0,0.0,0.0,0.0,0.0
1666091042840118561,0.0,0.0,0.0,0.0,0.0,0.0
1666091042840141077,0.0,0.0,0.0,0.0,0.0,0.0
1666091042884324916,0.0,0.0,0.0,0.0,0.0,0.0
1666091042884405272,0.0,0.0,0.0,0.0,0.0,0.0
1666091042899460051,0.0,0.0,0.0,0.0,0.0,0.0
1666091042918580139,0.0,0.0,0.0,0.0,0.0,0.0
1666091042964113477,0.0,0.0,0.0,0.0,0.0,0.0
1666091042964132097,0.0,0.0,0.0,0.0,0.0,0.0
1666091043008153529,0.0,0.0,0.0,0.0,0.0,0.0
1666091043008172812,0.0,0.0,0.0,0.0,0.0,0.0
1666091043056133615,0.0,0.0,0.0,0.0,0.0,0.0
1666091043056163841,0.0,0.0,0.0,0.0,0.0,0.0
1666091043100228345,0.0,0.0,0.0,0.0,0.0,0.0
1666091043100249843,0.0,0.0,0.0,0.0,0.0,0.0
1666091043100255004,0.0,0.0,0.0,0.0,0.0,0.0
1666091043148238940,0.0,0.0,0.0,0.0,0.0,0.0
1666091043148259842,0.0,0.0,0.0,0.0,0.0,0.0
1666091043159459572,0.0,0.0,0.0,0.0,0.0,0.0
1666091043178586530,0.0,0.0,0.0,0.0,0.0,0.0
1666091043220162657,0.0,0.0,0.0,0.0,0.0,0.0
1666091043220190466,0.0,0.0,0.0,0.0,0.0,0.0
1666091043264089853,0.0,0.0,0.0,0.0,0.0,0.0
1666091043264108560,0.0,0.0,0.0,0.0,0.0,0.0
1666091043312105069,0.0,0.0,0.0,0.0,0.0,0.0
1666091043312127346,0.0,0.0,0.0,0.0,0.0,0.0
1666091043360181708,0.0,0.0,0.0,0.0,0.0,0.0
1666091043360205213,0.0,0.0,0.0,0.0,0.0,-0.003490658503988659
1666091043360239720,0.0,0.0,0.0,0.0,0.0,0.0
1666091043408193392,0.0,0.0,0.0,0.0,0.0,0.0012217304763960308
1666091043408224443,0.0,0.0,0.0,0.0,0.0,0.0012217304763960308
1666091043420105752,0.0,0.0,0.0,0.0,0.0,-0.0019198621771937623
1666091043438647754,0.0,0.0,0.0,0.0,0.0,-0.0005235987755982988
1666091043480095608,0.0,0.0,0.0,0.0,0.0,0.00017453292519943296
1666091043480111849,-0.002132302208337933,0.0,0.0,0.0,0.0,0.0010471975511965976
1666091043524141037,0.002132302208337933,0.0,0.0,0.0,0.0,0.0012217304763960308
1666091043524174203,0.002132302208337933,0.0,0.0,0.0,0.0,-0.0013962634015954637
1666091043572060896,0.0,0.0,0.0,0.0,0.0,-0.0008726646259971648
1666091043572077263,0.0,0.0,0.0,0.0,0.0,0.0008726646259971648
1666091043616437732,0.0,0.0,0.0,0.0,0.0,0.0019198621771937623
1666091043616525637,-0.002132302208337933,0.0,0.0,0.0,0.0,0.0005235987755982988
1666091043660132024,0.0,0.0,0.0,0.0,0.0,-0.0022689280275926286
1666091043660155526,-0.002132302208337933,0.0,0.0,0.0,0.0,-0.0005235987755982988
1666091043660162120,-0.002132302208337933,0.0,0.0,0.0,0.0,-0.0010471975511965976
1666091043704184222,0.0,0.0,0.0,0.0,0.0,-0.0013962634015954637
1666091043704202741,0.0,0.0,0.0,0.0,0.0,-0.007853981633974483
1666091043718916144,-0.002132302208337933,0.0,0.0,0.0,0.0,-0.008377580409572781
1666091043738464389,-0.002132302208337933,0.0,0.0,0.0,0.0,-0.0019198621771937623
1666091043780187300,-0.002132302208337933,0.0,0.0,0.0,0.0,0.0005235987755982988
1666091043780211050,0.0,0.0,0.0,0.0,0.0,-0.0012217304763960308
1666091043824759917,0.0,0.0,0.0,0.0,0.0,-0.00471238898038469
1666091043824825131,0.0,0.0,0.0,0.0,0.0,0.0005235987755982988
1666091043868247339,0.0,0.0,0.0,0.0,0.0,0.0019198621771937623
1666091043868289027,0.0,0.0,0.0,0.0,0.0,-0.0012217304763960308
1666091043912123037,0.0,0.0,0.0,0.0,0.0,0.0005235987755982988
1666091043912142611,0.0,0.0,0.0,0.0,0.0,0.0
1666091043956423475,-0.002132302208337933,0.0,0.0,0.0,0.0,-0.0019198621771937623
1666091043956479431,0.0,0.0,0.0,0.0,0.0,0.002617993877991494
1666091044004245002,0.002132302208337933,0.0,0.0,0.0,0.0,-0.0008726646259971648
1666091044004281386,0.0,0.0,0.0,0.0,0.0,-0.0013962634015954637
1666091044004305430,-0.002132302208337933,0.0,0.0,0.0,0.0,0.0041887902047863905
1666091044048061984,-0.004264604416675866,0.0,0.0,0.0,0.0,0.006108652381980153
1666091044048078474,-0.006396906625013799,0.0,0.0,0.0,0.0,0.0022689280275926286
1666091044059653926,0.002132302208337933,0.0,0.0,0.0,0.0,0.0015707963267948967
1666091044079090963,-0.002132302208337933,0.0,0.0,0.0,0.0,-0.008726646259971648
1666091044120261264,0.002132302208337933,0.0,0.0,0.0,0.0,-0.010471975511965976
1666091044164099004,0.002132302208337933,0.0,0.0,0.0,0.0,-0.013264502315156903
1666091044164113859,0.008529208833351731,0.0,0.0,0.0,0.0,-0.011693705988362009
1666091044164117873,0.006396906625013799,0.0,0.0,0.0,0.0,-0.01308996938995747
1666091044208210889,0.008529208833351731,0.0,0.0,0.0,0.0,-0.022514747350726852
1666091044208257771,0.012793813250027599,0.0,0.0,0.0,0.0,-0.031415926535897934
1666091044220318806,0.021323022083379328,0.0,0.0,0.0,0.0,-0.05323254218582704
1666091044239526941,0.012793813250027599,0.0,0.0,0.0,0.0,-0.07173303225696695
1666091044280096824,0.027719928708393127,0.0,0.0,0.0,0.0,-0.091106186954104
1666091044280115580,0.027719928708393127,0.0,0.0,0.0,0.0,-0.10611601852125523
1666091044328139204,0.03198453312506899,0.0,0.0,0.0,0.0,-0.12130038301360589
1666091044328162076,0.03838143975008279,0.0,0.0,0.0,0.0,-0.13456488532876282
1666091044372158065,0.04051374195842073,0.0,0.0,0.0,0.0,-0.1382300767579509
1666091044372177661,0.05757215962512419,0.0,0.0,0.0,0.0,-0.14206980111233844
1666091044416197380,0.05330755520844832,0.0,0.0,0.0,0.0,-0.15428710587629874
1666091044416224499,0.051175253000110395,0.0,0.0,0.0,0.0,-0.15760323145508795
1666091044460150104,0.06823367066681385,0.0,0.0,0.0,0.0,-0.13962634015954636
1666091044460176395,0.0703659728751518,0.0,0.0,0.0,0.0,-0.12740903539558604
1666091044460192809,0.08102748391684146,0.0,0.0,0.0,0.0,-0.14032447186034408
1666091044508393665,0.08315978612517938,0.0,0.0,0.0,0.0,-0.15027284859671175
1666091044508426328,0.07676287950016558,0.0,0.0,0.0,0.0,-0.1335176877775662
1666091044528049108,0.09595359937520698,0.0,0.0,0.0,0.0,-0.11257373675363426
1666091044540553540,0.09808590158354492,0.0,0.0,0.0,0.0,-0.11152653920243764
1666091044585405365,0.09595359937520698,0.0,0.0,0.0,0.0,-0.12356931104119852
1666091044585481294,0.10235050600022079,0.0,0.0,0.0,0.0,-0.11833332328521554
1666091044632165184,0.10661511041689664,0.0,0.0,0.0,0.0,-0.10471975511965977
1666091044632186764,0.11940892366692425,0.0,0.0,0.0,0.0,-0.10419615634406146
1666091044676063909,0.12580583029193804,0.0,0.0,0.0,0.0,-0.11798425743481668
1666091044676082684,0.11940892366692425,0.0,0.0,0.0,0.0,-0.12077678423800761
1666091044720179626,0.13433503912528977,0.0,0.0,0.0,0.0,-0.10419615634406146
1666091044720198838,0.1364673413336277,0.0,0.0,0.0,0.0,-0.10663961729685353
1666091044720248118,0.14712885237531736,0.0,0.0,0.0,0.0,-0.10053096491487339
1666091044764102148,0.14286424795864153,0.0,0.0,0.0,0.0,-0.07103490055616922
1666091044764127077,0.14286424795864153,0.0,0.0,0.0,0.0,-0.061959188445798695
1666091044780945817,0.15779036341700706,0.0,0.0,0.0,0.0,-0.08115781021773633
1666091044798997855,0.16418727004202083,0.0,0.0,0.0,0.0,-0.06928957130417489
1666091044840343369,0.17271647887537256,0.0,0.0,0.0,0.0,-0.05986479334340551
1666091044840397010,0.1684518744586967,0.0,0.0,0.0,0.0,-0.08063421144213802
1666091044888379073,0.17058417666703463,0.0,0.0,0.0,0.0,-0.08499753457212385
1666091044888460615,0.18124568770872432,0.0,0.0,0.0,0.0,-0.10192722831646885
1666091044932199222,0.1876425943337381,0.0,0.0,0.0,0.0,-0.11274826967883368
1666091044932217170,0.19830410537542775,0.0,0.0,0.0,0.0,-0.10471975511965977
1666091044980327429,0.19830410537542775,0.0,0.0,0.0,0.0,-0.10000736613927509
1666091044980373978,0.19830410537542775,0.0,0.0,0.0,0.0,-0.09250245035569946
1666091044980457711,0.20683331420877948,0.0,0.0,0.0,0.0,-0.09721483933608417
1666091045028074188,0.21536252304213124,0.0,0.0,0.0,0.0,-0.06806784082777885
1666091045028092813,0.2196271274588071,0.0,0.0,0.0,0.0,-0.07679448708775051
1666091045039617279,0.22602403408382088,0.0,0.0,0.0,0.0,-0.06754424205218056
1666091045060010159,0.23242094070883468,0.0,0.0,0.0,0.0,-0.07609635538695277
1666091045100351539,0.23455324291717264,0.0,0.0,0.0,0.0,-0.07906341511534314
1666091045144112396,0.23242094070883468,0.0,0.0,0.0,0.0,-0.06579891280018622
1666091045144129556,0.24734705616720024,0.0,0.0,0.0,0.0,-0.06702064327658225
1666091045144143032,0.25800856720888987,0.0,0.0,0.0,0.0,-0.07557275661135446
1666091045188277101,0.26440547383390367,0.0,0.0,0.0,0.0,-0.06841690667817771
1666091045188325414,0.26653777604224166,0.0,0.0,0.0,0.0,-0.06981317007977318
1666091045199671166,0.25587626500055194,0.0,0.0,0.0,0.0,-0.07312929565856242
1666091045219529245,0.2729346826672554,0.0,0.0,0.0,0.0,-0.0736528944341607
1666091045260173093,0.2814638915006072,0.0,0.0,0.0,0.0,-0.06911503837897545
1666091045260199400,0.28999310033395886,0.0,0.0,0.0,0.0,-0.05672320068981571
1666091045308240612,0.29425770475063473,0.0,0.0,0.0,0.0,-0.060039326268604934
1666091045308265086,0.28786079812562093,0.0,0.0,0.0,0.0,-0.07016223593017204
1666091045352875597,0.3006546113756486,0.0,0.0,0.0,0.0,-0.06789330790257941
1666091045352930341,0.30491921579232445,0.0,0.0,0.0,0.0,-0.05201081170943102
1666091045396093959,0.32197763345902786,0.0,0.0,0.0,0.0,-0.04031710572106901
1666091045396134065,0.317713029042352,0.0,0.0,0.0,0.0,-0.045727626402251434
1666091045440083192,0.3155807268340141,0.0,0.0,0.0,0.0,-0.04031710572106901
1666091045440093314,0.32197763345902786,0.0,0.0,0.0,0.0,-0.03752457891787808
1666091045440107061,0.3326391445007175,0.0,0.0,0.0,0.0,-0.02391101075232232
1666091045484398516,0.3539621665840969,0.0,0.0,0.0,0.0,-0.01815142422074103
1666091045484439838,0.34969756216742104,0.0,0.0,0.0,0.0,-0.033859387488689996
1666091045499753774,0.3369037489173934,0.0,0.0,0.0,0.0,-0.035255650890285456
1666091045520523906,0.34969756216742104,0.0,0.0,0.0,0.0,-0.023038346126325153
1666091045564111541,0.3560944687924348,0.0,0.0,0.0,0.0,-0.02234021442552742
1666091045564138600,0.37954979308415204,0.0,0.0,0.0,0.0,-0.03106686068549907
1666091045608113379,0.3731528864591383,0.0,0.0,0.0,0.0,-0.024434609527920613
1666091045608164406,0.3710205842508003,0.0,0.0,0.0,0.0,-0.024783675378319478
1666091045652266290,0.3710205842508003,0.0,0.0,0.0,0.0,-0.027925268031909273
1666091045652304028,0.38807900191750383,0.0,0.0,0.0,0.0,-0.016755160819145562
1666091045700393034,0.40300511737586936,0.0,0.0,0.0,0.0,-0.015533430342749534
1666091045700417355,0.3923436063341797,0.0,0.0,0.0,0.0,-0.030194196059501903
1666091045744113107,0.38594669970916584,0.0,0.0,0.0,0.0,-0.03822271061867582
1666091045744130167,0.40300511737586936,0.0,0.0,0.0,0.0,-0.03961897402027128
1666091045744142994,0.4072697217925452,0.0,0.0,0.0,0.0,-0.03752457891787808
1666091045789031414,0.42646044166758657,0.0,0.0,0.0,0.0,-0.030019663134302467
1666091045789109459,0.4349896505009383,0.0,0.0,0.0,0.0,-0.04066617157146788
1666091045800727236,0.42006353504257277,0.0,0.0,0.0,0.0,-0.03874630939427412
1666091045819692827,0.4285927438759245,0.0,0.0,0.0,0.0,-0.030543261909900768
1666091045860342888,0.4349896505009383,0.0,0.0,0.0,0.0,-0.023212879051524585
1666091045860392718,0.45204806816764176,0.0,0.0,0.0,0.0,-0.02129301687433082
1666091045904080616,0.45844497479265556,0.0,0.0,0.0,0.0,-0.02809980095710871
1666091045904096561,0.445651161542628,0.0,0.0,0.0,0.0,-0.03577924966588375
1666091045948688843,0.4563126725843177,0.0,0.0,0.0,0.0,-0.03298672286269282
1666091045948731895,0.4627095792093315,0.0,0.0,0.0,0.0,-0.02129301687433082
1666091045992143006,0.4819002990843728,0.0,0.0,0.0,0.0,-0.016406094968746697
1666091045992164570,0.4819002990843728,0.0,0.0,0.0,0.0,-0.011868238913561443
1666091046036331093,0.4691064858343453,0.0,0.0,0.0,0.0,-0.015009831567151233
1666091046036369435,0.4819002990843728,0.0,0.0,0.0,0.0,-0.01884955592153876
1666091046080130795,0.4882972057093866,0.0,0.0,0.0,0.0,-0.017976891295541593
1666091046080154501,0.5117525300011039,0.0,0.0,0.0,0.0,-0.015533430342749534
1666091046125275708,0.5138848322094418,0.0,0.0,0.0,0.0,-0.011693705988362009
1666091046125299417,0.5032233211677521,0.0,0.0,0.0,0.0,-0.009599310885968814
1666091046125330593,0.49042950791772455,0.0,0.0,0.0,0.0,-0.008203047484373348
1666091046172038568,0.48616490350104874,0.0,0.0,0.0,0.0,-0.005585053606381855
1666091046172049483,0.5032233211677521,0.0,0.0,0.0,0.0,-0.011693705988362009
1666091046179077438,0.5224140410427935,0.0,0.0,0.0,0.0,-0.010821041362364843
1666091046199396170,0.5181494366261178,0.0,0.0,0.0,0.0,-0.006283185307179587
1666091046240084913,0.5288109476678073,0.0,0.0,0.0,0.0,-0.019896753472735354
1666091046287438016,0.5266786454594694,0.0,0.0,0.0,0.0,-0.02757620218151041
1666091046287483956,0.5416047609178349,0.0,0.0,0.0,0.0,-0.032812189937493394
1666091046287530375,0.5458693653345108,0.0,0.0,0.0,0.0,-0.03612831551628262
1666091046328056629,0.5330755520844833,0.0,0.0,0.0,0.0,-0.033510321638291124
1666091046328071315,0.5437370631261729,0.0,0.0,0.0,0.0,-0.024085543677521744
1666091046340226835,0.5501339697511867,0.0,0.0,0.0,0.0,-0.02199114857512855
1666091046361276487,0.5501339697511867,0.0,0.0,0.0,0.0,-0.03316125578789226
1666091046404441726,0.5586631785845384,0.0,0.0,0.0,0.0,-0.038571776469074684
1666091046404485368,0.5522662719595246,0.0,0.0,0.0,0.0,-0.04066617157146788
1666091046448096826,0.5416047609178349,0.0,0.0,0.0,0.0,-0.03717551306747922
1666091046448123003,0.5501339697511867,0.0,0.0,0.0,0.0,-0.04310963252425994
1666091046492241611,0.5437370631261729,0.0,0.0,0.0,0.0,-0.0466002910282486
1666091046492263274,0.5586631785845384,0.0,0.0,0.0,0.0,-0.045553093477052
1666091046536166062,0.5565308763762006,0.0,0.0,0.0,0.0,-0.06736970912698112
1666091046536190294,0.5565308763762006,0.0,0.0,0.0,0.0,-0.08604473212332044
1666091046580110547,0.5480016675428488,0.0,0.0,0.0,0.0,-0.07731808586334879
1666091046580121955,0.5480016675428488,0.0,0.0,0.0,0.0,-0.09389871375729493
1666091046624785654,0.5543985741678626,0.0,0.0,0.0,0.0,-0.11850785621041496
1666091046624857141,0.5437370631261729,0.0,0.0,0.0,0.0,-0.12269664641520137
1666091046624926329,0.5373401565011591,0.0,0.0,0.0,0.0,-0.12461650859239512
1666091046668089861,0.5373401565011591,0.0,0.0,0.0,0.0,-0.15358897417550102
1666091046668102501,0.5266786454594694,0.0,0.0,0.0,0.0,-0.1551597705022959
1666091046681341403,0.5394724587094971,0.0,0.0,0.0,0.0,-0.16510814723866357
1666091046700892448,0.5245463432511316,0.0,0.0,0.0,0.0,-0.23125612588924865
1666091046744191076,0.5117525300011039,0.0,0.0,0.0,0.0,-0.23823744289722598
1666091046744215112,0.5160171344177797,0.0,0.0,0.0,0.0,-0.22933626371205493
1666091046788176206,0.49895871675107634,0.0,0.0,0.0,0.0,-0.23841197582242543
1666091046788189493,0.5032233211677521,0.0,0.0,0.0,0.0,-0.2515019452123829
1666091046836100281,0.5010910189594143,0.0,0.0,0.0,0.0,-0.29286624848464854
1666091046836117487,0.507487925584428,0.0,0.0,0.0,0.0,-0.31625366046137254
1666091046880319641,0.49895871675107634,0.0,0.0,0.0,0.0,-0.33126349202852373
1666091046880360266,0.49469411233440047,0.0,0.0,0.0,0.0,-0.3413864016900908
1666091046928251229,0.49042950791772455,0.0,0.0,0.0,0.0,-0.35150931135165797
1666091046928281456,0.49469411233440047,0.0,0.0,0.0,0.0,-0.37332592700158707
1666091046928298779,0.4733710902510211,0.0,0.0,0.0,0.0,-0.3839724354387525
1666091046976138226,0.477635694667697,0.0,0.0,0.0,0.0,-0.37908551353316833
1666091046976152797,0.47976799687603494,0.0,0.0,0.0,0.0,-0.3975860036043083
1666091046981207340,0.48616490350104874,0.0,0.0,0.0,0.0,-0.4642575810304917
1666091047001260167,0.47976799687603494,0.0,0.0,0.0,0.0,-0.5092870757319454
1666091047048298685,0.4882972057093866,0.0,0.0,0.0,0.0,-0.5382595413150513
1666091047048337904,0.4882972057093866,0.0,0.0,0.0,0.0,-0.5626941508429719
1666091047092230070,0.49042950791772455,0.0,0.0,0.0,0.0,-0.5834635689417044
1666091047092271174,0.49469411233440047,0.0,0.0,0.0,0.0,-0.592539281052075
1666091047140203431,0.4819002990843728,0.0,0.0,0.0,0.0,-0.5855579640440975
1666091047140222674,0.3902113041258417,0.0,0.0,0.0,0.0,-0.594633676154468
1666091047188339369,0.4008728151675314,0.0,0.0,0.0,0.0,-0.5323254218582705
1666091047188366109,0.445651161542628,0.0,0.0,0.0,0.0,-0.5225515780471023
1666091047188405979,0.44351885933429,0.0,0.0,0.0,0.0,-0.541401133968641
1666091047232078449,0.40940202400088316,0.0,0.0,0.0,0.0,-0.578053048260522
1666091047232096117,0.39874051295919344,0.0,0.0,0.0,0.0,-0.520806248795108
1666091047241299559,0.4307250460842625,0.0,0.0,0.0,0.0,-0.45151667749093305
1666091047264167726,0.44351885933429,0.0,0.0,0.0,0.0,-0.49183378321200205
1666091047300144144,0.42646044166758657,0.0,0.0,0.0,0.0,-0.5785766470361202
1666091047348055125,0.41579893062589696,0.0,0.0,0.0,0.0,-0.5726425275793395
1666091047348070005,0.4179312328342349,0.0,0.0,0.0,0.0,-0.5560618996853933
1666091047348081360,0.4285927438759245,0.0,0.0,0.0,0.0,-0.5393067388662478
1666091047392338036,0.42646044166758657,0.0,0.0,0.0,0.0,-0.5469861875750228
1666091047392385415,0.41366662841755897,0.0,0.0,0.0,0.0,-0.549429648527815
1666091047400770802,0.42006353504257277,0.0,0.0,0.0,0.0,-0.5223770451219027
1666091047421298069,0.4179312328342349,0.0,0.0,0.0,0.0,-0.48904125640881113
1666091047464203291,0.4349896505009383,0.0,0.0,0.0,0.0,-0.4904375198104066
1666091047464227582,0.4349896505009383,0.0,0.0,0.0,0.0,-0.4796164784480418
1666091047508430571,0.4499157659593038,0.0,0.0,0.0,0.0,-0.4705407663376713
1666091047508512185,0.45418037037597975,0.0,0.0,0.0,0.0,-0.508763476956347
1666091047552063564,0.4349896505009383,0.0,0.0,0.0,0.0,-0.5485569839018177
1666091047552079751,0.43712195270927623,0.0,0.0,0.0,0.0,-0.5593780252641826
1666091047596118459,0.4392542549176142,0.0,0.0,0.0,0.0,-0.5906194188748811
1666091047596134844,0.44351885933429,0.0,0.0,0.0,0.0,-0.6159266930287989
1666091047640309053,0.43712195270927623,0.0,0.0,0.0,0.0,-0.6538003377970759
1666091047640332568,0.4328573482926004,0.0,0.0,0.0,0.0,-0.6757914863722043
