%time,field.linear.x,field.linear.y,field.linear.z,field.angular.x,field.angular.y,field.angular.z
1666091039619236915,0.015,0.0,0.0,0.0,0.0,-0.03897076949562512
1666091039668839113,0.03,0.0,0.0,0.0,0.0,-0.07766486014251689
1666091039718940351,0.045,0.0,0.0,0.0,0.0,-0.11635895078940867
1666091039769318093,0.06,0.0,0.0,0.0,0.0,-0.15505304143630044
1666091039818924236,0.075,0.0,0.0,0.0,0.0,-0.19338986601845165
1666091039870125274,0.09,0.0,0.0,0.0,0.0,-0.24942099764883593
1666091039918970755,0.105,0.0,0.0,0.0,0.0,-0.2935457179308757
1666091039968729167,0.12,0.0,0.0,0.0,0.0,-0.3376704382129154
1666091040018819870,0.135,0.0,0.0,0.0,0.0,-0.3739131312839064
1666091040068654097,0.15000000000000002,0.0,0.0,0.0,0.0,-0.4101558243548974
1666091040118802329,0.16500000000000004,0.0,0.0,0.0,0.0,-0.4466508299383024
1666091040168740031,0.18000000000000005,0.0,0.0,0.0,0.0,-0.4831458355217074
1666091040218703406,0.19500000000000006,0.0,0.0,0.0,0.0,-0.5198270795739784
1666091040269951964,0.21000000000000008,0.0,0.0,0.0,0.0,-0.5566305181309569
1666091040319869486,0.2250000000000001,0.0,0.0,0.0,0.0,-0.5946954496105905
1666091040368779367,0.2400000000000001,0.0,0.0,0.0,0.0,-0.632826188774401
1666091040418613230,0.2550000000000001,0.0,0.0,0.0,0.0,-0.6709569279382115
1666091040468727408,0.27000000000000013,0.0,0.0,0.0,0.0,-0.709087667102022
1666091040518670006,0.28500000000000014,0.0,0.0,0.0,0.0,-0.7476361367650772
1666091040569442517,0.2959010909967823,0.0,0.0,0.0,0.0,-0.8476361367650772
1666091040618696803,0.3109010909967823,0.0,0.0,0.0,0.0,-0.8816589165957364
1666091040668781404,0.3259010909967823,0.0,0.0,0.0,0.0,-0.9156816964263955
1666091040720508598,0.34090109099678234,0.0,0.0,0.0,0.0,-0.9511421907668844
1666091040768695240,0.35590109099678235,0.0,0.0,0.0,0.0,-0.9866026851073734
1666091040819108021,0.37090109099678237,0.0,0.0,0.0,0.0,-1.0252568571986886
1666091040868752655,0.3859010909967824,0.0,0.0,0.0,0.0,-1.0640556973212907
1666091040918801886,0.4009010909967824,0.0,0.0,0.0,0.0,-1.1028545374438927
1666091040970106816,0.4159010909967824,0.0,0.0,0.0,0.0,-1.1498187279208085
1666091041021813351,0.4309010909967824,0.0,0.0,0.0,0.0,-1.1967829183977243
1666091041068905585,0.43260475993156433,0.0,0.0,0.0,0.0,-1.2217304763960313
1666091041118930594,0.423038363456726,0.0,0.0,0.0,0.0,-1.0471975511965983
1666091041169322321,0.4228251278400421,0.0,0.0,0.0,0.0,-1.0471975511965983
1666091041219039889,0.4228251278400421,0.0,0.0,0.0,0.0,-1.0471975511965983
1666091041269367091,0.4136498272418976,0.0,0.0,0.0,0.0,-1.0471975511965983
1666091041319492788,0.4073401093482971,0.0,0.0,0.0,0.0,-1.0471975511965983
1666091041369021669,0.40748223662376404,0.0,0.0,0.0,0.0,-1.0471975511965983
1666091041418684668,0.40748223662376404,0.0,0.0,0.0,0.0,-1.0471975511965983
1666091041468703743,0.28691327571868896,0.0,0.0,0.0,0.0,-0.8726646259971653
1666091041519749152,0.29090946912765503,0.0,0.0,0.0,0.0,-0.6981317007977323
1666091041568842186,0.29090946912765503,0.0,0.0,0.0,0.0,-0.6981317007977323
1666091041618645604,0.30590946912765504,0.0,0.0,0.0,0.0,-0.6239908537841048
1666091041668694759,0.15590946912765502,0.0,0.0,0.0,0.0,-0.5762690937531457
1666091041718885489,0.005909469127654998,0.0,0.0,0.0,0.0,-0.4653899106035343
1666091041768869160,0.0,0.0,0.0,0.0,0.0,-0.3997720745592421
1666091041819027675,0.0,0.0,0.0,0.0,0.0,-0.3997720745592421
1666091041869153495,0.0,0.0,0.0,0.0,0.0,-0.3235280139002512
1666091041918956033,0.0,0.0,0.0,0.0,0.0,-0.3235280139002512
1666091041969097392,0.0,0.0,0.0,0.0,0.0,-0.2614911751393453
1666091042018941742,0.0,0.0,0.0,0.0,0.0,-0.2614911751393453
1666091042068804553,0.0,0.0,0.0,0.0,0.0,-0.17453292519943345
1666091042122450845,0.0,0.0,0.0,0.0,0.0,-4.996003610813204e-16
1666091042168620917,0.0,0.0,0.0,0.0,0.0,-4.996003610813204e-16
1666091042219647806,0.0,0.0,0.0,0.0,0.0,-4.996003610813204e-16
1666091042269790098,0.0,0.0,0.0,0.0,0.0,-4.996003610813204e-16
1666091042318936844,0.0,0.0,0.0,0.0,0.0,-4.996003610813204e-16
1666091042368741844,0.0,0.0,0.0,0.0,0.0,-4.996003610813204e-16
1666091042419347186,0.0,0.0,0.0,0.0,0.0,-4.996003610813204e-16
1666091042468883594,0.0,0.0,0.0,0.0,0.0,-4.996003610813204e-16
1666091042520258127,0.0,0.0,0.0,0.0,0.0,-4.996003610813204e-16
1666091042569623277,0.0,0.0,0.0,0.0,0.0,-4.996003610813204e-16
1666091042619233591,0.0,0.0,0.0,0.0,0.0,-4.996003610813204e-16
1666091042668740024,0.0,0.0,0.0,0.0,0.0,-4.996003610813204e-16
1666091042719795128,0.0,0.0,0.0,0.0,0.0,-4.996003610813204e-16
1666091042768774082,0.0,0.0,0.0,0.0,0.0,-4.996003610813204e-16
1666091042819882456,0.0,0.0,0.0,0.0,0.0,-4.996003610813204e-16
1666091042868763254,0.0,0.0,0.0,0.0,0.0,-4.996003610813204e-16
1666091042919367383,0.0,0.0,0.0,0.0,0.0,-4.996003610813204e-16
1666091042969255666,0.0,0.0,0.0,0.0,0.0,-4.996003610813204e-16
1666091043019348464,0.0,0.0,0.0,0.0,0.0,-4.996003610813204e-16
1666091043068745097,0.0,0.0,0.0,0.0,0.0,-4.996003610813204e-16
1666091043119805944,0.0,0.0,0.0,0.0,0.0,-4.996003610813204e-16
1666091043169073517,0.0,0.0,0.0,0.0,0.0,-4.996003610813204e-16
1666091043218924150,0.0,0.0,0.0,0.0,0.0,-4.996003610813204e-16
1666091043269014608,0.0,0.0,0.0,0.0,0.0,-4.996003610813204e-16
1666091043318972877,0.0,0.0,0.0,0.0,0.0,-0.1000000000000005
1666091043368826294,0.0,0.0,0.0,0.0,0.0,-0.17453292519943345
1666091043420402252,0.0,0.0,0.0,0.0,0.0,-0.17453292519943345
1666091043468829902,0.0,0.0,0.0,0.0,0.0,-0.17453292519943345
1666091043519429964,0.0,0.0,0.0,0.0,0.0,-0.2477203038262543
1666091043568661266,0.0,0.0,0.0,0.0,0.0,-0.28114509503827473
1666091043620188468,0.0,0.0,0.0,0.0,0.0,-0.3548557637617916
1666091043668934635,0.0,0.0,0.0,0.0,0.0,-0.3835025161641412
1666091043718944461,0.0,0.0,0.0,0.0,0.0,-0.3790675950337607
1666091043768735807,0.0,0.0,0.0,0.0,0.0,-0.3790675950337607
1666091043818897655,0.0,0.0,0.0,0.0,0.0,-0.3790675950337607
1666091043868780036,0.0,0.0,0.0,0.0,0.0,-0.4331990161643971
1666091043919396523,0.0,0.0,0.0,0.0,0.0,-0.4566826177471434
1666091043968716634,0.0,0.0,0.0,0.0,0.0,-0.4566826177471434
1666091044019454590,0.0,0.0,0.0,0.0,0.0,-0.4566826177471434
1666091044074179845,0.015,0.0,0.0,0.0,0.0,-0.44587555177731353
1666091044119187234,0.03,0.0,0.0,0.0,0.0,-0.43541632317908646
1666091044168690904,0.045,0.0,0.0,0.0,0.0,-0.42535128275756184
1666091044219302380,0.06,0.0,0.0,0.0,0.0,-0.4152862423360372
1666091044268742098,0.075,0.0,0.0,0.0,0.0,-0.3985669922273139
1666091044319414007,0.09,0.0,0.0,0.0,0.0,-0.38184774211859057
1666091044368868534,0.105,0.0,0.0,0.0,0.0,-0.3745323234724637
1666091044419175154,0.12,0.0,0.0,0.0,0.0,-0.3672169048263368
1666091044468804663,0.135,0.0,0.0,0.0,0.0,-0.3599014861802099
1666091044519148297,0.15000000000000002,0.0,0.0,0.0,0.0,-0.35301675626819856
1666091044569636616,0.16500000000000004,0.0,0.0,0.0,0.0,-0.346612498876836
1666091044620306504,0.18000000000000005,0.0,0.0,0.0,0.0,-0.340560220957245
1666091044668720274,0.19500000000000006,0.0,0.0,0.0,0.0,-0.33450794303765397
1666091044719465804,0.21000000000000008,0.0,0.0,0.0,0.0,-0.31957619368349993
1666091044772193539,0.2250000000000001,0.0,0.0,0.0,0.0,-0.3046444443293459
1666091044819937281,0.2400000000000001,0.0,0.0,0.0,0.0,-0.299827316171416
1666091044869072199,0.2550000000000001,0.0,0.0,0.0,0.0,-0.28531158527833295
1666091044919491789,0.27000000000000013,0.0,0.0,0.0,0.0,-0.2707958543852499
1666091044968837117,0.28500000000000014,0.0,0.0,0.0,0.0,-0.26767438657545256
1666091045019966178,0.30000000000000016,0.0,0.0,0.0,0.0,-0.26455291876565523
1666091045068848203,0.31500000000000017,0.0,0.0,0.0,0.0,-0.2614314509558579
1666091045118829301,0.3300000000000002,0.0,0.0,0.0,0.0,-0.25865314816196916
1666091045168866957,0.3450000000000002,0.0,0.0,0.0,0.0,-0.2565779819861783
1666091045218968693,0.3600000000000002,0.0,0.0,0.0,0.0,-0.2545028158103875
1666091045269313319,0.3750000000000002,0.0,0.0,0.0,0.0,-0.2531771650357443
1666091045318717865,0.39000000000000024,0.0,0.0,0.0,0.0,-0.2518515142611011
1666091045369007741,0.40500000000000025,0.0,0.0,0.0,0.0,-0.24456820560342638
1666091045418818496,0.42000000000000026,0.0,0.0,0.0,0.0,-0.23728489694575167
1666091045468630312,0.4350000000000003,0.0,0.0,0.0,0.0,-0.23000158828807696
1666091045519230039,0.4500000000000003,0.0,0.0,0.0,0.0,-0.2329430336427539
1666091045568755431,0.4650000000000003,0.0,0.0,0.0,0.0,-0.23632972665781038
1666091045618977714,0.4800000000000003,0.0,0.0,0.0,0.0,-0.23970419330712503
1666091045668827153,0.49500000000000033,0.0,0.0,0.0,0.0,-0.24307865995643968
1666091045720236621,0.5100000000000003,0.0,0.0,0.0,0.0,-0.24012903386754886
1666091045768661629,0.5250000000000004,0.0,0.0,0.0,0.0,-0.24517887841151698
1666091045818882392,0.5400000000000004,0.0,0.0,0.0,0.0,-0.2502287229554851
1666091045868898641,0.5550000000000004,0.0,0.0,0.0,0.0,-0.2560794241152508
1666091045918694433,0.5700000000000004,0.0,0.0,0.0,0.0,-0.2619301252750165
1666091045968760624,0.5850000000000004,0.0,0.0,0.0,0.0,-0.2690347108956692
1666091046019494515,0.6000000000000004,0.0,0.0,0.0,0.0,-0.2761392965163219
1666091046068934642,0.5934706330299377,0.0,0.0,0.0,0.0,-0.25392717123031616
1666091046125247744,0.6084706330299378,0.0,0.0,0.0,0.0,-0.26861248226795753
1666091046168655660,0.6234706330299378,0.0,0.0,0.0,0.0,-0.2832977933055989
1666091046219784366,0.6384706330299378,0.0,0.0,0.0,0.0,-0.2979831043432403
1666091046268687422,0.6534706330299378,0.0,0.0,0.0,0.0,-0.3226505170046061
1666091046318717097,0.654694198735219,0.0,0.0,0.0,0.0,-0.4226505170046061
1666091046369154869,0.6547207206984365,0.0,0.0,0.0,0.0,-0.5226505170046061
1666091046419056175,0.654747242661654,0.0,0.0,0.0,0.0,-0.622650517004606
1666091046469288279,0.6533409009250197,0.0,0.0,0.0,0.0,-0.722650517004606
1666091046518845024,0.6519345591883856,0.0,0.0,0.0,0.0,-0.822650517004606
1666091046568911071,0.646812769278206,0.0,0.0,0.0,0.0,-0.922650517004606
1666091046618919204,0.6375478900005792,0.0,0.0,0.0,0.0,-1.022650517004606
1666091046668614412,0.6282830107229525,0.0,0.0,0.0,0.0,-1.1226505170046062
1666091046719133167,0.6048552989959717,0.0,0.0,0.0,0.0,-1.2217304763960313
1666091046768740651,0.6048552989959717,0.0,0.0,0.0,0.0,-1.2217304763960313
1666091046818634089,0.6048552989959717,0.0,0.0,0.0,0.0,-1.2217304763960313
1666091046868873187,0.5855495929718018,0.0,0.0,0.0,0.0,-1.2217304763960313
1666091046919022042,0.5804499387741089,0.0,0.0,0.0,0.0,-1.2217304763960313
1666091046968877934,0.5804499387741089,0.0,0.0,0.0,0.0,-1.2217304763960313
1666091047018807440,0.5819256901741028,0.0,0.0,0.0,0.0,-1.2217304763960313
1666091047070315339,0.4763719141483307,0.0,0.0,0.0,0.0,-1.2217304763960313
1666091047119051187,0.4763719141483307,0.0,0.0,0.0,0.0,-1.2217304763960313
1666091047169028943,0.4763719141483307,0.0,0.0,0.0,0.0,-1.2217304763960313
1666091047218837905,0.485260009765625,0.0,0.0,0.0,0.0,-1.2217304763960313
1666091047268922121,0.4916296601295471,0.0,0.0,0.0,0.0,-1.0471975511965983
1666091047318923130,0.4916296601295471,0.0,0.0,0.0,0.0,-1.0471975511965983
1666091047368737631,0.4916296601295471,0.0,0.0,0.0,0.0,-1.0471975511965983
1666091047419312149,0.5066296601295471,0.0,0.0,0.0,0.0,-1.0471975511965983
1666091047468739683,0.49827769398689264,0.0,0.0,0.0,0.0,-1.0471975511965983
1666091047518818411,0.4981355369091034,0.0,0.0,0.0,0.0,-1.0471975511965983
1666091047568832235,0.4981355369091034,0.0,0.0,0.0,0.0,-1.0471975511965983
1666091047618794940,0.5131355369091034,0.0,0.0,0.0,0.0,-1.020299054881451
1666091047669126489,0.5281355369091034,0.0,0.0,0.0,0.0,-0.9934005585663038
1666091047719560914,0.5431355369091034,0.0,0.0,0.0,0.0,-0.9664255733431398
1666091047768603079,0.5581355369091034,0.0,0.0,0.0,0.0,-0.9391531790633514
1666091047818649538,0.5731355369091035,0.0,0.0,0.0,0.0,-0.8469883090659129
1666091047868777894,0.5881355369091035,0.0,0.0,0.0,0.0,-0.766976501871876
1666091047918632606,0.6010420322418213,0.0,0.0,0.0,0.0,-0.6981317007977323
1666091047968690522,0.6001566052436828,0.0,0.0,0.0,0.0,-0.6981317007977323
1666091048019400951,0.6001566052436828,0.0,0.0,0.0,0.0,-0.6981317007977323
1666091048069021539,0.6151566052436828,0.0,0.0,0.0,0.0,-0.6151657941443495
1666091048118701332,0.6301566052436828,0.0,0.0,0.0,0.0,-0.5321998874909666
1666091048171744592,0.6428281664848328,0.0,0.0,0.0,0.0,-0.3490658503988664
1666091048218985288,0.6428281664848328,0.0,0.0,0.0,0.0,-0.3490658503988664
1666091048268692767,0.6578281664848328,0.0,0.0,0.0,0.0,-0.2150879384073434
1666091048318923341,0.661871075630188,0.0,0.0,0.0,0.0,-0.17453292519943345
1666091048369077566,0.6569788455963135,0.0,0.0,0.0,0.0,-0.06345745921134949
1666091048418829352,0.6518312692642211,0.0,0.0,0.0,0.0,-0.04146822541952133
1666091048469496350,0.6518312692642211,0.0,0.0,0.0,0.0,-0.04146822541952133
1666091048518798974,0.642419159412384,0.0,0.0,0.0,0.0,-0.02388305589556694
1666091048569432356,0.642419159412384,0.0,0.0,0.0,0.0,-0.02388305589556694
1666091048618753640,0.620050311088562,0.0,0.0,0.0,0.0,0.008821442723274231
1666091048669060505,0.620050311088562,0.0,0.0,0.0,0.0,0.008821442723274231
1666091048718629991,0.626288404611398,0.0,0.0,0.0,0.0,0.10882144272327424
1666091048769712619,0.6269405484199524,0.0,0.0,0.0,0.0,0.11927565932273865
1666091048818966001,0.5671885609626769,0.0,0.0,0.0,0.0,0.028722278773784637
1666091048869143701,0.5378901362419128,0.0,0.0,0.0,0.0,0.036051470786333084
1666091048919034527,0.5077869296073914,0.0,0.0,0.0,0.0,0.04243800789117813
1666091048968658474,0.5077869296073914,0.0,0.0,0.0,0.0,0.04243800789117813
1666091049023878046,0.5227869296073914,0.0,0.0,0.0,0.0,0.08837324375565404
1666091049068560643,0.5377869296073914,0.0,0.0,0.0,0.0,0.13430847962012998
1666091049118970370,0.47235381603240967,0.0,0.0,0.0,0.0,0.060055866837501526
1666091049169051528,0.4419269859790802,0.0,0.0,0.0,0.0,0.06151477247476578
1666091049218678982,0.4419269859790802,0.0,0.0,0.0,0.0,0.06151477247476578
1666091049269569666,0.4234779775142669,0.0,0.0,0.0,0.0,0.06401516497135162
1666091049318769787,0.4234779775142669,0.0,0.0,0.0,0.0,0.06401516497135162
1666091049368736782,0.4384779775142669,0.0,0.0,0.0,0.0,0.10367266254669157
1666091049420791326,0.45347797751426694,0.0,0.0,0.0,0.0,0.14333016012203154
1666091049469121873,0.3541170358657837,0.0,0.0,0.0,0.0,0.06320501863956451
1666091049518762790,0.3691170358657837,0.0,0.0,0.0,0.0,0.09106258983308566
1666091049568711480,0.3841170358657837,0.0,0.0,0.0,0.0,0.1189201610266068
1666091049619102191,0.3039070385662056,0.0,0.0,0.0,0.0,0.2189201610266068
1666091049669334795,0.22417893668220432,0.0,0.0,0.0,0.0,0.3189201610266068
1666091049718614012,0.14445083479820303,0.0,0.0,0.0,0.0,0.4189201610266068
1666091049770273752,0.07110268909063207,0.0,0.0,0.0,0.0,0.5189201610266068
1666091049818847732,0.0,0.0,0.0,0.0,0.0,0.6158587930870665
1666091049868796427,0.0,0.0,0.0,0.0,0.0,0.6246816281952846
1666091049918827070,0.0,0.0,0.0,0.0,0.0,0.6330802524491204
1666091049969511304,0.0,0.0,0.0,0.0,0.0,0.6330802524491204
1666091050018721758,0.0,0.0,0.0,0.0,0.0,0.6450014986633296
1666091050068895526,0.0,0.0,0.0,0.0,0.0,0.6281153379220537
1666091050118843301,0.0,0.0,0.0,0.0,0.0,0.6281153379220537
1666091050168796619,0.0,0.0,0.0,0.0,0.0,0.6715387327157051
1666091050219083360,0.0,0.0,0.0,0.0,0.0,0.6260354251269453
1666091050268714494,0.0,0.0,0.0,0.0,0.0,0.6260354251269453
1666091050318725324,0.0,0.0,0.0,0.0,0.0,0.6356496939062903
1666091050368811895,0.0,0.0,0.0,0.0,0.0,0.6356496939062903
1666091050419105373,0.0,0.0,0.0,0.0,0.0,0.6356496939062903
1666091050468765260,0.0,0.0,0.0,0.0,0.0,0.6462526667012708
1666091050519726522,0.0,0.0,0.0,0.0,0.0,0.6213578398019518
1666091050568803551,0.0,0.0,0.0,0.0,0.0,0.6213578398019518
1666091050618720167,0.0,0.0,0.0,0.0,0.0,0.5073361295254157
1666091050669249983,0.0,0.0,0.0,0.0,0.0,0.49939527481815643
1666091050719132657,0.015,0.0,0.0,0.0,0.0,0.47942309801772
1666091050768587953,0.03,0.0,0.0,0.0,0.0,0.45945092121728354
1666091050818674668,0.045,0.0,0.0,0.0,0.0,0.4424053501457914
1666091050868710041,0.06,0.0,0.0,0.0,0.0,0.4253597790742993
1666091050918742496,0.075,0.0,0.0,0.0,0.0,0.40831420800280716
1666091050969070758,0.09,0.0,0.0,0.0,0.0,0.3928817981157622
1666091051018745304,0.105,0.0,0.0,0.0,0.0,0.3774493882287172
1666091051068837928,0.12,0.0,0.0,0.0,0.0,0.36350282575566356
1666091051118743011,0.135,0.0,0.0,0.0,0.0,0.35072527890785277
1666091051168911582,0.15000000000000002,0.0,0.0,0.0,0.0,0.33794773206004197
1666091051219222227,0.16500000000000004,0.0,0.0,0.0,0.0,0.3262830572191541
1666091051268654558,0.18000000000000005,0.0,0.0,0.0,0.0,0.3146183823782663
1666091051319030040,0.19500000000000006,0.0,0.0,0.0,0.0,0.30401840603893393
1666091051368692168,0.21000000000000008,0.0,0.0,0.0,0.0,0.2888139873530241
1666091051418794812,0.2250000000000001,0.0,0.0,0.0,0.0,0.2736095686671143
1666091051469004666,0.2400000000000001,0.0,0.0,0.0,0.0,0.25840514998120445
1666091051518699441,0.2550000000000001,0.0,0.0,0.0,0.0,0.24424572638834433
1666091051568635529,0.27000000000000013,0.0,0.0,0.0,0.0,0.2300863027954842
1666091051618585491,0.28500000000000014,0.0,0.0,0.0,0.0,0.2125012563412212
1666091051668826612,0.30000000000000016,0.0,0.0,0.0,0.0,0.1948743609045639
1666091051718843018,0.31500000000000017,0.0,0.0,0.0,0.0,0.18311180340896996
1666091051768590614,0.3300000000000002,0.0,0.0,0.0,0.0,0.17134924591337602
1666091051819229268,0.3450000000000002,0.0,0.0,0.0,0.0,0.16004694402261846
1666091051868732235,0.3600000000000002,0.0,0.0,0.0,0.0,0.1487446421318609
1666091051918875714,0.3750000000000002,0.0,0.0,0.0,0.0,0.1317738298864952
1666091051968647607,0.39000000000000024,0.0,0.0,0.0,0.0,0.11480301764112948
1666091052019089713,0.40500000000000025,0.0,0.0,0.0,0.0,0.09783220539576376
1666091052070100707,0.42000000000000026,0.0,0.0,0.0,0.0,0.08086139315039804
1666091052119012314,0.4350000000000003,0.0,0.0,0.0,0.0,0.06389058090503233
1666091052168849139,0.4500000000000003,0.0,0.0,0.0,0.0,0.046919768659666614
1666091052218752975,0.4650000000000003,0.0,0.0,0.0,0.0,0.029948956414300898
1666091052269036106,0.4800000000000003,0.0,0.0,0.0,0.0,0.020793051267417262
1666091052319377180,0.49500000000000033,0.0,0.0,0.0,0.0,0.017294720578626282
1666091052368618145,0.5100000000000003,0.0,0.0,0.0,0.0,0.013796389889835302
1666091052418666393,0.5250000000000004,0.0,0.0,0.0,0.0,0.01029805920104432
1666091052469161214,0.5400000000000004,0.0,0.0,0.0,0.0,0.0002163691428364277
1666091052519025752,0.5550000000000004,0.0,0.0,0.0,0.0,-0.009865320915371466
1666091052568850137,0.5700000000000004,0.0,0.0,0.0,0.0,-0.019947010973579364
1666091052619683401,0.5850000000000004,0.0,0.0,0.0,0.0,-0.030028701031787258
1666091052668718245,0.6000000000000004,0.0,0.0,0.0,0.0,-0.04011039108999515
1666091052718733429,0.6150000000000004,0.0,0.0,0.0,0.0,-0.041315159717155985
1666091052768623033,0.6300000000000004,0.0,0.0,0.0,0.0,-0.04251992834431682
1666091052818764724,0.6450000000000005,0.0,0.0,0.0,0.0,-0.04372469697147765
1666091052868819038,0.6600000000000005,0.0,0.0,0.0,0.0,-0.04490729988102132
1666091052919274280,0.6750000000000005,0.0,0.0,0.0,0.0,-0.04608857924814039
1666091052968620634,0.6900000000000005,0.0,0.0,0.0,0.0,-0.04721420858965329
1666091053018674733,0.7050000000000005,0.0,0.0,0.0,0.0,-0.0483398379311662
1666091053072114410,0.7200000000000005,0.0,0.0,0.0,0.0,-0.049249851783698166
1666091053118710943,0.7350000000000005,0.0,0.0,0.0,0.0,-0.04001550457425478
1666091053168777835,0.7500000000000006,0.0,0.0,0.0,0.0,-0.0307811573648114
1666091053218785459,0.7650000000000006,0.0,0.0,0.0,0.0,-0.0027596125648475384
1666091053268688550,0.7664772272109985,0.0,0.0,0.0,0.0,-4.996003610813204e-16
1666091053318651536,0.7664772272109985,0.0,0.0,0.0,0.0,-4.996003610813204e-16
1666091053369291197,0.7487539649009703,0.0,0.0,0.0,0.0,-4.996003610813204e-16
1666091053418669337,0.73193359375,0.0,0.0,0.0,0.0,-4.996003610813204e-16
1666091053468833908,0.73193359375,0.0,0.0,0.0,0.0,-4.996003610813204e-16
1666091053518634888,0.73193359375,0.0,0.0,0.0,0.0,-4.996003610813204e-16
1666091053568888491,0.6885352730751038,0.0,0.0,0.0,0.0,-4.996003610813204e-16
1666091053619199823,0.6813629269599915,0.0,0.0,0.0,0.0,-4.996003610813204e-16
1666091053668660562,0.6811496615409851,0.0,0.0,0.0,0.0,-4.996003610813204e-16
1666091053718693098,0.6697067618370055,0.0,0.0,0.0,0.0,0.054241977632045746
1666091053768895444,0.6697067618370055,0.0,0.0,0.0,0.0,0.054241977632045746
1666091053819779417,0.650219738483429,0.0,0.0,0.0,0.0,-4.996003610813204e-16
1666091053868837976,0.650219738483429,0.0,0.0,0.0,0.0,-4.996003610813204e-16
1666091053918695072,0.650219738483429,0.0,0.0,0.0,0.0,-4.996003610813204e-16
1666091053968709381,0.5926544666290283,0.0,0.0,0.0,0.0,-4.996003610813204e-16
1666091054018699342,0.5701532959938049,0.0,0.0,0.0,0.0,-4.996003610813204e-16
1666091054068722971,0.5211698412895203,0.0,0.0,0.0,0.0,-4.996003610813204e-16
1666091054118740336,0.5228756666183472,0.0,0.0,0.0,0.0,-4.996003610813204e-16
1666091054168818357,0.48545041680336,0.0,0.0,0.0,0.0,-4.996003610813204e-16
1666091054218711802,0.48545041680336,0.0,0.0,0.0,0.0,-4.996003610813204e-16
1666091054269004721,0.48545041680336,0.0,0.0,0.0,0.0,-4.996003610813204e-16
1666091054319182942,0.45878157019615173,0.0,0.0,0.0,0.0,-4.996003610813204e-16
1666091054369397156,0.45878157019615173,0.0,0.0,0.0,0.0,-4.996003610813204e-16
1666091054418613342,0.4204068779945373,0.0,0.0,0.0,0.0,-0.06722107529640198
1666091054468699270,0.2704068779945373,0.0,0.0,0.0,0.0,-0.04323678335864914
1666091054518996277,0.12040687799453725,0.0,0.0,0.0,0.0,-0.019252491420896297
1666091054569154879,0.0,0.0,0.0,0.0,0.0,-4.996003610813204e-16
1666091054618951801,0.0,0.0,0.0,0.0,0.0,-4.996003610813204e-16
1666091054669047144,0.0,0.0,0.0,0.0,0.0,-4.996003610813204e-16
1666091054718666846,0.0,0.0,0.0,0.0,0.0,-0.1000000000000005
1666091054769111452,0.0,0.0,0.0,0.0,0.0,-0.17453292519943345
1666091054818551472,0.0,0.0,0.0,0.0,0.0,-0.17453292519943345
1666091054868961619,0.0,0.0,0.0,0.0,0.0,-0.17453292519943345
1666091054918843091,0.0,0.0,0.0,0.0,0.0,-0.17453292519943345
1666091054968665459,0.0,0.0,0.0,0.0,0.0,-0.17453292519943345
1666091055018726604,0.0,0.0,0.0,0.0,0.0,-0.17453292519943345
1666091055068958285,0.0,0.0,0.0,0.0,0.0,-0.22172942397359968
1666091055118857306,0.0,0.0,0.0,0.0,0.0,-0.22172942397359968
1666091055169390372,0.0,0.0,0.0,0.0,0.0,-0.22172942397359968
1666091055218689879,0.0,0.0,0.0,0.0,0.0,-0.23232992539061603
1666091055268858224,0.0,0.0,0.0,0.0,0.0,-0.23738456149066411
1666091055318862818,0.0,0.0,0.0,0.0,0.0,-0.23738456149066411
1666091055369135770,0.0,0.0,0.0,0.0,0.0,-0.24701385547239704
1666091055418707763,0.0,0.0,0.0,0.0,0.0,-0.25073865116968724
1666091055468555798,0.0,0.0,0.0,0.0,0.0,-0.25073865116968724
1666091055518694627,0.0,0.0,0.0,0.0,0.0,-0.25073865116968724
1666091055569026187,0.015,0.0,0.0,0.0,0.0,-0.24631997501751243
1666091055618873323,0.03,0.0,0.0,0.0,0.0,-0.24189917703015487
1666091055668722647,0.045,0.0,0.0,0.0,0.0,-0.2374783790427973
1666091055718737389,0.06,0.0,0.0,0.0,0.0,-0.23349571023533516
1666091055769057871,0.075,0.0,0.0,0.0,0.0,-0.2298812576077212
1666091055818752232,0.09,0.0,0.0,0.0,0.0,-0.22626680498010726
1666091055869000382,0.105,0.0,0.0,0.0,0.0,-0.22328927563530807
1666091055918770269,0.12,0.0,0.0,0.0,0.0,-0.22031174629050887
1666091055968920346,0.135,0.0,0.0,0.0,0.0,-0.21762053907223447
1666091056018736578,0.15000000000000002,0.0,0.0,0.0,0.0,-0.21492933185396007
1666091056069198767,0.16500000000000004,0.0,0.0,0.0,0.0,-0.2124927778951771
1666091056118603995,0.18000000000000005,0.0,0.0,0.0,0.0,-0.21005622393639412
1666091056169177291,0.19500000000000006,0.0,0.0,0.0,0.0,-0.20787374859181612
1666091056222443055,0.21000000000000008,0.0,0.0,0.0,0.0,-0.20569127324723813
1666091056268802954,0.2250000000000001,0.0,0.0,0.0,0.0,-0.20396072353828543
1666091056319025568,0.2400000000000001,0.0,0.0,0.0,0.0,-0.2024608264108189
1666091056369024235,0.2550000000000001,0.0,0.0,0.0,0.0,-0.20096092928335235
1666091056421788667,0.27000000000000013,0.0,0.0,0.0,0.0,-0.19946103215588581
1666091056469252839,0.28500000000000014,0.0,0.0,0.0,0.0,-0.19817848123304052
1666091056519266813,0.30000000000000016,0.0,0.0,0.0,0.0,-0.19727868700891224
1666091056570026689,0.31500000000000017,0.0,0.0,0.0,0.0,-0.1963774167699821
1666091056620034979,0.3300000000000002,0.0,0.0,0.0,0.0,-0.19567132249810498
1666091056668802466,0.3450000000000002,0.0,0.0,0.0,0.0,-0.19496522822622786
1666091056718777792,0.3600000000000002,0.0,0.0,0.0,0.0,-0.19446343212126604
1666091056768778453,0.3750000000000002,0.0,0.0,0.0,0.0,-0.1937839830216581
1666091056820489359,0.39000000000000024,0.0,0.0,0.0,0.0,-0.19310453392205018
1666091056869587247,0.40500000000000025,0.0,0.0,0.0,0.0,-0.18990993193547262
1666091056919457004,0.42000000000000026,0.0,0.0,0.0,0.0,-0.19018200650670172
1666091056969977830,0.4350000000000003,0.0,0.0,0.0,0.0,-0.19045408107793083
1666091057018999495,0.4500000000000003,0.0,0.0,0.0,0.0,-0.1897997870007323
1666091057068945952,0.4650000000000003,0.0,0.0,0.0,0.0,-0.18914549292353378
1666091057119125224,0.4800000000000003,0.0,0.0,0.0,0.0,-0.1862343512314132
1666091057169015830,0.49500000000000033,0.0,0.0,0.0,0.0,-0.1833232095392926
1666091057219169037,0.5100000000000003,0.0,0.0,0.0,0.0,-0.18476683720871112
1666091057268968224,0.5250000000000004,0.0,0.0,0.0,0.0,-0.18621642277344147
1666091057318787300,0.5400000000000004,0.0,0.0,0.0,0.0,-0.185540378734292
1666091057369125400,0.5550000000000004,0.0,0.0,0.0,0.0,-0.18486433469514252
1666091057418786903,0.5700000000000004,0.0,0.0,0.0,0.0,-0.18694949265442115
1666091057468710468,0.5850000000000004,0.0,0.0,0.0,0.0,-0.18903465061369978
1666091057519311012,0.6000000000000004,0.0,0.0,0.0,0.0,-0.18802290232898353
1666091057568785528,0.6150000000000004,0.0,0.0,0.0,0.0,-0.18701115404426727
1666091057618722908,0.6300000000000004,0.0,0.0,0.0,0.0,-0.185999405759551
1666091057668796670,0.6450000000000005,0.0,0.0,0.0,0.0,-0.18498765747483475
1666091057719062851,0.6600000000000005,0.0,0.0,0.0,0.0,-0.1897616729238358
1666091057768792488,0.6750000000000005,0.0,0.0,0.0,0.0,-0.19453568837283686
1666091057818638676,0.6900000000000005,0.0,0.0,0.0,0.0,-0.1902617108142301
1666091057868941124,0.7050000000000005,0.0,0.0,0.0,0.0,-0.18598773325562334
1666091057918889162,0.7200000000000005,0.0,0.0,0.0,0.0,-0.1841790793520144
1666091057969030850,0.7350000000000005,0.0,0.0,0.0,0.0,-0.18237042544840548
1666091058019935048,0.7500000000000006,0.0,0.0,0.0,0.0,-0.18056177154479652
1666091058068872066,0.7650000000000006,0.0,0.0,0.0,0.0,-0.17875311764118756
1666091058118710818,0.7800000000000006,0.0,0.0,0.0,0.0,-0.17694446373757863
1666091058170179278,0.7950000000000006,0.0,0.0,0.0,0.0,-0.17513580983396967
1666091058219519760,0.7846731543540955,0.0,0.0,0.0,0.0,-0.17453292519943345
1666091058270534175,0.774566113948822,0.0,0.0,0.0,0.0,-0.17453292519943345
1666091058318719155,0.7744239568710327,0.0,0.0,0.0,0.0,-0.17453292519943345
1666091058368998824,0.7563126087188721,0.0,0.0,0.0,0.0,-0.17453292519943345
1666091058418709824,0.7563126087188721,0.0,0.0,0.0,0.0,-0.17453292519943345
1666091058468969104,0.7563126087188721,0.0,0.0,0.0,0.0,-0.17453292519943345
1666091058518832225,0.7110275243276468,0.0,0.0,0.0,0.0,-0.27453292519943345
1666091058568956226,0.7097849249839783,0.0,0.0,0.0,0.0,-0.277276873588562
1666091058618721943,0.7097849249839783,0.0,0.0,0.0,0.0,-0.277276873588562
1666091058669025576,0.6903770565986633,0.0,0.0,0.0,0.0,-0.28038591146469116
1666091058718897251,0.5825616121292114,0.0,0.0,0.0,0.0,-0.2064552754163742
1666091058768723992,0.5825616121292114,0.0,0.0,0.0,0.0,-0.2064552754163742
1666091058819244566,0.5609524846076965,0.0,0.0,0.0,0.0,-0.2103002965450287
1666091058869415564,0.5609524846076965,0.0,0.0,0.0,0.0,-0.2103002965450287
1666091058918674067,0.5759524846076965,0.0,0.0,0.0,0.0,-0.2276834938645195
1666091058968900439,0.5909524846076966,0.0,0.0,0.0,0.0,-0.2450666911840103
1666091059018650366,0.5794743883710383,0.0,0.0,0.0,0.0,-0.34506669118401034
1666091059068779446,0.56799629213438,0.0,0.0,0.0,0.0,-0.4450666911840103
1666091059118812422,0.5744924548278834,0.0,0.0,0.0,0.0,-0.5450666911840103
1666091059168972328,0.5809886175213868,0.0,0.0,0.0,0.0,-0.6450666911840103
1666091059218640813,0.5585061616345821,0.0,0.0,0.0,0.0,-0.7450666911840103
1666091059268959207,0.5265319401806101,0.0,0.0,0.0,0.0,-0.8450666911840102
1666091059318919021,0.49455771872663823,0.0,0.0,0.0,0.0,-0.9450666911840102
1666091059368840202,0.4625834972726663,0.0,0.0,0.0,0.0,-1.0450666911840103
1666091059418833162,0.4775834972726663,0.0,0.0,0.0,0.0,-1.0454436758159114
1666091059469703105,0.4925834972726663,0.0,0.0,0.0,0.0,-1.0458206604478124
1666091059518848937,0.5075834972726663,0.0,0.0,0.0,0.0,-1.0467000294103934
1666091059568845190,0.5160700678825378,0.0,0.0,0.0,0.0,-1.0471975511965983
1666091059618699447,0.497184693813324,0.0,0.0,0.0,0.0,-1.0471975511965983
1666091059668735618,0.497184693813324,0.0,0.0,0.0,0.0,-1.0471975511965983
1666091059719286649,0.49760523438453674,0.0,0.0,0.0,0.0,-1.0471975511965983
1666091059768958337,0.49760523438453674,0.0,0.0,0.0,0.0,-1.0471975511965983
1666091059818892742,0.49760523438453674,0.0,0.0,0.0,0.0,-1.0471975511965983
1666091059868759505,0.4952267110347748,0.0,0.0,0.0,0.0,-1.0471975511965983
1666091059918699623,0.4948818385601043,0.0,0.0,0.0,0.0,-0.8726646259971653
1666091059968715098,0.4948818385601043,0.0,0.0,0.0,0.0,-0.8726646259971653
1666091060019722555,0.488550066947937,0.0,0.0,0.0,0.0,-0.8726646259971653
1666091060068722790,0.488550066947937,0.0,0.0,0.0,0.0,-0.8726646259971653
1666091060118675138,0.48033297061920166,0.0,0.0,0.0,0.0,-0.8726646259971653
1666091060169012146,0.48033297061920166,0.0,0.0,0.0,0.0,-0.8726646259971653
1666091060218799435,0.47157561779022217,0.0,0.0,0.0,0.0,-0.6981317007977323
1666091060269246967,0.47157561779022217,0.0,0.0,0.0,0.0,-0.6981317007977323
1666091060318800063,0.46296679973602295,0.0,0.0,0.0,0.0,-0.6981317007977323
1666091060368922288,0.46296679973602295,0.0,0.0,0.0,0.0,-0.6981317007977323
1666091060418937833,0.44366127252578735,0.0,0.0,0.0,0.0,-0.5235987755982994
1666091060468732169,0.44366127252578735,0.0,0.0,0.0,0.0,-0.5235987755982994
1666091060518574862,0.43595594167709345,0.0,0.0,0.0,0.0,-0.3490658503988664
1666091060568903524,0.4364534616470337,0.0,0.0,0.0,0.0,-0.17453292519943345
1666091060619128256,0.3969135284423828,0.0,0.0,0.0,0.0,-0.17453292519943345
1666091060669039549,0.4119135284423828,0.0,0.0,0.0,0.0,-0.17453292519943345
1666091060718731701,0.42486774921417236,0.0,0.0,0.0,0.0,-0.17453292519943345
1666091060768791626,0.42486774921417236,0.0,0.0,0.0,0.0,-0.17453292519943345
1666091060818786226,0.4263824820518493,0.0,0.0,0.0,0.0,-0.07751916348934174
1666091060868738993,0.4263824820518493,0.0,0.0,0.0,0.0,-0.07751916348934174
1666091060920854282,0.4413824820518493,0.0,0.0,0.0,0.0,-0.061615229500171315
1666091060970490716,0.4480127096176147,0.0,0.0,0.0,0.0,-0.054585449397563934
1666091061018698362,0.457863450050354,0.0,0.0,0.0,0.0,-0.04439365863800049
1666091061069178242,0.457863450050354,0.0,0.0,0.0,0.0,-0.04439365863800049
1666091061119063888,0.4659249484539032,0.0,0.0,0.0,0.0,-0.03672881796956062
1666091061169049144,0.4659249484539032,0.0,0.0,0.0,0.0,-0.03672881796956062
1666091061218729477,0.4809249484539032,0.0,0.0,0.0,0.0,0.03720241320889127
1666091061268939767,0.49148720502853394,0.0,0.0,0.0,0.0,0.08926112204790115
1666091061318802298,0.4664000933650751,0.0,0.0,0.0,0.0,-0.010738877952098852
1666091061369033593,0.45685967803001404,0.0,0.0,0.0,0.0,-0.01780662126839161
1666091061419026567,0.45685967803001404,0.0,0.0,0.0,0.0,-0.01780662126839161
1666091061470017927,0.44732120633125305,0.0,0.0,0.0,0.0,-0.01512270700186491
1666091061518697853,0.43484103679656977,0.0,0.0,0.0,0.0,-0.013108429498970509
1666091061568829790,0.41615036129951477,0.0,0.0,0.0,0.0,-0.012985295616090298
1666091061618949310,0.41671895980834955,0.0,0.0,0.0,0.0,-0.012999258004128933
1666091061668818555,0.41671895980834955,0.0,0.0,0.0,0.0,-0.012999258004128933
1666091061718754094,0.39387211203575134,0.0,0.0,0.0,0.0,-0.011580311693251133
1666091061768764948,0.39387211203575134,0.0,0.0,0.0,0.0,-0.011580311693251133
1666091061818906051,0.40887211203575136,0.0,0.0,0.0,0.0,0.05660786332872067
1666091061868888031,0.42112115025520325,0.0,0.0,0.0,0.0,0.11044619977474213
1666091061920343474,0.42112115025520325,0.0,0.0,0.0,0.0,0.11044619977474213
1666091061969201412,0.375803568424258,0.0,0.0,0.0,0.0,0.010446199774742121
1666091062018678358,0.36782652139663696,0.0,0.0,0.0,0.0,-0.007156343664973974
1666091062068902053,0.3539973199367523,0.0,0.0,0.0,0.0,-0.004448422230780125
1666091062120841097,0.3539973199367523,0.0,0.0,0.0,0.0,-0.004448422230780125
1666091062168757224,0.24954636698744934,0.0,0.0,0.0,0.0,0.09555157776921988
1666091062219122234,0.1517443924010522,0.0,0.0,0.0,0.0,0.1955515777692199
1666091062269243113,0.053942417814655114,0.0,0.0,0.0,0.0,0.2955515777692199
1666091062318859300,0.0,0.0,0.0,0.0,0.0,0.3734311179207177
1666091062370697658,0.0,0.0,0.0,0.0,0.0,0.3734311179207177
1666091062418836183,0.0,0.0,0.0,0.0,0.0,0.3734311179207177
1666091062468722906,0.0,0.0,0.0,0.0,0.0,0.4204264935672911
1666091062519163084,0.0,0.0,0.0,0.0,0.0,0.4204264935672911
1666091062569003407,0.0,0.0,0.0,0.0,0.0,0.4331613828172409
1666091062618781281,0.0,0.0,0.0,0.0,0.0,0.4335782938197768
1666091062668839443,0.0,0.0,0.0,0.0,0.0,0.43402031712411887
1666091062718751007,0.0,0.0,0.0,0.0,0.0,0.43402031712411887
1666091062768833280,0.0,0.0,0.0,0.0,0.0,0.4406143341262577
1666091062820118534,0.0,0.0,0.0,0.0,0.0,0.4406143341262577
1666091062868881723,0.0,0.0,0.0,0.0,0.0,0.4406143341262577
1666091062919457161,0.0,0.0,0.0,0.0,0.0,0.0
1666091062968778046,0.0,0.0,0.0,0.0,0.0,0.1
1666091063019508048,0.015,0.0,0.0,0.0,0.0,0.09783225676193996
1666091063069207651,0.03,0.0,0.0,0.0,0.0,0.09566451352387992
1666091063118769692,0.045,0.0,0.0,0.0,0.0,0.09349677028581987
1666091063169696975,0.06,0.0,0.0,0.0,0.0,0.09181379093726397
1666091063218796137,0.075,0.0,0.0,0.0,0.0,0.09013081158870806
1666091063269968848,0.09,0.0,0.0,0.0,0.0,0.09237064640814432
1666091063319098550,0.105,0.0,0.0,0.0,0.0,0.09461518320255638
1666091063368821857,0.12,0.0,0.0,0.0,0.0,0.09685971999696844
1666091063418706566,0.135,0.0,0.0,0.0,0.0,0.09548808888762952
1666091063471267576,0.15000000000000002,0.0,0.0,0.0,0.0,0.09411645777829061
1666091063519134669,0.16500000000000004,0.0,0.0,0.0,0.0,0.09652381001379516
1666091063568943958,0.18000000000000005,0.0,0.0,0.0,0.0,0.09893116224929971
1666091063619815614,0.19500000000000006,0.0,0.0,0.0,0.0,0.10133851448480426
1666091063669127199,0.21000000000000008,0.0,0.0,0.0,0.0,0.10024881816408764
1666091063720458965,0.2250000000000001,0.0,0.0,0.0,0.0,0.10288678043350098
1666091063768805232,0.2400000000000001,0.0,0.0,0.0,0.0,0.10552474270291433
1666091063818891945,0.2550000000000001,0.0,0.0,0.0,0.0,0.10846890905028622
1666091063868765419,0.27000000000000013,0.0,0.0,0.0,0.0,0.11141307539765812
1666091063918834999,0.28500000000000014,0.0,0.0,0.0,0.0,0.12061138385803777
1666091063972205896,0.30000000000000016,0.0,0.0,0.0,0.0,0.12980969231841744
1666091064019137595,0.31500000000000017,0.0,0.0,0.0,0.0,0.14036554505131466
1666091064068788483,0.3300000000000002,0.0,0.0,0.0,0.0,0.15623255319898333
1666091064118688348,0.3450000000000002,0.0,0.0,0.0,0.0,0.172099561346652
1666091064168884530,0.3600000000000002,0.0,0.0,0.0,0.0,0.18759990955817463
1666091064219087504,0.3750000000000002,0.0,0.0,0.0,0.0,0.20310025776969726
1666091064268739466,0.39000000000000024,0.0,0.0,0.0,0.0,0.22167076012067521
1666091064318885602,0.40500000000000025,0.0,0.0,0.0,0.0,0.24024126247165317
1666091064368600241,0.42000000000000026,0.0,0.0,0.0,0.0,0.25855973275619587
1666091064418737143,0.4350000000000003,0.0,0.0,0.0,0.0,0.2894087434109261
1666091064468901222,0.4500000000000003,0.0,0.0,0.0,0.0,0.3202577540656563
1666091064519450549,0.4650000000000003,0.0,0.0,0.0,0.0,0.35307382480972993
1666091064568635747,0.4800000000000003,0.0,0.0,0.0,0.0,0.38885860576979214
1666091064618714168,0.49500000000000033,0.0,0.0,0.0,0.0,0.4592107131704042
1666091064668864812,0.5100000000000003,0.0,0.0,0.0,0.0,0.5298476175101106
1666091064718984412,0.5250000000000004,0.0,0.0,0.0,0.0,0.6205321600101834
1666091064768705281,0.5400000000000004,0.0,0.0,0.0,0.0,0.7112167025102564
1666091064818934063,0.5460490118885505,0.0,0.0,0.0,0.0,0.8112167025102563
1666091064868931169,0.5497660040855408,0.0,0.0,0.0,0.0,0.8726646259971643
1666091064919456321,0.5345296859741211,0.0,0.0,0.0,0.0,0.8726646259971643
1666091064968773353,0.5345296859741211,0.0,0.0,0.0,0.0,0.8726646259971643
1666091065019445286,0.5059042572975159,0.0,0.0,0.0,0.0,0.8726646259971643
1666091065068775431,0.5059042572975159,0.0,0.0,0.0,0.0,0.8726646259971643
1666091065119428203,0.5209042572975159,0.0,0.0,0.0,0.0,0.8726646259971643
1666091065168667947,0.5359042572975159,0.0,0.0,0.0,0.0,0.8726646259971643
1666091065219024092,0.5509042572975159,0.0,0.0,0.0,0.0,0.8726646259971643
1666091065268791235,0.5659042572975159,0.0,0.0,0.0,0.0,0.8726646259971643
1666091065319096569,0.5348506569862366,0.0,0.0,0.0,0.0,0.8726646259971643
1666091065368645817,0.5348506569862366,0.0,0.0,0.0,0.0,0.8726646259971643
1666091065418690839,0.5498506569862366,0.0,0.0,0.0,0.0,0.8726646259971643
1666091065469761544,0.550903856754303,0.0,0.0,0.0,0.0,0.8726646259971643
1666091065518679704,0.565903856754303,0.0,0.0,0.0,0.0,0.761732598635225
1666091065568884442,0.580903856754303,0.0,0.0,0.0,0.0,0.708407274098719
1666091065618881340,0.5837942957878113,0.0,0.0,0.0,0.0,0.6981317007977313
1666091065669184791,0.5987942957878113,0.0,0.0,0.0,0.0,0.6981317007977313
1666091065718782384,0.5954018235206603,0.0,0.0,0.0,0.0,0.6981317007977313
1666091065768710519,0.5954018235206603,0.0,0.0,0.0,0.0,0.6981317007977313
1666091065818969245,0.5954018235206603,0.0,0.0,0.0,0.0,0.6981317007977313
1666091065868751743,0.598304808139801,0.0,0.0,0.0,0.0,0.5235987755982984
1666091065919523443,0.5988047122955322,0.0,0.0,0.0,0.0,0.5235987755982984
1666091065968667561,0.5988047122955322,0.0,0.0,0.0,0.0,0.5235987755982984
1666091066019020836,0.6138047122955322,0.0,0.0,0.0,0.0,0.42908801192391705
1666091066068745150,0.6261498928070068,0.0,0.0,0.0,0.0,0.3490658503988654
1666091066118646934,0.6261498928070068,0.0,0.0,0.0,0.0,0.3490658503988654
1666091066169175199,0.559707760810852,0.0,0.0,0.0,0.0,0.3490658503988654
1666091066218709539,0.559707760810852,0.0,0.0,0.0,0.0,0.3490658503988654
1666091066269008448,0.5485092997550964,0.0,0.0,0.0,0.0,0.3490658503988654
1666091066318700863,0.5008189678192139,0.0,0.0,0.0,0.0,0.17453292519943245
1666091066368726003,0.5008189678192139,0.0,0.0,0.0,0.0,0.17453292519943245
1666091066418662094,0.47811537981033325,0.0,0.0,0.0,0.0,0.17453292519943245
1666091066468715850,0.47811537981033325,0.0,0.0,0.0,0.0,0.17453292519943245
1666091066519478861,0.47811537981033325,0.0,0.0,0.0,0.0,0.17453292519943245
1666091066568748970,0.3954010605812073,0.0,0.0,0.0,0.0,0.17453292519943245
1666091066618803171,0.3953299820423126,0.0,0.0,0.0,0.0,0.17453292519943245
1666091066668871065,0.3953299820423126,0.0,0.0,0.0,0.0,0.17453292519943245
1666091066718857643,0.2453299820423126,0.0,0.0,0.0,0.0,0.10830992171088633
1666091066768762231,0.09532998204231258,0.0,0.0,0.0,0.0,0.04208691822234019
1666091066818931409,0.0,0.0,0.0,0.0,0.0,0.0
1666091066868692748,0.0,0.0,0.0,0.0,0.0,0.1
1666091066918634196,0.0,0.0,0.0,0.0,0.0,0.17453292519943245
1666091066969134710,0.0,0.0,0.0,0.0,0.0,0.0
1666091067018763914,0.0,0.0,0.0,0.0,0.0,0.1
1666091067068617621,0.0,0.0,0.0,0.0,0.0,0.17453292519943245
1666091067119042504,0.0,0.0,0.0,0.0,0.0,0.17453292519943245
1666091067168641432,0.0,0.0,0.0,0.0,0.0,0.17453292519943245
1666091067218764019,0.0,0.0,0.0,0.0,0.0,0.17453292519943245
1666091067268709783,0.0,0.0,0.0,0.0,0.0,0.17453292519943245
1666091067318760978,0.0,0.0,0.0,0.0,0.0,0.17453292519943245
1666091067368769876,0.0,0.0,0.0,0.0,0.0,0.17453292519943245
1666091067419401540,0.0,0.0,0.0,0.0,0.0,0.17453292519943245
1666091067469389870,0.0,0.0,0.0,0.0,0.0,0.17453292519943245
1666091067519668909,0.0,0.0,0.0,0.0,0.0,0.17453292519943245
1666091067568715835,0.0,0.0,0.0,0.0,0.0,0.17453292519943245
1666091067618693824,0.0,0.0,0.0,0.0,0.0,0.17453292519943245
1666091067668899988,0.0,0.0,0.0,0.0,0.0,0.17453292519943245
1666091067718673684,0.0,0.0,0.0,0.0,0.0,0.17453292519943245
1666091067768573289,0.0,0.0,0.0,0.0,0.0,0.17453292519943245
1666091067818814632,0.0,0.0,0.0,0.0,0.0,0.17453292519943245
1666091067868741709,0.0,0.0,0.0,0.0,0.0,0.17453292519943245
1666091067918693955,0.0,0.0,0.0,0.0,0.0,0.17453292519943245
1666091067968639649,0.0,0.0,0.0,0.0,0.0,0.17453292519943245
1666091068018778187,0.0,0.0,0.0,0.0,0.0,0.2201461448583642
1666091068068582394,0.0,0.0,0.0,0.0,0.0,0.2201461448583642
1666091068118778361,0.0,0.0,0.0,0.0,0.0,0.22247101830072494
1666091068168613177,0.0,0.0,0.0,0.0,0.0,0.22247101830072494
1666091068218863070,0.0,0.0,0.0,0.0,0.0,0.22247101830072494
1666091068268757331,0.0,0.0,0.0,0.0,0.0,0.22610283223375707
1666091068318700140,0.0,0.0,0.0,0.0,0.0,0.22610283223375707
1666091068369097503,0.0,0.0,0.0,0.0,0.0,0.2278719184533082
1666091068418650374,0.0,0.0,0.0,0.0,0.0,0.2278719184533082
1666091068468777684,0.0,0.0,0.0,0.0,0.0,0.23602653705998164
1666091068518631745,0.0,0.0,0.0,0.0,0.0,0.23602653705998164
1666091068568725748,0.0,0.0,0.0,0.0,0.0,0.2385128034085117
1666091068619262946,0.0,0.0,0.0,0.0,0.0,0.23914148767091628
1666091068668856060,0.0,0.0,0.0,0.0,0.0,0.23914148767091628
1666091068720194841,0.0,0.0,0.0,0.0,0.0,0.23914148767091628
1666091068768953096,0.0,0.0,0.0,0.0,0.0,0.24020097780949304
1666091068818736356,0.0,0.0,0.0,0.0,0.0,0.24023638577013526
1666091068868942155,0.0,0.0,0.0,0.0,0.0,0.24023638577013526
1666091068918919226,0.0,0.0,0.0,0.0,0.0,0.2404914457344007
1666091068968689598,0.0,0.0,0.0,0.0,0.0,0.2404914457344007
1666091069018589470,0.0,0.0,0.0,0.0,0.0,0.24305333220775874
1666091069068621058,0.0,0.0,0.0,0.0,0.0,0.23862818920633375
1666091069118693097,0.0,0.0,0.0,0.0,0.0,0.23862818920633375
1666091069168916295,0.0,0.0,0.0,0.0,0.0,0.23688643413726865
1666091069218952435,0.0,0.0,0.0,0.0,0.0,0.23688643413726865
1666091069269031150,0.0,0.0,0.0,0.0,0.0,0.2441878818996743
1666091069318833020,0.0,0.0,0.0,0.0,0.0,0.24025239890182828
1666091069368749674,0.0,0.0,0.0,0.0,0.0,0.24025239890182828
1666091069418986723,0.0,0.0,0.0,0.0,0.0,0.24218457347059855
1666091069468634674,0.0,0.0,0.0,0.0,0.0,0.24218457347059855
1666091069519290509,0.0,0.0,0.0,0.0,0.0,0.24663706137594452
1666091069569158970,0.0,0.0,0.0,0.0,0.0,0.24663706137594452
1666091069619047354,0.0,0.0,0.0,0.0,0.0,0.2481395385296113
1666091069669018420,0.0,0.0,0.0,0.0,0.0,0.2481395385296113
1666091069718815283,0.0,0.0,0.0,0.0,0.0,0.25427919543241684
1666091069768723498,0.0,0.0,0.0,0.0,0.0,0.25427919543241684
1666091069818795971,0.0,0.0,0.0,0.0,0.0,0.2506004170759169
1666091069868830144,0.0,0.0,0.0,0.0,0.0,0.24857100235216517
1666091069918881700,0.0,0.0,0.0,0.0,0.0,0.25339648955656285
1666091069968696629,0.0,0.0,0.0,0.0,0.0,0.2534100037128931
1666091070018704617,0.0,0.0,0.0,0.0,0.0,0.2534100037128931
1666091070068805587,0.0,0.0,0.0,0.0,0.0,0.25898444677917726
1666091070118819099,0.0,0.0,0.0,0.0,0.0,0.25898444677917726
1666091070169756069,0.0,0.0,0.0,0.0,0.0,0.2631675087848555
1666091070218749285,0.0,0.0,0.0,0.0,0.0,0.2631675087848555
1666091070268749575,0.0,0.0,0.0,0.0,0.0,0.26147414235619515
1666091070318856523,0.0,0.0,0.0,0.0,0.0,0.26147414235619515
1666091070369761200,0.0,0.0,0.0,0.0,0.0,0.258790941093464
1666091070418661583,0.0,0.0,0.0,0.0,0.0,0.26629644075395914
1666091070468750145,0.0,0.0,0.0,0.0,0.0,0.26629644075395914
1666091070519012169,0.0,0.0,0.0,0.0,0.0,0.26629644075395914
1666091070568690473,0.0,0.0,0.0,0.0,0.0,0.27987721859950265
1666091070619198858,0.0,0.0,0.0,0.0,0.0,0.2761884519424515
1666091070668618322,0.0,0.0,0.0,0.0,0.0,0.2761884519424515
1666091070718662103,0.0,0.0,0.0,0.0,0.0,0.2853135387980311
1666091070768752262,0.0,0.0,0.0,0.0,0.0,0.2853135387980311
1666091070819355607,0.0,0.0,0.0,0.0,0.0,0.29049494286895394
1666091070868622444,0.0,0.0,0.0,0.0,0.0,0.29049494286895394
1666091070918708391,0.0,0.0,0.0,0.0,0.0,0.29049494286895394
1666091070968706953,0.0,0.0,0.0,0.0,0.0,0.2948101709942433
1666091071018752147,0.0,0.0,0.0,0.0,0.0,0.2948101709942433
1666091071068709060,0.0,0.0,0.0,0.0,0.0,0.2838053826478642
1666091071118886620,0.0,0.0,0.0,0.0,0.0,0.28251123582493876
1666091071168636907,0.0,0.0,0.0,0.0,0.0,0.27529641342367744
1666091071219452465,0.0,0.0,0.0,0.0,0.0,0.2665424701403667
1666091071268748720,0.0,0.0,0.0,0.0,0.0,0.2665424701403667
1666091071318847976,0.0,0.0,0.0,0.0,0.0,0.2665424701403667
1666091071368850765,0.0,0.0,0.0,0.0,0.0,0.24867961329118762
1666091071418658018,0.0,0.0,0.0,0.0,0.0,0.2423280826401418
1666091071468799219,0.0,0.0,0.0,0.0,0.0,0.23084767272104878
1666091071518823542,0.0,0.0,0.0,0.0,0.0,0.22021801705843844
1666091071568777263,0.0,0.0,0.0,0.0,0.0,0.17453292519943245
1666091071619227141,0.0,0.0,0.0,0.0,0.0,0.17453292519943245
1666091071668800419,0.0,0.0,0.0,0.0,0.0,0.17453292519943245
1666091071718840189,0.0,0.0,0.0,0.0,0.0,0.17453292519943245
1666091071768844691,0.0,0.0,0.0,0.0,0.0,0.17453292519943245
1666091071820917645,0.0,0.0,0.0,0.0,0.0,0.17453292519943245
1666091071868721931,0.0,0.0,0.0,0.0,0.0,0.17453292519943245
1666091071918955024,0.0,0.0,0.0,0.0,0.0,0.17453292519943245
1666091071969119724,0.0,0.0,0.0,0.0,0.0,0.17453292519943245
1666091072018842735,0.0,0.0,0.0,0.0,0.0,0.07453292519943244
1666091072069018970,0.0,0.0,0.0,0.0,0.0,-4.996003610813204e-16
1666091072118870141,0.0,0.0,0.0,0.0,0.0,-4.996003610813204e-16
1666091072168880919,0.0,0.0,0.0,0.0,0.0,-4.996003610813204e-16
1666091072218665397,0.0,0.0,0.0,0.0,0.0,-4.996003610813204e-16
1666091072269044089,0.0,0.0,0.0,0.0,0.0,-4.996003610813204e-16
1666091072318786307,0.0,0.0,0.0,0.0,0.0,-4.996003610813204e-16
1666091072368600747,0.0,0.0,0.0,0.0,0.0,-4.996003610813204e-16
1666091072418745046,0.0,0.0,0.0,0.0,0.0,-4.996003610813204e-16
1666091072469729695,0.0,0.0,0.0,0.0,0.0,-4.996003610813204e-16
1666091072518707739,0.0,0.0,0.0,0.0,0.0,-4.996003610813204e-16
1666091072568714782,0.0,0.0,0.0,0.0,0.0,-4.996003610813204e-16
1666091072619020167,0.0,0.0,0.0,0.0,0.0,-4.996003610813204e-16
1666091072668738350,0.0,0.0,0.0,0.0,0.0,-4.996003610813204e-16
1666091072719037155,0.0,0.0,0.0,0.0,0.0,-4.996003610813204e-16
1666091072768876189,0.0,0.0,0.0,0.0,0.0,-4.996003610813204e-16
1666091072818916237,0.0,0.0,0.0,0.0,0.0,-4.996003610813204e-16
1666091072869154304,0.0,0.0,0.0,0.0,0.0,-4.996003610813204e-16
1666091072920323265,0.0,0.0,0.0,0.0,0.0,-4.996003610813204e-16
1666091072968669371,0.0,0.0,0.0,0.0,0.0,-4.996003610813204e-16
1666091073019148716,0.0,0.0,0.0,0.0,0.0,0.0999999999999995
1666091073068713755,0.0,0.0,0.0,0.0,0.0,0.17453292519943245
1666091073118810368,0.0,0.0,0.0,0.0,0.0,0.17453292519943245
1666091073169605753,0.0,0.0,0.0,0.0,0.0,0.27453292519943245
1666091073218780134,0.0,0.0,0.0,0.0,0.0,0.3100717770902805
1666091073268694866,0.0,0.0,0.0,0.0,0.0,0.35957673071315216
1666091073319607542,0.0,0.0,0.0,0.0,0.0,0.3963366732325531
1666091073368788086,0.0,0.0,0.0,0.0,0.0,0.4297836133336783
1666091073418836414,0.0,0.0,0.0,0.0,0.0,0.4297836133336783
1666091073468603716,0.0,0.0,0.0,0.0,0.0,0.4738690288498479
1666091073520534654,0.0,0.0,0.0,0.0,0.0,0.4978112653024276
1666091073569647056,0.0,0.0,0.0,0.0,0.0,0.5235987755982984
1666091073618962709,0.0,0.0,0.0,0.0,0.0,0.5235987755982984
1666091073668739460,0.0,0.0,0.0,0.0,0.0,0.5791971613157473
1666091073718721653,0.0,0.0,0.0,0.0,0.0,0.5791971613157473
1666091073769028614,0.015,0.0,0.0,0.0,0.0,0.5849384952296389
1666091073818720874,0.03,0.0,0.0,0.0,0.0,0.5906798291435306
1666091073868831927,0.045,0.0,0.0,0.0,0.0,0.5964095895644566
1666091073918680390,0.06,0.0,0.0,0.0,0.0,0.6021393499853825
1666091073968830045,0.075,0.0,0.0,0.0,0.0,0.6077974147252263
1666091074020094888,0.09,0.0,0.0,0.0,0.0,0.6134554794650701
1666091074069559598,0.0,0.0,0.0,0.0,0.0,0.5235987755982984
1666091074118711079,0.0,0.0,0.0,0.0,0.0,0.5235987755982984
1666091074168991259,0.0,0.0,0.0,0.0,0.0,0.5385026725950828
1666091074218738567,0.0,0.0,0.0,0.0,0.0,0.5385026725950828
1666091074268919111,0.0,0.0,0.0,0.0,0.0,0.527556808000217
1666091074319042183,0.0,0.0,0.0,0.0,0.0,0.47280711853873564
1666091074368657432,0.0,0.0,0.0,0.0,0.0,0.47280711853873564
1666091074418719784,0.0,0.0,0.0,0.0,0.0,0.47280711853873564
1666091074469127806,0.0,0.0,0.0,0.0,0.0,0.34102146643506703
1666091074518807719,0.0,0.0,0.0,0.0,0.0,0.34102146643506703
1666091074568897228,0.0,0.0,0.0,0.0,0.0,0.21327950427132472
1666091074618783884,0.0,0.0,0.0,0.0,0.0,0.21327950427132472
1666091074669164339,0.0,0.0,0.0,0.0,0.0,0.17453292519943245
1666091074718627621,0.0,0.0,0.0,0.0,0.0,0.07453292519943244
1666091074768756006,0.0,0.0,0.0,0.0,0.0,-4.996003610813204e-16
1666091074822699964,0.0,0.0,0.0,0.0,0.0,-4.996003610813204e-16
1666091074868891807,0.0,0.0,0.0,0.0,0.0,-4.996003610813204e-16
1666091074918745476,0.0,0.0,0.0,0.0,0.0,-4.996003610813204e-16
1666091074968709423,0.0,0.0,0.0,0.0,0.0,-4.996003610813204e-16
1666091075020666200,0.0,0.0,0.0,0.0,0.0,-0.1000000000000005
1666091075068683315,0.0,0.0,0.0,0.0,0.0,-0.2000000000000005
1666091075119781479,0.015,0.0,0.0,0.0,0.0,-0.19764197900003416
1666091075168799212,0.03,0.0,0.0,0.0,0.0,-0.19528395800006781
1666091075223548720,0.045,0.0,0.0,0.0,0.0,-0.19292593700010147
1666091075268885989,0.06,0.0,0.0,0.0,0.0,-0.19190250058475375
1666091075318647693,0.075,0.0,0.0,0.0,0.0,-0.19087906416940603
1666091075368880455,0.09,0.0,0.0,0.0,0.0,-0.1859702621672392
1666091075418626704,0.105,0.0,0.0,0.0,0.0,-0.20507306172964024
1666091075468901874,0.12,0.0,0.0,0.0,0.0,-0.2241758612920413
1666091075518874532,0.135,0.0,0.0,0.0,0.0,-0.24327866085444239
1666091075568872779,0.15000000000000002,0.0,0.0,0.0,0.0,-0.26833520884446854
1666091075618708612,0.16500000000000004,0.0,0.0,0.0,0.0,-0.2933917568344947
1666091075668721768,0.18000000000000005,0.0,0.0,0.0,0.0,-0.3118001818962869
1666091075719006653,0.19500000000000006,0.0,0.0,0.0,0.0,-0.3302086069580791
1666091075768646715,0.21000000000000008,0.0,0.0,0.0,0.0,-0.3487769007356616
1666091075818894418,0.2250000000000001,0.0,0.0,0.0,0.0,-0.3673451945132441
1666091075870402914,0.2400000000000001,0.0,0.0,0.0,0.0,-0.3949995126011797
1666091075918725934,0.2550000000000001,0.0,0.0,0.0,0.0,-0.42265383068911533
1666091075971132239,0.27000000000000013,0.0,0.0,0.0,0.0,-0.4417040592943789
