%time,field.linear.x,field.linear.y,field.linear.z,field.angular.x,field.angular.y,field.angular.z
1666090164555099234,0.0,0.0,0.0,0.0,0.0,0.0
1666090164575068310,0.0,0.0,0.0,0.0,0.0,0.0
1666090164595105682,0.0,0.0,0.0,0.0,0.0,0.0
1666090164615114822,0.0,0.0,0.0,0.0,0.0,0.0
1666090164635100004,0.0,0.0,0.0,0.0,0.0,0.0
1666090164655047062,0.0,0.0,0.0,0.0,0.0,0.0
1666090164675031244,0.0,0.0,0.0,0.0,0.0,0.0
1666090164696064147,0.0,0.0,0.0,0.0,0.0,0.0
1666090164715020801,0.0,0.0,0.0,0.0,0.0,0.0
1666090164756021497,0.0,0.0,0.0,0.0,0.0,0.0
1666090164756033266,0.0,0.0,0.0,0.0,0.0,0.007330382858376183
1666090164804026317,0.0,0.0,0.0,0.0,0.0,0.007330382858376183
1666090164804036272,0.0,0.0,0.0,0.0,0.0,0.0
1666090164852088440,0.0,0.0,0.0,0.0,0.0,0.0
1666090164852100455,0.0,0.0,0.0,0.0,0.0,0.0
1666090164896033648,0.0,0.0,0.0,0.0,0.0,0.0
1666090164896043056,0.004264604416675866,0.0,0.0,0.0,0.0,0.0
1666090164896049870,0.002132302208337933,0.0,0.0,0.0,0.0,-0.0006981317007977319
1666090164940166993,0.0,0.0,0.0,0.0,0.0,0.0
1666090164940177896,0.0,0.0,0.0,0.0,0.0,0.0
1666090164954907739,0.0,0.0,0.0,0.0,0.0,0.0
1666090164974871732,0.0,0.0,0.0,0.0,0.0,0.007330382858376183
1666090165016028948,0.0,0.0,0.0,0.0,0.0,0.0
1666090165016035615,0.0,0.0,0.0,0.0,0.0,0.0
1666090165060022578,0.0,0.0,0.0,0.0,0.0,0.0
1666090165060035593,0.0,0.0,0.0,0.0,0.0,0.0
1666090165108026974,-0.002132302208337933,0.0,0.0,0.0,0.0,-0.005585053606381855
1666090165108039935,-0.002132302208337933,0.0,0.0,0.0,0.0,-0.009075712110370514
1666090165152024717,0.0,0.0,0.0,0.0,0.0,-0.012566370614359173
1666090165152033434,0.0,0.0,0.0,0.0,0.0,-0.013788101090755204
1666090165196063975,0.0,0.0,0.0,0.0,0.0,-0.008203047484373348
1666090165196075674,0.0,0.0,0.0,0.0,0.0,0.0
1666090165196081961,0.0,0.0,0.0,0.0,0.0,0.0
1666090165240085454,0.0,0.0,0.0,0.0,0.0,0.0
1666090165240095673,0.0,0.0,0.0,0.0,0.0,0.0
1666090165254708670,0.0,0.0,0.0,0.0,0.0,0.0
1666090165274727099,0.0,0.0,0.0,0.0,0.0,0.0
1666090165316036959,0.0,0.0,0.0,0.0,0.0,0.0
1666090165316044997,0.0,0.0,0.0,0.0,0.0,0.0
1666090165360106048,0.0,0.0,0.0,0.0,0.0,0.0
1666090165360114250,0.0,0.0,0.0,0.0,0.0,0.0
1666090165404071886,0.0,0.0,0.0,0.0,0.0,0.0
1666090165404082265,0.0,0.0,0.0,0.0,0.0,0.0
1666090165448075254,0.0,0.0,0.0,0.0,0.0,0.0
1666090165448084450,0.0,0.0,0.0,0.0,0.0,0.0
1666090165492067307,0.0,0.0,0.0,0.0,0.0,0.0
1666090165492089624,0.0,0.0,0.0,0.0,0.0,0.0
1666090165540029175,0.0,0.0,0.0,0.0,0.0,0.0
1666090165540040182,0.0,0.0,0.0,0.0,0.0,0.0
1666090165540047087,0.0,0.0,0.0,0.0,0.0,0.0
1666090165584061892,0.0,0.0,0.0,0.0,0.0,0.0
1666090165584067262,0.0,0.0,0.0,0.0,0.0,0.0
1666090165595627995,0.0,0.0,0.0,0.0,0.0,0.0
1666090165615611744,0.0,0.0,0.0,0.0,0.0,0.0
1666090165656021400,0.0,0.0,0.0,0.0,0.0,0.0
1666090165656026083,0.0,0.0,0.0,0.0,0.0,0.0
1666090165700069824,0.0,0.0,0.0,0.0,0.0,0.0
1666090165700075987,0.0,0.0,0.0,0.0,0.0,0.0
1666090165748025354,0.0,0.0,0.0,0.0,0.0,0.0
1666090165748029698,0.0,0.0,0.0,0.0,0.0,0.0
1666090165796019875,0.0,0.0,0.0,0.0,0.0,0.0
1666090165796030686,0.0,0.0,0.0,0.0,0.0,0.0
1666090165796037020,0.0,0.0,0.0,0.0,0.0,0.0
1666090165840031325,0.0,0.0,0.0,0.0,0.0,0.0
1666090165840039632,0.0,0.0,0.0,0.0,0.0,0.0
1666090165855574293,0.0,0.0,0.0,0.0,0.0,0.0
1666090165875542230,0.0,0.0,0.0,0.0,0.0,0.0
1666090165916022952,0.0,0.0,0.0,0.0,0.0,0.0
1666090165960061458,0.0,0.0,0.0,0.0,0.0,0.0
1666090165960074789,0.0,0.0,0.0,0.0,0.0,0.0
1666090165960081745,0.0,0.0,0.0,0.0,0.0,0.0
1666090166004081957,0.0,0.0,0.0,0.0,0.0,0.0
1666090166004098811,0.0,0.0,0.0,0.0,0.0,0.0
1666090166015590089,0.0,0.0,0.0,0.0,0.0,0.0
1666090166035610172,0.0,0.0,0.0,0.0,0.0,0.0
1666090166076048697,0.0,0.0,0.0,0.0,0.0,0.0
1666090166076061168,0.0,0.0,0.0,0.0,0.0,0.0
1666090166120049662,0.0,0.0,0.0,0.0,0.0,0.0
1666090166120062850,0.0,0.0,0.0,0.0,0.0,0.0
1666090166164045668,0.0,0.0,0.0,0.0,0.0,0.0
1666090166164066710,0.0,0.0,0.0,0.0,0.0,0.0
1666090166208041668,0.0,0.0,0.0,0.0,0.0,0.0
1666090166208051732,0.0,0.0,0.0,0.0,0.0,0.0
1666090166252042104,0.0,0.0,0.0,0.0,0.0,0.0
1666090166252051409,0.0,0.0,0.0,0.0,0.0,0.0
1666090166296054669,0.0,0.0,0.0,0.0,0.0,0.0
1666090166296063803,0.0,0.0,0.0,0.0,0.0,0.0
1666090166296066912,0.0,0.0,0.0,0.0,0.0,0.0
1666090166340041061,0.0,0.0,0.0,0.0,0.0,0.0
1666090166340051116,0.0,0.0,0.0,0.0,0.0,0.0
1666090166355336593,0.0,0.0,0.0,0.0,0.0,0.0
1666090166376463394,0.0,0.0,0.0,0.0,0.0,0.0
1666090166420054133,0.0,0.0,0.0,0.0,0.0,0.0
1666090166420061257,0.0,0.0,0.0,0.0,0.0,0.0
1666090166464062191,0.0,0.0,0.0,0.0,0.0,0.0
1666090166464070776,0.0,0.0,0.0,0.0,0.0,0.0
1666090166508044262,0.0,0.0,0.0,0.0,0.0,0.0
1666090166508054502,0.0,0.0,0.0,0.0,0.0,0.0
1666090166552129175,0.0,0.0,0.0,0.0,0.0,0.0
1666090166552141611,0.0,0.0,0.0,0.0,0.0,0.0
1666090166596113022,0.0,0.0,0.0,0.0,0.0,0.0
1666090166596127368,0.0,0.0,0.0,0.0,0.0,0.0
1666090166640051101,0.0,0.0,0.0,0.0,0.0,0.0
1666090166640060862,0.0,0.0,0.0,0.0,0.0,0.0
1666090166640068577,0.0,0.0,0.0,0.0,0.0,0.0
1666090166684039015,0.0,0.0,0.0,0.0,0.0,0.0
1666090166684044769,0.0,0.0,0.0,0.0,0.0,0.0
1666090166696164770,0.0,0.0,0.0,0.0,0.0,0.0
1666090166716129474,0.0,0.0,0.0,0.0,0.0,0.0
1666090166764060107,0.0,0.0,0.0,0.0,0.0,0.0
1666090166764070449,0.0,0.0,0.0,0.0,0.0,0.0
1666090166808124653,0.0,0.0,0.0,0.0,0.0,0.0
1666090166808132752,0.0,0.0,0.0,0.0,0.0,0.0
1666090166856050517,0.0,0.0,0.0,0.0,0.0,0.0
1666090166856062341,-0.002132302208337933,0.0,0.0,0.0,0.0,0.0
1666090166900040884,-0.004264604416675866,0.0,0.0,0.0,0.0,0.0
1666090166900051208,-0.006396906625013799,0.0,0.0,0.0,0.0,-0.00017453292519943296
1666090166900055264,-0.004264604416675866,0.0,0.0,0.0,0.0,0.0
1666090166944033388,-0.002132302208337933,0.0,0.0,0.0,0.0,-0.016406094968746697
1666090166944040112,0.0,0.0,0.0,0.0,0.0,-0.023212879051524585
1666090166956083391,0.0,0.0,0.0,0.0,0.0,-0.01902408884673819
1666090166978384899,0.0,0.0,0.0,0.0,0.0,0.0
1666090167020122178,0.0,0.0,0.0,0.0,0.0,0.0
1666090167020145658,0.0,0.0,0.0,0.0,0.0,0.0
1666090167064553278,0.0,0.0,0.0,0.0,0.0,0.0
1666090167064623037,0.0,0.0,0.0,0.0,0.0,0.0
1666090167108069229,0.0,0.0,0.0,0.0,0.0,0.0
1666090167108084622,0.0,0.0,0.0,0.0,0.0,0.0
1666090167152103456,0.0,0.0,0.0,0.0,0.0,-0.00715584993317675
1666090167152115952,0.0,0.0,0.0,0.0,0.0,-0.009250245035569947
1666090167196101986,0.0,0.0,0.0,0.0,0.0,0.0
1666090167196120469,0.0,0.0,0.0,0.0,0.0,0.0
1666090167240085230,0.0,0.0,0.0,0.0,0.0,0.0
1666090167240096508,0.0,0.0,0.0,0.0,0.0,0.0
1666090167240151290,0.0,0.0,0.0,0.0,0.0,0.0
1666090167284243788,0.0,0.0,0.0,0.0,0.0,0.0
1666090167284275411,0.0,0.0,0.0,0.0,0.0,0.0
1666090167297798559,0.0,0.0,0.0,0.0,0.0,0.0
1666090167317272681,-0.002132302208337933,0.0,0.0,0.0,0.0,-0.002967059728390361
1666090167360135828,0.0,0.0,0.0,0.0,0.0,0.0
1666090167360169065,0.0,0.0,0.0,0.0,0.0,0.0
1666090167408250405,0.0,0.0,0.0,0.0,0.0,0.0
1666090167408290364,0.0,0.0,0.0,0.0,0.0,0.0
1666090167452239652,0.0,0.0,0.0,0.0,0.0,0.0
1666090167452277647,0.0,0.0,0.0,0.0,0.0,0.0
1666090167500050847,0.0,0.0,0.0,0.0,0.0,0.0
1666090167500064582,0.0,0.0,0.0,0.0,0.0,0.0
1666090167500073194,0.0,0.0,0.0,0.0,0.0,0.0
1666090167544102490,0.0,0.0,0.0,0.0,0.0,0.0
1666090167544126183,0.0,0.0,0.0,0.0,0.0,0.0
1666090167558079066,0.0,0.0,0.0,0.0,0.0,0.0
1666090167577230925,0.0,0.0,0.0,0.0,0.0,0.0
1666090167620143534,0.0,0.0,0.0,0.0,0.0,0.0
1666090167620165202,0.0,0.0,0.0,0.0,0.0,0.0
1666090167668051201,0.0,0.0,0.0,0.0,0.0,0.0
1666090167668064788,0.0,0.0,0.0,0.0,0.0,0.0
1666090167712096945,0.0,0.0,0.0,0.0,0.0,0.0
1666090167712104434,0.0,0.0,0.0,0.0,0.0,0.0
1666090167760052342,0.0,0.0,0.0,0.0,0.0,0.0
1666090167760069312,0.0,0.0,0.0,0.0,0.0,0.0
1666090167760074239,0.0,0.0,0.0,0.0,0.0,0.0
1666090167804048897,0.0,0.0,0.0,0.0,0.0,0.0
1666090167804061715,0.0,0.0,0.0,0.0,0.0,0.0
1666090167816881142,0.0,0.0,0.0,0.0,0.0,0.0
1666090167836858016,0.0,0.0,0.0,0.0,0.0,0.0
1666090167880039036,0.0,0.0,0.0,0.0,0.0,0.0
1666090167880049135,0.0,0.0,0.0,0.0,0.0,0.0
1666090167924057415,0.0,0.0,0.0,0.0,0.0,0.0
1666090167924069951,0.0,0.0,0.0,0.0,0.0,0.0
1666090167968048863,0.0,0.0,0.0,0.0,0.0,0.0
1666090167968060002,0.0,0.0,0.0,0.0,0.0,0.0
1666090168012077109,0.0,0.0,0.0,0.0,0.0,0.0
1666090168012091561,0.0,0.0,0.0,0.0,0.0,0.0
1666090168060046409,0.0,0.0,0.0,0.0,0.0,0.0
1666090168060065081,0.0,0.0,0.0,0.0,0.0,0.0
1666090168060082228,0.0,0.0,0.0,0.0,0.0,0.0
1666090168104153518,0.0,0.0,0.0,0.0,0.0,0.0
1666090168104177313,0.0,0.0,0.0,0.0,0.0,0.0
1666090168117773802,0.0,0.0,0.0,0.0,0.0,0.0
1666090168136846875,0.0,0.0,0.0,0.0,0.0,0.0
1666090168180046533,0.0,0.0,0.0,0.0,0.0,0.0
1666090168180056717,0.0,0.0,0.0,0.0,0.0,0.0
1666090168224066010,0.0,0.0,0.0,0.0,0.0,0.0
1666090168224079323,0.0,0.0,0.0,0.0,0.0,0.0
1666090168272052529,0.0,0.0,0.0,0.0,0.0,0.0
1666090168272063376,0.0,0.0,0.0,0.0,0.0,0.0
1666090168316078491,0.0,0.0,0.0,0.0,0.0,0.0
1666090168316088681,0.0,0.0,0.0,0.0,0.0,0.0
1666090168360558475,0.0,0.0,0.0,0.0,0.0,0.0
1666090168360572540,0.0,0.0,0.0,0.0,0.0,0.0
1666090168360580216,0.0,0.0,0.0,0.0,0.0,0.0
1666090168404381108,0.0,0.0,0.0,0.0,0.0,0.0
1666090168404422823,0.0,0.0,0.0,0.0,0.0,0.0
1666090168417990477,0.0,0.0,0.0,0.0,0.0,0.0
1666090168437159658,0.0,0.0,0.0,0.0,0.0,0.0
1666090168484105221,0.0,0.0,0.0,0.0,0.0,0.0
1666090168484116488,0.0,0.0,0.0,0.0,0.0,0.0
1666090168532156243,0.0,0.0,0.0,0.0,0.0,0.0
1666090168532194710,0.0,0.0,0.0,0.0,0.0,0.0
1666090168576395877,0.0,0.0,0.0,0.0,0.0,0.0
1666090168576442790,0.0,0.0,0.0,0.0,0.0,0.0
1666090168620076929,0.0,0.0,0.0,0.0,0.0,0.0
1666090168620095592,0.0,0.0,0.0,0.0,0.0,0.0
1666090168620100808,0.0,0.0,0.0,0.0,0.0,0.0
1666090168664084165,0.0,0.0,0.0,0.0,0.0,0.0
1666090168664099117,0.0,0.0,0.0,0.0,0.0,0.0
1666090168677820959,0.0,0.0,0.0,0.0,0.0,0.0
1666090168698028712,0.0,0.0,0.0,0.0,0.0,0.0
1666090168740102125,0.0,0.0,0.0,0.0,0.0,0.0
1666090168740119018,0.0,0.0,0.0,0.0,0.0,0.0
1666090168784075785,0.0,0.0,0.0,0.0,0.0,0.0
1666090168784087774,0.0,0.0,0.0,0.0,0.0,0.0
1666090168828056789,0.0,0.0,0.0,0.0,0.0,0.0
1666090168828071232,0.0,0.0,0.0,0.0,0.0,0.0
1666090168872047650,0.0,0.0,0.0,0.0,0.0,0.0
1666090168872058235,0.0,0.0,0.0,0.0,0.0,0.0
1666090168920064285,0.0,0.0,0.0,0.0,0.0,0.0
1666090168920075154,0.0,0.0,0.0,0.0,0.0,0.0
1666090168920078876,0.0,0.0,0.0,0.0,0.0,0.0
1666090168964087171,0.0,0.0,0.0,0.0,0.0,0.0
1666090168964103382,0.0,0.0,0.0,0.0,0.0,0.0
1666090168978560165,0.0,0.0,0.0,0.0,0.0,0.0
1666090168997379791,0.0,0.0,0.0,0.0,0.0,0.0
1666090169040055413,0.0,0.0,0.0,0.0,0.0,0.0
1666090169040066606,0.0,0.0,0.0,0.0,0.0,0.0
1666090169084046735,0.0,0.0,0.0,0.0,0.0,0.0
1666090169084056636,0.0,0.0,0.0,0.0,0.0,0.0
1666090169128060310,0.0,0.0,0.0,0.0,0.0,0.0
1666090169128073000,0.0,0.0,0.0,0.0,0.0,0.0
1666090169172084874,0.0,0.0,0.0,0.0,0.0,0.0
1666090169172104219,0.0,0.0,0.0,0.0,0.0,0.0
1666090169216087767,0.0,0.0,0.0,0.0,0.0,0.0
1666090169216098677,0.0,0.0,0.0,0.0,0.0,0.0
1666090169260063823,0.0,0.0,0.0,0.0,0.0,0.0
1666090169260073854,0.0,0.0,0.0,0.0,0.0,0.0
1666090169260085842,0.0,0.0,0.0,0.0,0.0,0.0
1666090169304077181,0.0,0.0,0.0,0.0,0.0,0.0
1666090169304090507,0.0,0.0,0.0,0.0,0.0,0.0
1666090169318494496,0.0,0.0,0.0,0.0,0.0,0.0
1666090169338662265,0.0,0.0,0.0,0.0,0.0,0.0
1666090169384287875,0.0,0.0,0.0,0.0,0.0,0.0
1666090169384307838,0.0,0.0,0.0,0.0,0.0,0.0
1666090169432120429,0.0,0.0,0.0,0.0,0.0,0.0
1666090169432139203,0.0,0.0,0.0,0.0,0.0,0.0
1666090169476053018,0.0,0.0,0.0,0.0,0.0,0.0
1666090169476063968,0.0,0.0,0.0,0.0,0.0,0.0
1666090169520067899,0.0,0.0,0.0,0.0,0.0,0.0
1666090169520082818,0.0,0.0,0.0,0.0,0.0,0.0
1666090169520092417,0.0,0.0,0.0,0.0,0.0,0.0
1666090169564075568,0.0,0.0,0.0,0.0,0.0,0.0
1666090169564091427,0.0,0.0,0.0,0.0,0.0,0.0
1666090169578216411,0.0,0.0,0.0,0.0,0.0,0.0
1666090169598052071,0.0,0.0,0.0,0.0,0.0,0.0
1666090169640065337,0.0,0.0,0.0,0.0,0.0,0.0
1666090169640077345,0.0,0.0,0.0,0.0,0.0,0.0
1666090169684107854,0.0,0.0,0.0,0.0,0.0,0.0
1666090169684124026,0.0,0.0,0.0,0.0,0.0,0.0
1666090169728069723,0.0,0.0,0.0,0.0,0.0,0.0
1666090169728082274,0.0,0.0,0.0,0.0,0.0,0.0
1666090169772108303,0.0,0.0,0.0,0.0,0.0,0.0
1666090169772124221,0.0,0.0,0.0,0.0,0.0,0.0
1666090169816104319,0.0,0.0,0.0,0.0,0.0,0.0
1666090169816127104,0.0,0.0,0.0,0.0,0.0,0.0
1666090169860096101,0.0,0.0,0.0,0.0,0.0,0.0
1666090169860111030,0.0,0.0,0.0,0.0,0.0,0.0
1666090169860117274,0.0,0.0,0.0,0.0,0.0,0.0
1666090169908053795,0.0,0.0,0.0,0.0,0.0,0.0
1666090169908067328,0.0,0.0,0.0,0.0,0.0,0.0
1666090169922193892,0.0,0.0,0.0,0.0,0.0,0.0
1666090169941630623,0.0,0.0,0.0,0.0,0.0,0.0
1666090169988041899,0.0,0.0,0.0,0.0,0.0,0.0
1666090170028039622,0.0,0.0,0.0,0.0,0.0,0.0
1666090170028053441,0.0,0.0,0.0,0.0,0.0,0.0
1666090170028057555,0.0,0.0,0.0,0.0,0.0,0.0
1666090170076481783,0.0,0.0,0.0,0.0,0.0,0.0
1666090170076494295,0.0,0.0,0.0,0.0,0.0,0.0
1666090170078243986,0.0,0.0,0.0,0.0,0.0,0.0
1666090170098009827,0.0,0.0,0.0,0.0,0.0,0.0
1666090170140097975,0.0,0.0,0.0,0.0,0.0,0.0
1666090170140111929,0.0,0.0,0.0,0.0,0.0,0.0
1666090170184115682,0.0,0.0,0.0,0.0,0.0,0.0
1666090170184131814,0.0,0.0,0.0,0.0,0.0,0.0
1666090170228172277,0.0,0.0,0.0,0.0,0.0,0.0
1666090170228196201,0.0,0.0,0.0,0.0,0.0,0.0
1666090170272166545,0.0,0.0,0.0,0.0,0.0,0.0
1666090170272219392,0.0,0.0,0.0,0.0,0.0,0.0
1666090170316268343,0.0,0.0,0.0,0.0,0.0,0.0
1666090170316298555,0.0,0.0,0.0,0.0,0.0,0.0
1666090170360058600,0.0,0.0,0.0,0.0,0.0,0.0
1666090170360071568,0.0,0.0,0.0,0.0,0.0,0.0
1666090170360079582,0.0,0.0,0.0,0.0,0.0,0.0
1666090170404138427,0.0,0.0,0.0,0.0,0.0,0.0
1666090170408572963,0.0,0.0,0.0,0.0,0.0,0.0
1666090170452198212,0.0,0.0,0.0,0.0,0.0,0.0
1666090170452218454,0.0,0.0,0.0,0.0,0.0,0.0
1666090170496056794,0.0,0.0,0.0,0.0,0.0,0.0
1666090170496068048,0.0,0.0,0.0,0.0,0.0,0.0
1666090170541564053,0.0,0.0,0.0,0.0,0.0,0.0
1666090170541587412,0.0,0.0,0.0,0.0,0.0,0.0
1666090170541607555,0.0,0.0,0.0,0.0,0.0,0.0
1666090170584384697,0.0,0.0,0.0,0.0,0.0,0.0
1666090170584419094,0.0,0.0,0.0,0.0,0.0,0.0
1666090170598041337,0.0,0.0,0.0,0.0,0.0,0.0
1666090170617829943,0.0,0.0,0.0,0.0,0.0,0.0
1666090170660227745,0.0,0.0,0.0,0.0,0.0,0.0
1666090170660256560,0.0,0.0,0.0,0.0,0.0,0.0
1666090170704165375,0.0,0.0,0.0,0.0,0.0,0.0
1666090170704185619,0.0,0.0,0.0,0.0,0.0,0.0
1666090170748151820,0.0,0.0,0.0,0.0,0.0,0.0
1666090170748171950,0.0,0.0,0.0,0.0,0.0,0.0
1666090170792137620,0.0,0.0,0.0,0.0,0.0,0.0
1666090170792153264,0.0,0.0,0.0,0.0,0.0,0.0
1666090170840151025,0.0,0.0,0.0,0.0,0.0,0.0
1666090170840171752,0.0,0.0,0.0,0.0,0.0,0.0
1666090170840188524,0.0,0.0,0.0,0.0,0.0,0.0
1666090170884070124,0.0,0.0,0.0,0.0,0.0,0.0
1666090170884082463,0.0,0.0,0.0,0.0,0.0,0.0
1666090170898820422,0.0,0.0,0.0,0.0,0.0,0.0
1666090170920366139,0.0,0.0,0.0,0.0,0.0,0.0
1666090170960070204,0.0,0.0,0.0,0.0,0.0,0.0
1666090170960086749,0.0,0.0,0.0,0.0,0.0,0.0
1666090171004102832,0.0,0.0,0.0,0.0,0.0,0.0
1666090171004119284,0.0,0.0,0.0,0.0,0.0,0.0
1666090171048082924,0.0,0.0,0.0,0.0,0.0,0.0
1666090171048098828,0.0,0.0,0.0,0.0,0.0,0.0
1666090171092145339,0.0,0.0,0.0,0.0,0.0,0.0
1666090171092173209,0.0,0.0,0.0,0.0,0.0,0.0
1666090171139455088,0.0,0.0,0.0,0.0,0.0,0.0
1666090171139464998,0.0,0.0,0.0,0.0,0.0,0.0
1666090171180109946,0.0,0.0,0.0,0.0,0.0,0.0
1666090171180131080,0.0,0.0,0.0,0.0,0.0,0.0
1666090171180149701,0.0,0.0,0.0,0.0,0.0,0.0
1666090171224052644,0.0,0.0,0.0,0.0,0.0,0.0
1666090171224064914,0.0,0.0,0.0,0.0,0.0,0.0
1666090171239022958,0.0,0.0,0.0,0.0,0.0,0.0
1666090171260143000,0.0,0.0,0.0,0.0,0.0,0.0
1666090171304143958,0.0,0.0,0.0,0.0,0.0,0.0
1666090171304161865,0.0,0.0,0.0,0.0,0.0,0.0
1666090171352157685,0.0,0.0,0.0,0.0,0.0,0.0
1666090171352175100,0.0,0.0,0.0,0.0,0.0,0.0
1666090171396100130,0.0,0.0,0.0,0.0,0.0,0.0
1666090171396113158,0.0,0.0,0.0,0.0,0.0,0.0
1666090171440104393,0.0,0.0,0.0,0.0,0.0,0.0
1666090171440124695,0.0,0.0,0.0,0.0,0.0,0.0
1666090171440145110,0.0,0.0,0.0,0.0,0.0,0.0
1666090171484078375,0.0,0.0,0.0,0.0,0.0,0.0
1666090171484093945,0.0,0.0,0.0,0.0,0.0,0.0
1666090171498570932,0.0,0.0,0.0,0.0,0.0,0.0
1666090171519042913,0.0,0.0,0.0,0.0,0.0,0.0
1666090171560045181,0.0,0.0,0.0,0.0,0.0,0.0
1666090171560056893,0.0,0.0,0.0,0.0,0.0,0.0
1666090171608125200,0.0,0.0,0.0,0.0,0.0,0.0
1666090171608146769,0.0,0.0,0.0,0.0,0.0,0.0
1666090171652094729,0.0,0.0,0.0,0.0,0.0,0.0
1666090171652113042,0.0,0.0,0.0,0.0,0.0,0.0
1666090171696111986,0.0,0.0,0.0,0.0,0.0,0.0
1666090171696128619,0.0,0.0,0.0,0.0,0.0,0.0
1666090171740123680,0.0,0.0,0.0,0.0,0.0,0.0
1666090171740151623,0.0,0.0,0.0,0.0,0.0,0.0
1666090171740164087,0.0,0.0,0.0,0.0,0.0,0.0
1666090171784088907,0.0,0.0,0.0,0.0,0.0,0.0
1666090171784103180,0.0,0.0,0.0,0.0,0.0,0.0
1666090171799356904,0.0,0.0,0.0,0.0,0.0,0.0
1666090171819937542,0.0,0.0,0.0,0.0,0.0,0.0
1666090171864134844,0.0,0.0,0.0,0.0,0.0,0.0
1666090171864149952,0.0,0.0,0.0,0.0,0.0,0.0
1666090171908654172,0.0,0.0,0.0,0.0,0.0,0.0
1666090171908728522,0.0,0.0,0.0,0.0,0.0,0.0
1666090171952236108,0.0,0.0,0.0,0.0,0.0,0.0
1666090171952268370,0.0,0.0,0.0,0.0,0.0,0.0
1666090171996169104,0.0,0.0,0.0,0.0,0.0,0.0
1666090171996193584,0.0,0.0,0.0,0.0,0.0,0.0
1666090172040166890,0.0,0.0,0.0,0.0,0.0,0.0
1666090172040196374,0.0,0.0,0.0,0.0,0.0,0.0
1666090172040555706,0.0,0.0,0.0,0.0,0.0,0.0
1666090172084153817,0.0,0.0,0.0,0.0,0.0,0.0
1666090172084173490,0.0,0.0,0.0,0.0,0.0,0.0
1666090172099316367,0.0,0.0,0.0,0.0,0.0,0.0
1666090172120216444,0.0,0.0,0.0,0.0,0.0,0.0
1666090172164132622,0.0,0.0,0.0,0.0,0.0,0.0
1666090172164159475,0.0,0.0,0.0,0.0,0.0,0.0
1666090172208203366,0.0,0.0,0.0,0.0,0.0,0.0
1666090172208248733,0.0,0.0,0.0,0.0,0.0,0.0
1666090172252250055,0.0,0.0,0.0,0.0,0.0,0.0
1666090172252277137,0.0,0.0,0.0,0.0,0.0,0.0
1666090172296073868,0.0,0.0,0.0,0.0,0.0,0.0
1666090172296087993,0.0,0.0,0.0,0.0,0.0,0.0
1666090172340188053,0.0,0.0,0.0,0.0,0.0,0.0
1666090172340217169,0.0,0.0,0.0,0.0,0.0,0.0
1666090172385551639,0.0,0.0,0.0,0.0,0.0,0.0
1666090172385579870,0.0,0.0,0.0,0.0,0.0,0.0
1666090172385617782,0.0,0.0,0.0,0.0,0.0,0.0
1666090172428080678,0.0,0.0,0.0,0.0,0.0,0.0
1666090172428099500,0.0,0.0,0.0,0.0,0.0,0.0
1666090172439767575,0.0,0.0,0.0,0.0,0.0,0.0
1666090172459438435,0.0,0.0,0.0,0.0,0.0,0.0
1666090172504214533,0.0,0.0,0.0,0.0,0.0,0.0
1666090172504237922,0.0,0.0,0.0,0.0,0.0,0.0
1666090172548296869,0.0,0.0,0.0,0.0,0.0,0.0
1666090172548313356,0.0,0.0,0.0,0.0,0.0,0.0
1666090172592071653,0.0,0.0,0.0,0.0,0.0,0.0
1666090172592085929,0.0,0.0,0.0,0.0,0.0,0.0
1666090172636086156,0.0,0.0,0.0,0.0,0.0,0.0
1666090172636099181,0.0,0.0,0.0,0.0,0.0,0.0
1666090172680189752,0.0,0.0,0.0,0.0,0.0,0.0
1666090172680223581,0.0,0.0,0.0,0.0,0.0,0.0
1666090172728411533,0.0,0.0,0.0,0.0,0.0,0.0
1666090172728462848,0.0,0.0,0.0,0.0,0.0,0.0
1666090172728659702,0.0,0.0,0.0,0.0,0.0,0.0
1666090172772144334,0.0,0.0,0.0,0.0,0.0,0.0
1666090172772163672,0.0,0.0,0.0,0.0,0.0,0.0
1666090172780392472,0.0,0.0,0.0,0.0,0.0,0.0
1666090172800239156,0.0,0.0,0.0,0.0,0.0,0.0
1666090172844260787,0.0,0.0,0.0,0.0,0.0,0.0
1666090172844303010,0.0,0.0,0.0,0.0,0.0,0.0
1666090172892288736,0.0,0.0,0.0,0.0,0.0,0.0
1666090172892305521,0.0,0.0,0.0,0.0,0.0,0.0
1666090172940212570,0.0,0.0,0.0,0.0,0.0,0.0
1666090172940236881,0.0,0.0,0.0,0.0,0.0,0.0
1666090172984965431,0.0,0.0,0.0,0.0,0.0,0.0
1666090172985021511,0.0,0.0,0.0,0.0,0.0,0.0
1666090172985492961,0.0,0.0,0.0,0.0,0.0,0.0
1666090173028162019,0.0,0.0,0.0,0.0,0.0,0.0
1666090173028207068,0.0,0.0,0.0,0.0,0.0,0.0
1666090173042189336,0.0,0.0,0.0,0.0,0.0,0.0
1666090173060290530,0.0,0.0,0.0,0.0,0.0,0.0
1666090173104322906,0.0,0.0,0.0,0.0,0.0,0.0
1666090173104353974,0.0,0.0,0.0,0.0,0.0,0.0
1666090173152096904,0.0,0.0,0.0,0.0,0.0,0.0
1666090173152109430,0.0,0.0,0.0,0.0,0.0,0.0
1666090173196079040,0.0,0.0,0.0,0.0,0.0,0.0
1666090173196092537,0.0,0.0,0.0,0.0,0.0,0.0
1666090173240290309,0.0,0.0,0.0,0.0,0.0,0.0
1666090173240333950,0.0,0.0,0.0,0.0,0.0,0.0
1666090173288064351,0.0,0.0,0.0,0.0,0.0,0.0
1666090173288080145,0.0,0.0,0.0,0.0,0.0,0.0
1666090173288090728,0.0,0.0,0.0,0.0,0.0,0.0
1666090173336101211,0.0,0.0,0.0,0.0,0.0,0.0
1666090173336113130,0.0,0.0,0.0,0.0,0.0,0.0
1666090173340682847,0.0,0.0,0.0,0.0,0.0,0.0
1666090173359944071,0.0,0.0,0.0,0.0,0.0,0.0
1666090173400113262,0.0,0.0,0.0,0.0,0.0,0.0
1666090173444167691,0.0,0.0,0.0,0.0,0.0,0.0
1666090173444194688,0.0,0.0,0.0,0.0,0.0,0.0
1666090173444203485,0.0,0.0,0.0,0.0,0.0,0.0
1666090173488097839,0.0,0.0,0.0,0.0,0.0,0.0
1666090173488122132,0.0,0.0,0.0,0.0,0.0,0.0
1666090173500114066,0.0,0.0,0.0,0.0,0.0,0.0
1666090173519804658,0.0,0.0,0.0,0.0,0.0,0.0
1666090173560085808,0.0,0.0,0.0,0.0,0.0,0.0
1666090173604217756,0.0,0.0,0.0,0.0,0.0,0.0
1666090173604245149,0.0,0.0,0.0,0.0,0.0,0.0
1666090173604254106,0.0,0.0,0.0,0.0,0.0,0.0
1666090173648595005,0.0,0.0,0.0,0.0,0.0,0.0
1666090173648617365,0.0,0.0,0.0,0.0,0.0,0.0
1666090173660168765,0.0,0.0,0.0,0.0,0.0,0.0
1666090173679883231,0.0,0.0,0.0,0.0,0.0,0.0
1666090173724057536,0.0,0.0,0.0,0.0,0.0,0.0
1666090173724065500,0.0,0.0,0.0,0.0,0.0,0.0
1666090173764110314,0.0,0.0,0.0,0.0,0.0,0.0
1666090173764128692,0.0,0.0,0.0,0.0,0.0,0.0
1666090173808149292,0.0,0.0,0.0,0.0,0.0,0.0
1666090173808174063,0.0,0.0,0.0,0.0,0.0,0.0
1666090173852105588,0.0,0.0,0.0,0.0,0.0,0.0
1666090173852117377,0.0,0.0,0.0,0.0,0.0,0.0
1666090173896263426,0.0,0.0,0.0,0.0,0.0,0.0
1666090173896286516,0.0,0.0,0.0,0.0,0.0,0.0
1666090173940483716,0.0,0.0,0.0,0.0,0.0,0.0
1666090173940532357,0.0,0.0,0.0,0.0,0.0,0.0
1666090173984125459,0.0,0.0,0.0,0.0,0.0,0.0
1666090173984145399,0.0,0.0,0.0,0.0,0.0,0.0
1666090173984161303,0.0,0.0,0.0,0.0,0.0,0.0
1666090174028103925,0.0,0.0,0.0,0.0,0.0,0.0
1666090174028123562,0.0,0.0,0.0,0.0,0.0,0.0
1666090174042939163,0.0,0.0,0.0,0.0,0.0,0.0
1666090174061736355,0.0,0.0,0.0,0.0,0.0,0.0
1666090174104102580,0.0,0.0,0.0,0.0,0.0,0.0
1666090174104117527,0.0,0.0,0.0,0.0,0.0,0.0
1666090174152066593,0.0,0.0,0.0,0.0,0.0,0.0
1666090174152081000,0.0,0.0,0.0,0.0,0.0,0.0
1666090174200100672,0.0,0.0,0.0,0.0,0.0,0.0
1666090174200115886,0.0,0.0,0.0,0.0,0.0,0.0
1666090174244407927,0.0,0.0,0.0,0.0,0.0,0.0
1666090174244473600,0.0,0.0,0.0,0.0,0.0,0.0
1666090174244505006,0.0,0.0,0.0,0.0,0.0,0.0
1666090174288072661,0.0,0.0,0.0,0.0,0.0,0.0
1666090174288090024,0.0,0.0,0.0,0.0,0.0,0.0
1666090174300652794,0.0,0.0,0.0,0.0,0.0,0.0
1666090174321824823,0.0,0.0,0.0,0.0,0.0,0.0
1666090174364069703,0.0,0.0,0.0,0.0,0.0,0.0
1666090174364086145,0.0,0.0,0.0,0.0,0.0,0.0
1666090174412157616,0.0,0.0,0.0,0.0,0.0,0.0
1666090174412176996,0.0,0.0,0.0,0.0,0.0,0.0
1666090174456147434,0.0,0.0,0.0,0.0,0.0,0.0
1666090174456171671,0.0,0.0,0.0,0.0,0.0,0.0
1666090174504133740,0.0,0.0,0.0,0.0,0.0,0.0
1666090174504155994,0.0,0.0,0.0,0.0,0.0,0.0
1666090174504177746,0.0,0.0,0.0,0.0,0.0,0.0
1666090174548511148,0.0,0.0,0.0,0.0,0.0,0.0
1666090174548589053,0.0,0.0,0.0,0.0,0.0,0.0
1666090174560625257,0.0,0.0,0.0,0.0,0.0,0.0
1666090174580738968,0.0,0.0,0.0,0.0,0.0,0.0
1666090174628080426,0.0,0.0,0.0,0.0,0.0,0.0
1666090174628100730,0.0,0.0,0.0,0.0,0.0,0.0
1666090174672111400,0.0,0.0,0.0,0.0,0.0,0.0
1666090174672126955,0.0,0.0,0.0,0.0,0.0,0.0
1666090174716092173,0.0,0.0,0.0,0.0,0.0,0.0
1666090174716107328,0.0,0.0,0.0,0.0,0.0,0.0
1666090174760074210,0.0,0.0,0.0,0.0,0.0,0.0
1666090174760085504,0.0,0.0,0.0,0.0,0.0,0.0
1666090174804116876,0.0,0.0,0.0,0.0,0.0,0.0
1666090174804134427,0.0,0.0,0.0,0.0,0.0,0.0
1666090174804144335,0.0,0.0,0.0,0.0,0.0,0.0
1666090174848059619,0.0,0.0,0.0,0.0,0.0,0.0
1666090174848071353,0.0,0.0,0.0,0.0,0.0,0.0
1666090174861965683,0.0,0.0,0.0,0.0,0.0,0.0
1666090174881461846,0.0,0.0,0.0,0.0,0.0,0.0
1666090174930283354,0.0,0.0,0.0,0.0,0.0,0.0
1666090174930300568,0.0,0.0,0.0,0.0,0.0,0.0
1666090174976175557,0.0,0.0,0.0,0.0,0.0,0.0
1666090174976199380,0.0,0.0,0.0,0.0,0.0,0.0
1666090175024056699,0.0,0.0,0.0,0.0,0.0,0.0
1666090175024069091,0.0,0.0,0.0,0.0,0.0,0.0
1666090175024074032,0.0,0.0,0.0,0.0,0.0,0.0
1666090175068217765,0.0,0.0,0.0,0.0,0.0,0.0
1666090175068249034,0.0,0.0,0.0,0.0,0.0,0.0
1666090175082516104,0.0,0.0,0.0,0.0,0.0,0.0
1666090175102117870,0.0,0.0,0.0,0.0,0.0,0.0
1666090175144216482,0.0,0.0,0.0,0.0,0.0,0.0
1666090175144248359,0.0,0.0,0.0,0.0,0.0,0.0
1666090175188376338,0.0,0.0,0.0,0.0,0.0,0.0
1666090175188414440,0.0,0.0,0.0,0.0,0.0,0.0
1666090175232125448,0.0,0.0,0.0,0.0,0.0,0.0
1666090175232137985,0.0,0.0,0.0,0.0,0.0,0.0
1666090175276157304,0.0,0.0,0.0,0.0,0.0,0.0
1666090175276179979,0.0,0.0,0.0,0.0,0.0,0.0
1666090175320592436,0.0,0.0,0.0,0.0,0.0,0.0
1666090175320653698,0.0,0.0,0.0,0.0,0.0,0.0
1666090175364056950,0.0,0.0,0.0,0.0,0.0,0.0
1666090175364070937,0.0,0.0,0.0,0.0,0.0,0.0
1666090175364078486,0.0,0.0,0.0,0.0,0.0,0.0
1666090175408478304,0.0,0.0,0.0,0.0,0.0,0.0
1666090175408489817,0.0,0.0,0.0,0.0,0.0,0.0
1666090175424541328,0.0,0.0,0.0,0.0,0.0,0.0
1666090175443893921,0.0,0.0,0.0,0.0,0.0,0.0
1666090175484294002,0.0,0.0,0.0,0.0,0.0,0.0
1666090175484352077,0.0,0.0,0.0,0.0,0.0,0.0
1666090175528036197,0.0,0.0,0.0,0.0,0.0,0.0
1666090175528046928,0.0,0.0,0.0,0.0,0.0,0.0
1666090175572202981,0.0,0.0,0.0,0.0,0.0,0.0
1666090175572220487,0.0,0.0,0.0,0.0,0.0,0.0
1666090175620374819,0.0,0.0,0.0,0.0,0.0,0.0
1666090175620418577,0.0,0.0,0.0,0.0,0.0,0.0
1666090175664061361,0.0,0.0,0.0,0.0,0.0,0.0
1666090175664075459,0.0,0.0,0.0,0.0,0.0,0.0
1666090175664079506,0.0,0.0,0.0,0.0,0.0,0.0
1666090175708625766,0.0,0.0,0.0,0.0,0.0,0.0
1666090175708689918,0.0,0.0,0.0,0.0,0.0,0.0
1666090175722228111,0.0,0.0,0.0,0.0,0.0,0.0
1666090175742378298,0.0,0.0,0.0,0.0,0.0,0.0
1666090175784090690,0.0,0.0,0.0,0.0,0.0,0.0
1666090175784108451,0.0,0.0,0.0,0.0,0.0,0.0
1666090175828120159,0.0,0.0,0.0,0.0,0.0,0.0
1666090175828140498,0.0,0.0,0.0,0.0,0.0,0.0
1666090175876184292,0.0,0.0,0.0,0.0,0.0,0.0
1666090175876207613,0.0,0.0,0.0,0.0,0.0,0.0
1666090175920130681,0.0,0.0,0.0,0.0,0.0,0.0
1666090175920146472,0.0,0.0,0.0,0.0,0.0,0.0
1666090175968043057,0.0,0.0,0.0,0.0,0.0,0.0
1666090175968055689,0.0,0.0,0.0,0.0,0.0,0.0
1666090175968064019,0.0,0.0,0.0,0.0,0.0,0.0
1666090176012099204,0.0,0.0,0.0,0.0,0.0,0.0
1666090176012144522,0.0,0.0,0.0,0.0,0.0,0.0
1666090176022082029,0.0,0.0,0.0,0.0,0.0,0.0
1666090176042320927,0.0,0.0,0.0,0.0,0.0,0.0
1666090176084339882,0.0,0.0,0.0,0.0,0.0,0.0
1666090176084388456,0.0,0.0,0.0,0.0,0.0,0.0
1666090176128093140,0.0,0.0,0.0,0.0,0.0,0.0
1666090176128107204,0.0,0.0,0.0,0.0,0.0,0.0
1666090176172214600,0.0,0.0,0.0,0.0,0.0,0.0
1666090176172246572,0.0,0.0,0.0,0.0,0.0,0.0
1666090176216491092,0.0,0.0,0.0,0.0,0.0,0.0
1666090176216545737,0.0,0.0,0.0,0.0,0.0,0.0
1666090176260482037,0.0,0.0,0.0,0.0,0.0,0.0
1666090176260508594,0.0,0.0,0.0,0.0,0.0,0.0
1666090176304079589,0.0,0.0,0.0,0.0,0.0,0.0
1666090176304095413,0.0,0.0,0.0,0.0,0.0,0.0
1666090176304101887,0.0,0.0,0.0,0.0,0.0,0.0
1666090176348161512,0.0,0.0,0.0,0.0,0.0,0.0
1666090176348206831,0.0,0.0,0.0,0.0,0.0,0.0
1666090176362756740,0.0,0.0,0.0,0.0,0.0,0.0
1666090176382133686,0.0,0.0,0.0,0.0,0.0,0.0
1666090176424078603,0.0,0.0,0.0,0.0,0.0,0.0
1666090176424094361,0.0,0.0,0.0,0.0,0.0,0.0
1666090176468117196,0.0,0.0,0.0,0.0,0.0,0.0
1666090176468132194,0.0,0.0,0.0,0.0,0.0,0.0
1666090176516570874,0.0,0.0,0.0,0.0,0.0,0.0
1666090176516630244,0.0,0.0,0.0,0.0,0.0,0.0
1666090176560194455,0.0,0.0,0.0,0.0,0.0,0.0
1666090176560228175,0.0,0.0,0.0,0.0,0.0,0.0
1666090176604177546,0.0,0.0,0.0,0.0,0.0,0.0
1666090176604199151,0.0,0.0,0.0,0.0,0.0,0.0
1666090176604206751,0.0,0.0,0.0,0.0,0.0,0.0
1666090176648078834,0.0,0.0,0.0,0.0,0.0,0.0
1666090176648097232,0.0,0.0,0.0,0.0,0.0,0.0
1666090176665259826,0.0,0.0,0.0,0.0,0.0,0.0
1666090176683062818,0.0,0.0,0.0,0.0,0.0,0.0
1666090176724246308,0.0,0.0,0.0,0.0,0.0,0.0
1666090176724275481,0.0,0.0,0.0,0.0,0.0,0.0
1666090176768087823,0.0,0.0,0.0,0.0,0.0,0.0
1666090176768102512,0.0,0.0,0.0,0.0,0.0,0.0
1666090176812128250,0.0,0.0,0.0,0.0,0.0,0.0
1666090176812143647,0.0,0.0,0.0,0.0,0.0,0.0
1666090176856128953,0.0,0.0,0.0,0.0,0.0,0.0
1666090176856151928,0.0,0.0,0.0,0.0,0.0,0.0
1666090176900190942,0.0,0.0,0.0,0.0,0.0,0.0
1666090176900214874,0.0,0.0,0.0,0.0,0.0,0.0
1666090176945540627,0.0,0.0,0.0,0.0,0.0,0.0
1666090176945571134,0.0,0.0,0.0,0.0,0.0,0.0
1666090176945772270,0.0,0.0,0.0,0.0,0.0,0.0
1666090176988613066,0.0,0.0,0.0,0.0,0.0,0.0
1666090176988643933,0.0,0.0,0.0,0.0,0.0,0.0
1666090177002923753,0.0,0.0,0.0,0.0,0.0,0.0
1666090177023268297,0.0,0.0,0.0,0.0,0.0,0.0
1666090177064290071,0.0,0.0,0.0,0.0,0.0,0.0
1666090177108300042,0.0,0.0,0.0,0.0,0.0,0.0
1666090177108333167,0.0,0.0,0.0,0.0,0.0,0.0
1666090177108345082,0.0,0.0,0.0,0.0,0.0,0.0
1666090177152429427,0.0,0.0,0.0,0.0,0.0,0.0
1666090177152484858,0.0,0.0,0.0,0.0,0.0,0.0
1666090177162524735,0.0,0.0,0.0,0.0,0.0,0.0
1666090177182575085,0.0,0.0,0.0,0.0,0.0,0.0
1666090177224813807,0.0,0.0,0.0,0.0,0.0,0.0
1666090177224848407,0.0,0.0,0.0,0.0,0.0,0.0
1666090177272223256,0.0,0.0,0.0,0.0,0.0,0.0
1666090177272254659,0.0,0.0,0.0,0.0,0.0,0.0
1666090177316458536,0.0,0.0,0.0,0.0,0.0,0.0
1666090177316499877,0.0,0.0,0.0,0.0,0.0,0.0
1666090177364365642,0.0,0.0,0.0,0.0,0.0,0.0
1666090177364410435,0.0,0.0,0.0,0.0,0.0,0.0
1666090177364433629,0.0,0.0,0.0,0.0,0.0,0.0
1666090177412143711,0.0,0.0,0.0,0.0,0.0,0.0
1666090177412183638,0.0,0.0,0.0,0.0,0.0,0.0
1666090177423418232,0.0,0.0,0.0,0.0,0.0,0.0
1666090177443893320,0.0,0.0,0.0,0.0,0.0,0.0
1666090177488141006,0.0,0.0,0.0,0.0,0.0,0.0
1666090177488163456,0.0,0.0,0.0,0.0,0.0,0.0
1666090177532117997,0.0,0.0,0.0,0.0,0.0,0.0
1666090177532141132,0.0,0.0,0.0,0.0,0.0,0.0
1666090177576445282,0.0,0.0,0.0,0.0,0.0,0.0
1666090177576518440,0.0,0.0,0.0,0.0,0.0,0.0
1666090177620106325,0.0,0.0,0.0,0.0,0.0,0.0
1666090177620127900,0.0,0.0,0.0,0.0,0.0,0.0
1666090177664118437,0.0,0.0,0.0,0.0,0.0,0.0
1666090177664139576,0.0,0.0,0.0,0.0,0.0,0.0
1666090177664150532,0.0,0.0,0.0,0.0,0.0,0.0
1666090177712167032,0.0,0.0,0.0,0.0,0.0,0.0
1666090177712196524,0.0,0.0,0.0,0.0,0.0,0.0
1666090177723170210,0.0,0.0,0.0,0.0,0.0,0.0
1666090177743545715,0.0,0.0,0.0,0.0,0.0,0.0
1666090177788228033,0.0,0.0,0.0,0.0,0.0,0.0
1666090177788258581,0.0,0.0,0.0,0.0,0.0,0.0
1666090177836300076,0.0,0.0,0.0,0.0,0.0,0.0
1666090177836329378,0.0,0.0,0.0,0.0,0.0,0.0
1666090177880211139,0.0,0.0,0.0,0.0,0.0,0.0
1666090177880248501,0.0,0.0,0.0,0.0,0.0,0.0
1666090177928097842,0.0,0.0,0.0,0.0,0.0,0.0
1666090177928149253,0.0,0.0,0.0,0.0,0.0,0.0
1666090177928163575,0.0,0.0,0.0,0.0,0.0,0.0
1666090177972156530,0.0,0.0,0.0,0.0,0.0,0.0
1666090177972180398,0.0,0.0,0.0,0.0,0.0,0.0
1666090177986690086,0.0,0.0,0.0,0.0,0.0,0.0
1666090178003903398,0.0,0.0,0.0,0.0,0.0,0.0
1666090178044207591,0.0,0.0,0.0,0.0,0.0,0.0
1666090178044243370,0.0,0.0,0.0,0.0,0.0,0.0
1666090178088138438,0.0,0.0,0.0,0.0,0.0,0.0
1666090178088163982,0.0,0.0,0.0,0.0,0.0,0.0
1666090178132085804,0.0,0.0,0.0,0.0,0.0,0.0
1666090178132103161,0.0,0.0,0.0,0.0,0.0,0.0
1666090178176361588,0.0,0.0,0.0,0.0,0.0,0.0
1666090178176417180,0.0,0.0,0.0,0.0,0.0,0.0
1666090178220184518,0.0,0.0,0.0,0.0,0.0,0.0
1666090178220209167,0.0,0.0,0.0,0.0,0.0,0.0
1666090178264107299,0.0,0.0,0.0,0.0,0.0,0.0
1666090178264133105,0.0,0.0,0.0,0.0,0.0,0.0
1666090178264149197,0.0,0.0,0.0,0.0,0.0,0.0
1666090178308575237,0.0,0.0,0.0,0.0,0.0,0.0
1666090178308650598,0.0,0.0,0.0,0.0,0.0,0.0
1666090178323609641,0.0,0.0,0.0,0.0,0.0,0.0
1666090178343551793,0.0,0.0,0.0,0.0,0.0,0.0
1666090178388137048,0.0,0.0,0.0,0.0,0.0,0.0
1666090178388155593,0.0,0.0,0.0,0.0,0.0,0.0
1666090178432242462,0.0,0.0,0.0,0.0,0.0,0.0
1666090178432288307,0.0,0.0,0.0,0.0,0.0,0.0
1666090178476120377,0.0,0.0,0.0,0.0,0.0,0.0
1666090178476139942,0.0,0.0,0.0,0.0,0.0,0.0
1666090178520163163,0.0,0.0,0.0,0.0,0.0,0.0
1666090178520184630,0.0,0.0,0.0,0.0,0.0,0.0
1666090178564504541,0.0,0.0,0.0,0.0,0.0,0.0
1666090178564576430,0.0,0.0,0.0,0.0,0.0,0.0
1666090178608101338,0.0,0.0,0.0,0.0,0.0,0.0
1666090178608118563,0.0,0.0,0.0,0.0,0.0,0.0
1666090178608128877,0.0,0.0,0.0,0.0,0.0,0.0
1666090178652119921,0.0,0.0,0.0,0.0,0.0,0.0
1666090178652138889,0.0,0.0,0.0,0.0,0.0,0.0
1666090178664148771,0.0,0.0,0.0,0.0,0.0,0.0
1666090178683080437,0.0,0.0,0.0,0.0,0.0,0.0
1666090178724087785,0.0,0.0,0.0,0.0,0.0,0.0
1666090178724106581,0.0,0.0,0.0,0.0,0.0,0.0
1666090178768105870,0.0,0.0,0.0,0.0,0.0,0.0
1666090178768122291,0.0,0.0,0.0,0.0,0.0,0.0
1666090178812268060,0.0,0.0,0.0,0.0,0.0,0.0
1666090178812289773,0.0,0.0,0.0,0.0,0.0,0.0
1666090178860131056,0.0,0.0,0.0,0.0,0.0,0.0
1666090178860155296,0.0,0.0,0.0,0.0,0.0,0.0
1666090178908117769,0.0,0.0,0.0,0.0,0.0,0.0
1666090178908139751,0.0,0.0,0.0,0.0,0.0,0.0
1666090178908151171,0.0,0.0,0.0,0.0,0.0,0.0
1666090178956092952,0.0,0.0,0.0,0.0,0.0,0.0
1666090178956112584,0.0,0.0,0.0,0.0,0.0,0.0
1666090178964072476,0.0,0.0,0.0,0.0,0.0,0.0
1666090178983892237,0.0,0.0,0.0,0.0,0.0,0.0
1666090179024245729,0.0,0.0,0.0,0.0,0.0,0.0
1666090179068395127,0.0,0.0,0.0,0.0,0.0,0.0
1666090179068422933,0.0,0.0,0.0,0.0,0.0,0.0
1666090179068460188,0.0,0.0,0.0,0.0,0.0,0.0
1666090179112256420,0.0,0.0,0.0,0.0,0.0,0.0
1666090179112296778,0.0,0.0,0.0,0.0,0.0,0.0
1666090179124959280,0.0,0.0,0.0,0.0,0.0,0.0
1666090179147311803,0.0,0.0,0.0,0.0,0.0,0.0
1666090179192083622,0.0,0.0,0.0,0.0,0.0,0.0
1666090179192100529,0.0,0.0,0.0,0.0,0.0,0.0
1666090179240080573,0.0,0.0,0.0,0.0,0.0,0.0
1666090179240098275,0.0,0.0,0.0,0.0,0.0,0.0
1666090179284328248,0.0,0.0,0.0,0.0,0.0,0.0
1666090179284383771,0.0,0.0,0.0,0.0,0.0,0.0
1666090179328096885,0.0,0.0,0.0,0.0,0.0,0.0
1666090179328113833,0.0,0.0,0.0,0.0,0.0,0.0
1666090179328139457,0.0,0.0,0.0,0.0,0.0,0.0
1666090179372301335,0.0,0.0,0.0,0.0,0.0,0.0
1666090179372399310,0.0,0.0,0.0,0.0,0.0,0.0
1666090179384273628,0.0,0.0,0.0,0.0,0.0,0.0
1666090179403616296,0.0,0.0,0.0,0.0,0.0,0.0
1666090179444371820,0.0,0.0,0.0,0.0,0.0,0.0
1666090179444447809,0.0,0.0,0.0,0.0,0.0,0.0
1666090179488060244,0.0,0.0,0.0,0.0,0.0,0.0
1666090179488070178,0.0,0.0,0.0,0.0,0.0,0.0
1666090179532152631,0.0,0.0,0.0,0.0,0.0,0.0
1666090179532174945,0.0,0.0,0.0,0.0,0.0,0.0
1666090179576460188,0.0,0.0,0.0,0.0,0.0,0.0
1666090179576495813,0.0,0.0,0.0,0.0,0.0,0.0
1666090179620115249,0.0,0.0,0.0,0.0,0.0,0.0
1666090179620137458,0.0,0.0,0.0,0.0,0.0,0.0
1666090179664125460,0.0,0.0,0.0,0.0,0.0,0.0
1666090179664138485,0.0,0.0,0.0,0.0,0.0,0.0
1666090179708133663,0.0,0.0,0.0,0.0,0.0,0.0
1666090179708153424,0.0,0.0,0.0,0.0,0.0,0.0
1666090179708159276,0.0,0.0,0.0,0.0,0.0,0.0
1666090179752205779,0.0,0.0,0.0,0.0,0.0,0.0
1666090179752241959,0.0,0.0,0.0,0.0,0.0,0.0
1666090179764733122,0.0,0.0,0.0,0.0,0.0,0.0
1666090179785149082,0.0,0.0,0.0,0.0,0.0,0.0
1666090179828123074,0.0,0.0,0.0,0.0,0.0,0.0
1666090179828142571,0.0,0.0,0.0,0.0,0.0,0.0
1666090179872358016,0.0,0.0,0.0,0.0,0.0,0.0
1666090179872387127,0.0,0.0,0.0,0.0,0.0,0.0
1666090179916236727,0.0,0.0,0.0,0.0,0.0,-0.002967059728390361
1666090179916260888,0.0,0.0,0.0,0.0,0.0,-0.0005235987755982988
1666090179964107450,0.0,0.0,0.0,0.0,0.0,0.0005235987755982988
1666090179964119975,0.0,0.0,0.0,0.0,0.0,0.0
1666090180012440599,0.0,0.0,0.0,0.0,0.0,0.0010471975511965976
1666090180012466753,0.002132302208337933,0.0,0.0,0.0,0.0,0.0008726646259971648
1666090180012493457,0.029852230916731063,0.0,0.0,0.0,0.0,0.0008726646259971648
1666090180056147560,0.017058417666703463,0.0,0.0,0.0,0.0,-0.0010471975511965976
1666090180056172701,0.012793813250027599,0.0,0.0,0.0,0.0,0.0006981317007977319
1666090180066296902,0.014926115458365532,0.0,0.0,0.0,0.0,0.002967059728390361
1666090180085061591,0.02345532429171726,0.0,0.0,0.0,0.0,0.0008726646259971648
1666090180132219951,0.03838143975008279,0.0,0.0,0.0,0.0,0.0015707963267948967
1666090180132262906,0.029852230916731063,0.0,0.0,0.0,0.0,0.0
1666090180180358732,0.042646044166758657,0.0,0.0,0.0,0.0,-0.0031415926535897933
1666090180180392044,0.03838143975008279,0.0,0.0,0.0,0.0,-0.002967059728390361
1666090180228143222,0.042646044166758657,0.0,0.0,0.0,0.0,-0.014137166941154071
1666090180228175295,0.05330755520844832,0.0,0.0,0.0,0.0,-0.027052603405912107
1666090180228191554,0.06610136845847592,0.0,0.0,0.0,0.0,-0.020071286397934786
1666090180276100484,0.07249827508348972,0.0,0.0,0.0,0.0,-0.010821041362364843
1666090180276114485,0.07249827508348972,0.0,0.0,0.0,0.0,-0.011868238913561443
1666090180285781258,0.07889518170850353,0.0,0.0,0.0,0.0,-0.03769911184307752
1666090180304912273,0.09382129716686904,0.0,0.0,0.0,0.0,-0.04537856055185257
1666090180348235823,0.09808590158354492,0.0,0.0,0.0,0.0,-0.03490658503988659
1666090180348266849,0.10448280820855872,0.0,0.0,0.0,0.0,-0.040491638646268445
1666090180392190688,0.09808590158354492,0.0,0.0,0.0,0.0,-0.0497418836818384
1666090180392229366,0.1108797148335725,0.0,0.0,0.0,0.0,-0.054105206811824215
1666090180436180330,0.12580583029193804,0.0,0.0,0.0,0.0,-0.07696902001294993
1666090180436202963,0.12367352808360012,0.0,0.0,0.0,0.0,-0.08203047484373349
1666090180480362612,0.1364673413336277,0.0,0.0,0.0,0.0,-0.09546951008408983
1666090180480383813,0.13433503912528977,0.0,0.0,0.0,0.0,-0.11711159280881951
1666090180524206356,0.13220273691695184,0.0,0.0,0.0,0.0,-0.12391837689159739
1666090180524230349,0.14499655016697943,0.0,0.0,0.0,0.0,-0.13683381335635542
1666090180568187924,0.15352575900033116,0.0,0.0,0.0,0.0,-0.15376350710070044
1666090180568213250,0.15139345679199323,0.0,0.0,0.0,0.0,-0.1605702911834783
1666090180568240470,0.1556580612086691,0.0,0.0,0.0,0.0,-0.15987215948268058
1666090180612151626,0.1556580612086691,0.0,0.0,0.0,0.0,-0.20315632493213995
1666090180612168351,0.17271647887537256,0.0,0.0,0.0,0.0,-0.21956241990088665
1666090180625541006,0.17484878108371052,0.0,0.0,0.0,0.0,-0.2256710722828668
1666090180645839685,0.17698108329204845,0.0,0.0,0.0,0.0,-0.2398082392240209
1666090180692228109,0.17698108329204845,0.0,0.0,0.0,0.0,-0.2548180707911721
1666090180692262070,0.17911338550038639,0.0,0.0,0.0,0.0,-0.29216811678385074
1666090180737538420,0.20470101200044158,0.0,0.0,0.0,0.0,-0.30229102644541783
1666090180737641891,0.19617180316708985,0.0,0.0,0.0,0.0,-0.3075270142014009
1666090180784115652,0.21109791862545538,0.0,0.0,0.0,0.0,-0.32882003107573166
1666090180784135506,0.20470101200044158,0.0,0.0,0.0,0.0,-0.3218387140677544
1666090180828230642,0.20896561641711744,0.0,0.0,0.0,0.0,-0.34732052114687156
1666090180828269643,0.22389173187548297,0.0,0.0,0.0,0.0,-0.3762929867299774
1666090180828392793,0.21749482525046915,0.0,0.0,0.0,0.0,-0.38519416591514855
1666090180872183005,0.22389173187548297,0.0,0.0,0.0,0.0,-0.40561451816348215
1666090180872222142,0.22602403408382088,0.0,0.0,0.0,0.0,-0.4155628948998498
1666090180886203049,0.23668554512551054,0.0,0.0,0.0,0.0,-0.4419173666049642
1666090180906019290,0.24734705616720024,0.0,0.0,0.0,0.0,-0.4565781323217166
1666090180952181665,0.24734705616720024,0.0,0.0,0.0,0.0,-0.4900884539600077
1666090180952216397,0.25587626500055194,0.0,0.0,0.0,0.0,-0.4867723283812185
1666090180996109352,0.25587626500055194,0.0,0.0,0.0,0.0,-0.481361807700036
1666090180996123142,0.25800856720888987,0.0,0.0,0.0,0.0,-0.5092870757319454
1666090181040069859,0.2516116605838761,0.0,0.0,0.0,0.0,-0.5286602304290824
1666090181040084920,0.24734705616720024,0.0,0.0,0.0,0.0,-0.5382595413150513
1666090181084288179,0.23455324291717264,0.0,0.0,0.0,0.0,-0.5412266010434416
1666090181084337309,0.23668554512551054,0.0,0.0,0.0,0.0,-0.5539675045830001
1666090181128034016,0.24947935837553817,0.0,0.0,0.0,0.0,-0.5995205980600522
1666090181128044892,0.25800856720888987,0.0,0.0,0.0,0.0,-0.630063859969953
1666090181128048845,0.24734705616720024,0.0,0.0,0.0,0.0,-0.6644468462342412
1666090181172159346,0.25800856720888987,0.0,0.0,0.0,0.0,-0.67404615712021
1666090181172195114,0.26653777604224166,0.0,0.0,0.0,0.0,-0.6731734924942129
1666090181185316540,0.2622731716255658,0.0,0.0,0.0,0.0,-0.7030186227033159
1666090181205990307,0.27080238045891747,0.0,0.0,0.0,0.0,-0.7569492965899406
1666090181252111604,0.2729346826672554,0.0,0.0,0.0,0.0,-0.7386233394440003
1666090181252128259,0.2814638915006072,0.0,0.0,0.0,0.0,-0.7246607054280457
1666090181296579341,0.27506698487559333,0.0,0.0,0.0,0.0,-0.7635815477475191
1666090181296612719,0.26653777604224166,0.0,0.0,0.0,0.0,-0.7927285462558246
1666090181340279266,0.28999310033395886,0.0,0.0,0.0,0.0,-0.7963937376850125
1666090181340303451,0.2985223091673106,0.0,0.0,0.0,0.0,-0.8026769229921922
1666090181384100633,0.30918382020900026,0.0,0.0,0.0,0.0,-0.789761486527434
1666090181384119609,0.3070515180006623,0.0,0.0,0.0,0.0,-0.8155923594569501
1666090181428101082,0.30918382020900026,0.0,0.0,0.0,0.0,-0.8379325738824775
1666090181428120731,0.3262422378757037,0.0,0.0,0.0,0.0,-0.8365363104808822
1666090181428131125,0.33050684229237964,0.0,0.0,0.0,0.0,-0.8227482093901269
1666090181476102075,0.3326391445007175,0.0,0.0,0.0,0.0,-0.832871119051694
1666090181476120347,0.3369037489173934,0.0,0.0,0.0,0.0,-0.8595746566072072
1666090181486220052,0.34116835333406925,0.0,0.0,0.0,0.0,-0.8536405371504265
1666090181505809327,0.3518298643757589,0.0,0.0,0.0,0.0,-0.8466592201424491
1666090181548229727,0.3518298643757589,0.0,0.0,0.0,0.0,-0.8300785922485032
1666090181548271787,0.36249137541744864,0.0,0.0,0.0,0.0,-0.8234463410909247
1666090181592145719,0.36035907320911065,0.0,0.0,0.0,0.0,-0.8061675814961807
1666090181592168685,0.3518298643757589,0.0,0.0,0.0,0.0,-0.7567747636647413
1666090181636098486,0.3710205842508003,0.0,0.0,0.0,0.0,-0.7524114405347555
1666090181636119008,0.3752851886674762,0.0,0.0,0.0,0.0,-0.7412413333219916
1666090181680600633,0.37741749087581417,0.0,0.0,0.0,0.0,-0.7075564787585011
1666090181680644464,0.37741749087581417,0.0,0.0,0.0,0.0,-0.6724753607934152
1666090181724115617,0.3752851886674762,0.0,0.0,0.0,0.0,-0.6440264939859076
1666090181724128232,0.3902113041258417,0.0,0.0,0.0,0.0,-0.64018676963152
1666090181772213696,0.39447590854251763,0.0,0.0,0.0,0.0,-0.6302383928951524
1666090181772226750,0.38807900191750383,0.0,0.0,0.0,0.0,-0.6138322979264057
1666090181772246670,0.38594669970916584,0.0,0.0,0.0,0.0,-0.6124360345248103
1666090181816214887,0.3902113041258417,0.0,0.0,0.0,0.0,-0.6124360345248103
1666090181816244347,0.40940202400088316,0.0,0.0,0.0,0.0,-0.6124360345248103
1666090181827399463,0.40300511737586936,0.0,0.0,0.0,0.0,-0.6159266930287989
1666090181847273231,0.3539621665840969,0.0,0.0,0.0,0.0,-0.6094689747964199
1666090181888431882,0.3326391445007175,0.0,0.0,0.0,0.0,-0.5927138139772743
1666090181888481278,0.34116835333406925,0.0,0.0,0.0,0.0,-0.537386876689054
1666090181932124325,0.3731528864591383,0.0,0.0,0.0,0.0,-0.46862090416047747
1666090181932135118,0.3731528864591383,0.0,0.0,0.0,0.0,-0.41172317054546237
1666090181976062835,0.3539621665840969,0.0,0.0,0.0,0.0,-0.3518583772020568
1666090181976074901,0.3539621665840969,0.0,0.0,0.0,0.0,-0.25953045977155675
1666090182022296053,0.36249137541744864,0.0,0.0,0.0,0.0,-0.204378055408536
1666090182022312028,0.3731528864591383,0.0,0.0,0.0,0.0,-0.16458454846306525
1666090182064375377,0.3710205842508003,0.0,0.0,0.0,0.0,-0.1408480706359424
1666090182064414988,0.3731528864591383,0.0,0.0,0.0,0.0,-0.1335176877775662
1666090182108250527,0.36888828204246243,0.0,0.0,0.0,0.0,-0.1174606586592184
1666090182108289538,0.3710205842508003,0.0,0.0,0.0,0.0,-0.09721483933608417
1666090182108306045,0.38807900191750383,0.0,0.0,0.0,0.0,-0.08569566627292158
1666090182152096261,0.4008728151675314,0.0,0.0,0.0,0.0,-0.08726646259971647
1666090182152104358,0.39447590854251763,0.0,0.0,0.0,0.0,-0.08918632477691024
1666090182165976088,0.38807900191750383,0.0,0.0,0.0,0.0,-0.07033676885537149
1666090182186326485,0.38807900191750383,0.0,0.0,0.0,0.0,-0.051487212933832724
1666090182228487073,0.41366662841755897,0.0,0.0,0.0,0.0,-0.051487212933832724
1666090182228814124,0.42219583725091075,0.0,0.0,0.0,0.0,-0.06789330790257941
1666090182276116407,0.4285927438759245,0.0,0.0,0.0,0.0,-0.06021385919380437
1666090182276146749,0.42646044166758657,0.0,0.0,0.0,0.0,-0.024609142453120045
1666090182320234228,0.4285927438759245,0.0,0.0,0.0,0.0,-0.03089232776029963
1666090182320269407,0.4499157659593038,0.0,0.0,0.0,0.0,-0.04345869837465881
1666090182364123234,0.45204806816764176,0.0,0.0,0.0,0.0,-0.03822271061867582
1666090182364155945,0.43712195270927623,0.0,0.0,0.0,0.0,-0.02391101075232232
1666090182408171475,0.43712195270927623,0.0,0.0,0.0,0.0,-0.012740903539558606
1666090182408191478,0.44351885933429,0.0,0.0,0.0,0.0,-0.020943951023931952
1666090182408197129,0.4499157659593038,0.0,0.0,0.0,0.0,-0.03682644721708035
1666090182453098150,0.45204806816764176,0.0,0.0,0.0,0.0,-0.01064650843716541
1666090182453140639,0.4285927438759245,0.0,0.0,0.0,0.0,-0.009075712110370514
1666090182465927307,0.42219583725091075,0.0,0.0,0.0,0.0,-0.019896753472735354
1666090182485684890,0.44138655712595215,0.0,0.0,0.0,0.0,-0.020245819323134222
1666090182528389949,0.43712195270927623,0.0,0.0,0.0,0.0,-0.010995574287564275
1666090182528474823,0.44351885933429,0.0,0.0,0.0,0.0,-0.0022689280275926286
1666090182576193678,0.43712195270927623,0.0,0.0,0.0,0.0,-0.0019198621771937623
1666090182576225745,0.4307250460842625,0.0,0.0,0.0,0.0,-0.011519173063162576
1666090182620126850,0.4285927438759245,0.0,0.0,0.0,0.0,-0.013264502315156903
1666090182620148726,0.4328573482926004,0.0,0.0,0.0,0.0,-0.020420352248333655
1666090182664143308,0.42219583725091075,0.0,0.0,0.0,0.0,-0.02181661564992912
1666090182664163796,0.41153432620922104,0.0,0.0,0.0,0.0,0.0012217304763960308
1666090182708361465,0.41153432620922104,0.0,0.0,0.0,0.0,0.020420352248333655
1666090182708401108,0.4072697217925452,0.0,0.0,0.0,0.0,-0.010297442586766544
1666090182708440623,0.41579893062589696,0.0,0.0,0.0,0.0,-0.024085543677521744
1666090182752157418,0.4179312328342349,0.0,0.0,0.0,0.0,-0.004886921905584123
1666090182752186584,0.3966082107508555,0.0,0.0,0.0,0.0,0.0038397243543875246
1666090182766865027,0.4072697217925452,0.0,0.0,0.0,0.0,-0.0024434609527920616
1666090182787965827,0.4072697217925452,0.0,0.0,0.0,0.0,-0.014486232791552934
1666090182828148776,0.3838143975008279,0.0,0.0,0.0,0.0,-0.00942477796076938
1666090182828185627,0.3923436063341797,0.0,0.0,0.0,0.0,-0.004537856055185257
1666090182872126763,0.38807900191750383,0.0,0.0,0.0,0.0,-0.008377580409572781
1666090182872149612,0.38807900191750383,0.0,0.0,0.0,0.0,-0.01117010721276371
1666090182920136039,0.3923436063341797,0.0,0.0,0.0,0.0,-0.01361356816555577
1666090182920154631,0.37741749087581417,0.0,0.0,0.0,0.0,-0.010471975511965976
1666090182964126420,0.37741749087581417,0.0,0.0,0.0,0.0,0.0008726646259971648
1666090182964142237,0.3902113041258417,0.0,0.0,0.0,0.0,-0.009250245035569947
1666090183012120107,0.3838143975008279,0.0,0.0,0.0,0.0,-0.014486232791552934
1666090183012139067,0.38168209529249003,0.0,0.0,0.0,0.0,-0.014137166941154071
1666090183012152772,0.37741749087581417,0.0,0.0,0.0,0.0,-0.01884955592153876
1666090183060231325,0.38168209529249003,0.0,0.0,0.0,0.0,-0.01902408884673819
1666090183060263813,0.23028863850049677,0.0,0.0,0.0,0.0,-0.012740903539558606
1666090183066421220,0.22389173187548297,0.0,0.0,0.0,0.0,-0.006108652381980153
1666090183086788130,0.3006546113756486,0.0,0.0,0.0,0.0,-0.016929693744344998
1666090183132102391,0.2771992870839313,0.0,0.0,0.0,0.0,-0.04921828490624009
1666090183132120496,0.24521475395886227,0.0,0.0,0.0,0.0,-0.0661479786505851
1666090183176090273,0.1876425943337381,0.0,0.0,0.0,0.0,-0.03769911184307752
1666090183176110546,0.17911338550038639,0.0,0.0,0.0,0.0,-0.03316125578789226
1666090183224163305,0.221759429667145,0.0,0.0,0.0,0.0,-0.0973893722612836
1666090183224179558,0.18337798991706222,0.0,0.0,0.0,0.0,-0.1153662635568252
1666090183272065631,0.16205496783368292,0.0,0.0,0.0,0.0,-0.0778416846389471
1666090183272080295,0.11301201704191044,0.0,0.0,0.0,0.0,-0.061086523819801536
1666090183272092242,0.11514431925024839,0.0,0.0,0.0,0.0,-0.11187560505283653
1666090183316248830,0.12580583029193804,0.0,0.0,0.0,0.0,-0.1947787445225672
1666090183316282124,0.09168899495853111,0.0,0.0,0.0,0.0,-0.24382249650360785
1666090183326670272,0.07889518170850353,0.0,0.0,0.0,0.0,-0.21380283336930536
1666090183347481779,0.044778346375096596,0.0,0.0,0.0,0.0,-0.20943951023931953
1666090183395077107,0.051175253000110395,0.0,0.0,0.0,0.0,-0.27035150113392165
1666090183395104256,0.05543985741678625,0.0,0.0,0.0,0.0,-0.3364994797845068
1666090183436192819,0.0703659728751518,0.0,0.0,0.0,0.0,-0.36582101121801147
1666090183436260243,0.06183676404180006,0.0,0.0,0.0,0.0,-0.35604716740684317
1666090183480584852,0.07463057729182765,0.0,0.0,0.0,0.0,-0.37926004645836786
1666090183480668783,0.07249827508348972,0.0,0.0,0.0,0.0,-0.43022366061660217
1666090183524131988,0.07676287950016558,0.0,0.0,0.0,0.0,-0.4698426346368736
1666090183524143811,0.09595359937520698,0.0,0.0,0.0,0.0,-0.47874381382204456
1666090183568109078,0.08955669275019319,0.0,0.0,0.0,0.0,-0.5002113636215749
1666090183568126335,0.08742439054185526,0.0,0.0,0.0,0.0,-0.4960225734167885
1666090183568138745,0.08955669275019319,0.0,0.0,0.0,0.0,-0.48589966375522137
1666090183612317620,0.09168899495853111,0.0,0.0,0.0,0.0,-0.5117305366847374
1666090183612369235,0.10448280820855872,0.0,0.0,0.0,0.0,-0.5284856975038831
1666090183626327663,0.11727662145858632,0.0,0.0,0.0,0.0,-0.5293583621298801
1666090183646949148,0.11727662145858632,0.0,0.0,0.0,0.0,-0.5483824509766184
1666090183692041630,0.11940892366692425,0.0,0.0,0.0,0.0,-0.5398303376418461
1666090183692053109,0.12580583029193804,0.0,0.0,0.0,0.0,-0.5565854984609917
1666090183736220864,0.14499655016697943,0.0,0.0,0.0,0.0,-0.5656612105713622
1666090183736249155,0.14286424795864153,0.0,0.0,0.0,0.0,-0.5384340742402507
1666090183780256476,0.14286424795864153,0.0,0.0,0.0,0.0,-0.5232497097479
1666090183780284266,0.14712885237531736,0.0,0.0,0.0,0.0,-0.4960225734167885
1666090183824241963,0.14499655016697943,0.0,0.0,0.0,0.0,-0.4808382089244378
1666090183824277871,0.16631957225035876,0.0,0.0,0.0,0.0,-0.4869468613064179
1666090183872717966,0.15779036341700706,0.0,0.0,0.0,0.0,-0.4726351614400644
1666090183872739443,0.17058417666703463,0.0,0.0,0.0,0.0,-0.46687557490848314
1666090183872754041,0.1684518744586967,0.0,0.0,0.0,0.0,-0.46914450293607574
1666090183916235147,0.1684518744586967,0.0,0.0,0.0,0.0,-0.47909287967244346
1666090183916255007,0.18337798991706222,0.0,0.0,0.0,0.0,-0.4879940588576146
1666090183927223680,0.19190719875041395,0.0,0.0,0.0,0.0,-0.5044001538263613
1666090183947348319,0.19830410537542775,0.0,0.0,0.0,0.0,-0.4710643651132695
1666090183988266435,0.2004364075837657,0.0,0.0,0.0,0.0,-0.46966810171167406
1666090183988296312,0.19830410537542775,0.0,0.0,0.0,0.0,-0.47368235899126104
1666090184036203928,0.2196271274588071,0.0,0.0,0.0,0.0,-0.4626867847036968
1666090184036224726,0.21536252304213124,0.0,0.0,0.0,0.0,-0.44121923490416654
1666090184084424989,0.221759429667145,0.0,0.0,0.0,0.0,-0.42184608020702946
1666090184084470757,0.2196271274588071,0.0,0.0,0.0,0.0,-0.4146902302738527
1666090184128138262,0.23028863850049677,0.0,0.0,0.0,0.0,-0.3794345793835672
1666090184128154955,0.2409501495421864,0.0,0.0,0.0,0.0,-0.3506366467256608
1666090184128170261,0.24308245175052437,0.0,0.0,0.0,0.0,-0.34225906631608805
1666090184172120936,0.24521475395886227,0.0,0.0,0.0,0.0,-0.32096604944175716
1666090184172137909,0.253743962792214,0.0,0.0,0.0,0.0,-0.3103195410045918
1666090184187417515,0.2516116605838761,0.0,0.0,0.0,0.0,-0.29496064358704166
1666090184206828527,0.26440547383390367,0.0,0.0,0.0,0.0,-0.2834414705238791
1666090184248445958,0.26867007825057954,0.0,0.0,0.0,0.0,-0.2956587752878394
1666090184248470245,0.2814638915006072,0.0,0.0,0.0,0.0,-0.29548424236264
1666090184292125539,0.2814638915006072,0.0,0.0,0.0,0.0,-0.28274333882308134
1666090184292156568,0.27506698487559333,0.0,0.0,0.0,0.0,-0.2846632010002751
1666090184336133469,0.28786079812562093,0.0,0.0,0.0,0.0,-0.2885029253546627
1666090184336144637,0.2963900069589727,0.0,0.0,0.0,0.0,-0.28885199120506155
1666090184380153706,0.2985223091673106,0.0,0.0,0.0,0.0,-0.27838001569309556
1666090184380178280,0.30278691358398646,0.0,0.0,0.0,0.0,-0.26127578902355114
1666090184424369100,0.30491921579232445,0.0,0.0,0.0,0.0,-0.25830872929516074
1666090184424389810,0.32197763345902786,0.0,0.0,0.0,0.0,-0.25830872929516074
1666090184468716894,0.3113161224173382,0.0,0.0,0.0,0.0,-0.22078415037728272
1666090184468774460,0.3262422378757037,0.0,0.0,0.0,0.0,-0.20891591146372127
1666090184468872517,0.33050684229237964,0.0,0.0,0.0,0.0,-0.20036379812894903
1666090184512380640,0.32837454008404166,0.0,0.0,0.0,0.0,-0.20577431881013142
1666090184512426886,0.3454329577507451,0.0,0.0,0.0,0.0,-0.21223203704251045
1666090184526763190,0.34330065554240724,0.0,0.0,0.0,0.0,-0.1970476725501598
1666090184547337883,0.3560944687924348,0.0,0.0,0.0,0.0,-0.19739673840055869
1666090184592135127,0.36249137541744864,0.0,0.0,0.0,0.0,-0.2241002759560719
1666090184592150924,0.35822677100077277,0.0,0.0,0.0,0.0,-0.2509783464367846
1666090184640041656,0.36675597983412445,0.0,0.0,0.0,0.0,-0.2686061718819273
1666090184640058538,0.3731528864591383,0.0,0.0,0.0,0.0,-0.2647664475275398
1666090184684258590,0.38594669970916584,0.0,0.0,0.0,0.0,-0.2907718533822553
1666090184684295490,0.38168209529249003,0.0,0.0,0.0,0.0,-0.3150319299849765
1666090184728244211,0.37954979308415204,0.0,0.0,0.0,0.0,-0.3246312408709453
1666090184728271369,0.3902113041258417,0.0,0.0,0.0,0.0,-0.3279473664497345
1666090184728307551,0.4008728151675314,0.0,0.0,0.0,0.0,-0.3230604445441504
1666090184772215103,0.41366662841755897,0.0,0.0,0.0,0.0,-0.32899456400093113
1666090184772258568,0.40513741958420724,0.0,0.0,0.0,0.0,-0.3401646712136948
1666090184788480003,0.40940202400088316,0.0,0.0,0.0,0.0,-0.3337069529813158
1666090184806850842,0.4179312328342349,0.0,0.0,0.0,0.0,-0.3405137370640937
1666090184848072113,0.42646044166758657,0.0,0.0,0.0,0.0,-0.3511602455012591
1666090184848090198,0.4328573482926004,0.0,0.0,0.0,0.0,-0.33719761148530447
1666090184896625491,0.4392542549176142,0.0,0.0,0.0,0.0,-0.32375857624494814
1666090184896737224,0.4307250460842625,0.0,0.0,0.0,0.0,-0.31747539093776855
1666090184940056552,0.45204806816764176,0.0,0.0,0.0,0.0,-0.3111922056305889
1666090184940073377,0.445651161542628,0.0,0.0,0.0,0.0,-0.28885199120506155
1666090184984370985,0.45204806816764176,0.0,0.0,0.0,0.0,-0.26511551337793865
1666090184984412649,0.45844497479265556,0.0,0.0,0.0,0.0,-0.2638937829015426
1666090185028248725,0.45844497479265556,0.0,0.0,0.0,0.0,-0.266860842629933
1666090185028280721,0.4733710902510211,0.0,0.0,0.0,0.0,-0.2645919146023404
1666090185028302480,0.4755033924593591,0.0,0.0,0.0,0.0,-0.26790804018112957
1666090185072216882,0.4819002990843728,0.0,0.0,0.0,0.0,-0.27087509990951997
1666090185072237295,0.4819002990843728,0.0,0.0,0.0,0.0,-0.27838001569309556
1666090185089583427,0.49256181012606254,0.0,0.0,0.0,0.0,-0.2630211182755455
1666090185107517599,0.49469411233440047,0.0,0.0,0.0,0.0,-0.26773350725593015
1666090185148905932,0.49469411233440047,0.0,0.0,0.0,0.0,-0.2694788365079245
1666090185192184222,0.5096202277927661,0.0,0.0,0.0,0.0,-0.25603980126756815
1666090185192400193,0.5181494366261178,0.0,0.0,0.0,0.0,-0.2700024352835228
1666090185192410739,0.5138848322094418,0.0,0.0,0.0,0.0,-0.26738444140553125
1666090185236151799,0.5181494366261178,0.0,0.0,0.0,0.0,-0.28361600344907856
1666090185236175114,0.5245463432511316,0.0,0.0,0.0,0.0,-0.29042278753185646
1666090185248162151,0.5202817388344556,0.0,0.0,0.0,0.0,-0.28885199120506155
1666090185267915228,0.5224140410427935,0.0,0.0,0.0,0.0,-0.29338984726024675
1666090185312221852,0.5224140410427935,0.0,0.0,0.0,0.0,-0.3029891581462156
1666090185312247063,0.5352078542928211,0.0,0.0,0.0,0.0,-0.30927234345339516
1666090185356703917,0.5437370631261729,0.0,0.0,0.0,0.0,-0.30037116426822413
1666090185356734041,0.5416047609178349,0.0,0.0,0.0,0.0,-0.300720230118623
1666090185404178415,0.5352078542928211,0.0,0.0,0.0,0.0,-0.3110176727053895
1666090185404216728,0.5352078542928211,0.0,0.0,0.0,0.0,-0.31433379828417873
1666090185448089888,0.5480016675428488,0.0,0.0,0.0,0.0,-0.3101450080793923
1666090185448105134,0.5650600852095522,0.0,0.0,0.0,0.0,-0.30141836181942067
1666090185448110358,0.5650600852095522,0.0,0.0,0.0,0.0,-0.30927234345339516
1666090185496420804,0.5671923874178901,0.0,0.0,0.0,0.0,-0.31293753488258325
1666090185496498167,0.5757215962512419,0.0,0.0,0.0,0.0,-0.28204520712228365
1666090185509859055,0.5863831072929316,0.0,0.0,0.0,0.0,-0.2724458962363148
1666090185527965631,0.5842508050845936,0.0,0.0,0.0,0.0,-0.22008601867648495
1666090185572372772,0.5885154095012695,0.0,0.0,0.0,0.0,-0.2059488517353309
1666090185572410584,0.5863831072929316,0.0,0.0,0.0,0.0,-0.19303341527057283
1666090185616194093,0.5927800139179454,0.0,0.0,0.0,0.0,-0.13578661580515883
1666090185616224462,0.6013092227512972,0.0,0.0,0.0,0.0,-0.11187560505283653
1666090185660250908,0.6141030360013247,0.0,0.0,0.0,0.0,-0.07295476273336296
1666090185660275965,0.6141030360013247,0.0,0.0,0.0,0.0,-0.023387411976724018
1666090185708103611,0.6098384315846489,0.0,0.0,0.0,0.0,-0.008028514559173916
1666090185708128294,0.6098384315846489,0.0,0.0,0.0,0.0,-0.016929693744344998
1666090185708147128,0.6268968492513523,0.0,0.0,0.0,0.0,0.0019198621771937623
1666090185752184561,0.6290291514596902,0.0,0.0,0.0,0.0,0.018675022996339326
1666090185752193177,0.635426058084704,0.0,0.0,0.0,0.0,0.011519173063162576
1666090185767319151,0.6311614536680282,0.0,0.0,0.0,0.0,-0.0143116998663535
1666090185788503054,0.6418229647097178,0.0,0.0,0.0,0.0,-0.0013962634015954637
1666090185836086511,0.6503521735430695,0.0,0.0,0.0,0.0,0.006632251157578452
1666090185836098691,0.6546167779597455,0.0,0.0,0.0,0.0,-0.008203047484373348
1666090185880495425,0.6524844757514074,0.0,0.0,0.0,0.0,-0.004363323129985824
1666090185880521076,0.6503521735430695,0.0,0.0,0.0,0.0,0.006981317007977318
1666090185928155696,0.6567490801680833,0.0,0.0,0.0,0.0,0.002617993877991494
1666090185928184438,0.667410591209773,0.0,0.0,0.0,0.0,0.007679448708775049
1666090185928194089,0.667410591209773,0.0,0.0,0.0,0.0,0.006806784082777885
1666090185972160084,0.6780721022514627,0.0,0.0,0.0,0.0,0.01832595714594046
1666090185972175233,0.6759398000431247,0.0,0.0,0.0,0.0,0.016755160819145562
1666090185989015835,0.6780721022514627,0.0,0.0,0.0,0.0,-0.008552113334772213
1666090186009271452,0.6738074978347868,0.0,0.0,0.0,0.0,0.0024434609527920616
1666090186052317661,0.671675195626449,0.0,0.0,0.0,0.0,0.006283185307179587
1666090186052337275,0.6844690088764765,0.0,0.0,0.0,0.0,-0.0012217304763960308
1666090186096175111,0.6802044044598006,0.0,0.0,0.0,0.0,-0.007504915783575617
1666090186096218944,0.6844690088764765,0.0,0.0,0.0,0.0,-0.003490658503988659
1666090186140153725,0.6780721022514627,0.0,0.0,0.0,0.0,-0.0031415926535897933
1666090186140180656,0.6929982177098283,0.0,0.0,0.0,0.0,-0.00645771823237902
1666090186184153539,0.6844690088764765,0.0,0.0,0.0,0.0,0.007330382858376183
1666090186184187298,0.6802044044598006,0.0,0.0,0.0,0.0,0.014137166941154071
1666090186228212378,0.6908659155014902,0.0,0.0,0.0,0.0,0.008726646259971648
1666090186228222337,0.6929982177098283,0.0,0.0,0.0,0.0,0.009075712110370514
1666090186272431233,0.6951305199181661,0.0,0.0,0.0,0.0,0.002967059728390361
1666090186272471172,0.70152742654318,0.0,0.0,0.0,0.0,0.008552113334772213
1666090186272535368,0.697262822126504,0.0,0.0,0.0,0.0,0.007853981633974483
1666090186316111619,0.697262822126504,0.0,0.0,0.0,0.0,0.0027925268031909274
1666090186316138305,0.697262822126504,0.0,0.0,0.0,0.0,-0.0006981317007977319
1666090186330750783,0.6887336132931523,0.0,0.0,0.0,0.0,-0.005235987755982988
1666090186348346805,0.6993951243348421,0.0,0.0,0.0,0.0,0.004886921905584123
1666090186392088362,0.70152742654318,0.0,0.0,0.0,0.0,0.0
1666090186392104331,0.6993951243348421,0.0,0.0,0.0,0.0,-0.008377580409572781
1666090186436301210,0.6802044044598006,0.0,0.0,0.0,0.0,-0.0010471975511965976
1666090186436384174,0.6610136845847593,0.0,0.0,0.0,0.0,0.004537856055185257
1666090186480503140,0.669542893418111,0.0,0.0,0.0,0.0,0.0005235987755982988
1666090186480565486,0.6908659155014902,0.0,0.0,0.0,0.0,-0.0008726646259971648
1666090186524780543,0.6802044044598006,0.0,0.0,0.0,0.0,-0.0036651914291880917
1666090186524824152,0.6524844757514074,0.0,0.0,0.0,0.0,-0.013439035240356337
1666090186568444539,0.635426058084704,0.0,0.0,0.0,0.0,-0.005585053606381855
1666090186568511147,0.6610136845847593,0.0,0.0,0.0,0.0,-0.0017453292519943296
1666090186612258130,0.6738074978347868,0.0,0.0,0.0,0.0,-0.010297442586766544
1666090186612277759,0.6567490801680833,0.0,0.0,0.0,0.0,-0.0012217304763960308
1666090186612297203,0.6204999426263385,0.0,0.0,0.0,0.0,-0.0010471975511965976
1666090186658430214,0.5970446183346212,0.0,0.0,0.0,0.0,0.012217304763960306
