%time,field.linear.x,field.linear.y,field.linear.z,field.angular.x,field.angular.y,field.angular.z
1666090179852161687,0.015,0.0,0.0,0.0,0.0,-0.04672584929135243
1666090179899954876,0.03,0.0,0.0,0.0,0.0,-0.09345169858270486
1666090179950568987,0.045,0.0,0.0,0.0,0.0,-0.14368065338974173
1666090180000098709,0.06,0.0,0.0,0.0,0.0,-0.19390960819677863
1666090180050093032,0.075,0.0,0.0,0.0,0.0,-0.24413856300381553
1666090180099975853,0.09,0.0,0.0,0.0,0.0,-0.2901426745895558
1666090180150459147,0.105,0.0,0.0,0.0,0.0,-0.33614678617529603
1666090180200062657,0.12,0.0,0.0,0.0,0.0,-0.3807752586893207
1666090180250002227,0.135,0.0,0.0,0.0,0.0,-0.4254037312033454
1666090180301739176,0.15000000000000002,0.0,0.0,0.0,0.0,-0.4700322037173701
1666090180350097786,0.16500000000000004,0.0,0.0,0.0,0.0,-0.5139089225656911
1666090180400287328,0.18000000000000005,0.0,0.0,0.0,0.0,-0.5580286489770041
1666090180450188996,0.19500000000000006,0.0,0.0,0.0,0.0,-0.6021483753883171
1666090180500262127,0.21000000000000008,0.0,0.0,0.0,0.0,-0.6369062126111675
1666090180550139401,0.2250000000000001,0.0,0.0,0.0,0.0,-0.671664049834018
1666090180600047448,0.2400000000000001,0.0,0.0,0.0,0.0,-0.7064218870568684
1666090180652576023,0.2550000000000001,0.0,0.0,0.0,0.0,-0.7550127025151914
1666090180699975439,0.27000000000000013,0.0,0.0,0.0,0.0,-0.806072832666397
1666090180750330140,0.28500000000000014,0.0,0.0,0.0,0.0,-0.8578075674070613
1666090180801224250,0.30000000000000016,0.0,0.0,0.0,0.0,-0.9095423021477257
1666090180850041156,0.31500000000000017,0.0,0.0,0.0,0.0,-0.9617577396100049
1666090180900525653,0.3300000000000002,0.0,0.0,0.0,0.0,-1.0139731770722842
1666090180950160109,0.31469972315178035,0.0,0.0,0.0,0.0,-1.1139731770722843
1666090181000218603,0.2993994463035605,0.0,0.0,0.0,0.0,-1.2139731770722844
1666090181050124454,0.31439944630356054,0.0,0.0,0.0,0.0,-1.2148417347393032
1666090181100439806,0.32939944630356055,0.0,0.0,0.0,0.0,-1.215708221654781
1666090181152288984,0.34439944630356056,0.0,0.0,0.0,0.0,-1.2165747085702587
1666090181199960321,0.3593994463035606,0.0,0.0,0.0,0.0,-1.246268819634164
1666090181251394402,0.3743994463035606,0.0,0.0,0.0,0.0,-1.2759629306980693
1666090181300253562,0.3893994463035606,0.0,0.0,0.0,0.0,-1.2631907769764295
1666090181350299143,0.4043994463035606,0.0,0.0,0.0,0.0,-1.2518648760743718
1666090181399963402,0.41939944630356063,0.0,0.0,0.0,0.0,-1.2405389751723142
1666090181450052093,0.43439944630356064,0.0,0.0,0.0,0.0,-1.1648894915375605
1666090181499950259,0.44939944630356066,0.0,0.0,0.0,0.0,-1.0892400079028068
1666090181550177676,0.46439944630356067,0.0,0.0,0.0,0.0,-1.0505912338586383
1666090181600240529,0.4647215008735657,0.0,0.0,0.0,0.0,-1.0471975511965983
1666090181650323109,0.4750075042247772,0.0,0.0,0.0,0.0,-1.0471975511965983
1666090181699957192,0.4750075042247772,0.0,0.0,0.0,0.0,-1.0471975511965983
1666090181750380192,0.4865643680095672,0.0,0.0,0.0,0.0,-0.8726646259971653
1666090181799970305,0.4085994362831116,0.0,0.0,0.0,0.0,-0.3490658503988664
1666090181850301118,0.4085994362831116,0.0,0.0,0.0,0.0,-0.3490658503988664
1666090181900059755,0.4235994362831116,0.0,0.0,0.0,0.0,-0.3970340403835343
1666090181950139438,0.4385994362831116,0.0,0.0,0.0,0.0,-0.3711185729499739
1666090181999905796,0.4535994362831116,0.0,0.0,0.0,0.0,-0.34520310551641353
1666090182050226895,0.4685994362831116,0.0,0.0,0.0,0.0,-0.15324145361370267
1666090182100715330,0.48359943628311164,0.0,0.0,0.0,0.0,-0.1564404628105008
1666090182150147905,0.49859943628311165,0.0,0.0,0.0,0.0,-0.15963947200729892
1666090182199920759,0.5135994362831117,0.0,0.0,0.0,0.0,-0.15957857429280498
1666090182251124552,0.5285994362831117,0.0,0.0,0.0,0.0,-0.15951767657831106
1666090182300220024,0.5299703478813171,0.0,0.0,0.0,0.0,-0.1563698947429657
1666090182350127704,0.5299703478813171,0.0,0.0,0.0,0.0,-0.1563698947429657
1666090182400089549,0.5050219297409058,0.0,0.0,0.0,0.0,-0.149954691529274
1666090182451683047,0.5050219297409058,0.0,0.0,0.0,0.0,-0.149954691529274
1666090182500906061,0.4934464991092682,0.0,0.0,0.0,0.0,-0.15049806237220764
1666090182550652505,0.49351757764816284,0.0,0.0,0.0,0.0,-0.150484099984169
1666090182600029767,0.47684797644615173,0.0,0.0,0.0,0.0,-0.15278872847557068
1666090182650179437,0.47684797644615173,0.0,0.0,0.0,0.0,-0.15278872847557068
1666090182700551722,0.46631023287773127,0.0,0.0,0.0,0.0,-0.1582193672657013
1666090182750415227,0.44894322752952576,0.0,0.0,0.0,0.0,-0.1632879227399826
1666090182800052571,0.44894322752952576,0.0,0.0,0.0,0.0,-0.1632879227399826
1666090182850499788,0.43818676471710205,0.0,0.0,0.0,0.0,-0.1696067750453949
1666090182900107495,0.43818676471710205,0.0,0.0,0.0,0.0,-0.1696067750453949
1666090182950237048,0.43818676471710205,0.0,0.0,0.0,0.0,-0.1696067750453949
1666090183000181562,0.28818676471710203,0.0,0.0,0.0,0.0,-0.0814944628079926
1666090183050326858,0.2431019583523565,0.0,0.0,0.0,0.0,-0.18149446280799258
1666090183103225613,0.2023972552629363,0.0,0.0,0.0,0.0,-0.2814944628079926
1666090183150248503,0.1616925521735161,0.0,0.0,0.0,0.0,-0.3814944628079926
1666090183200004323,0.1209878490840959,0.0,0.0,0.0,0.0,-0.4814944628079926
1666090183250935719,0.08956043905679376,0.0,0.0,0.0,0.0,-0.5814944628079926
1666090183300097359,0.05813302902949161,0.0,0.0,0.0,0.0,-0.6814944628079925
1666090183350027341,0.07313302902949162,0.0,0.0,0.0,0.0,-0.7081181208498332
1666090183400069282,0.08813302902949162,0.0,0.0,0.0,0.0,-0.7345986849874376
1666090183453397279,0.10313302902949162,0.0,0.0,0.0,0.0,-0.7603631067551044
1666090183500081444,0.11813302902949162,0.0,0.0,0.0,0.0,-0.7861275285227712
1666090183550571524,0.13313302902949162,0.0,0.0,0.0,0.0,-0.8109484113868456
1666090183600504478,0.1481330290294916,0.0,0.0,0.0,0.0,-0.7800836661090161
1666090183650050264,0.16313302902949162,0.0,0.0,0.0,0.0,-0.7492189208311867
1666090183699867218,0.17813302902949163,0.0,0.0,0.0,0.0,-0.7183541755533572
1666090183752439649,0.19313302902949164,0.0,0.0,0.0,0.0,-0.694106027186618
1666090183800030085,0.20813302902949166,0.0,0.0,0.0,0.0,-0.6698578788198787
1666090183850445134,0.22313302902949167,0.0,0.0,0.0,0.0,-0.6486828010742341
1666090183900115495,0.23813302902949168,0.0,0.0,0.0,0.0,-0.6273812979676612
1666090183955650676,0.2531330290294917,0.0,0.0,0.0,0.0,-0.5915129053466661
1666090184000031279,0.2681330290294917,0.0,0.0,0.0,0.0,-0.555644512725671
1666090184050119191,0.2831330290294917,0.0,0.0,0.0,0.0,-0.5197761201046758
1666090184100708729,0.29813302902949174,0.0,0.0,0.0,0.0,-0.519952843098597
1666090184150312757,0.31313302902949175,0.0,0.0,0.0,0.0,-0.5201295660925183
1666090184199947104,0.32813302902949176,0.0,0.0,0.0,0.0,-0.5203062890864395
1666090184255192531,0.3431330290294918,0.0,0.0,0.0,0.0,-0.5013249560868318
1666090184300101698,0.3581330290294918,0.0,0.0,0.0,0.0,-0.5092849936938946
1666090184350331568,0.3731330290294918,0.0,0.0,0.0,0.0,-0.5172450313009573
1666090184400042726,0.3881330290294918,0.0,0.0,0.0,0.0,-0.524609709998099
1666090184450051997,0.40313302902949183,0.0,0.0,0.0,0.0,-0.5319743886952406
1666090184500081583,0.41813302902949184,0.0,0.0,0.0,0.0,-0.5388721726489278
1666090184550513643,0.43313302902949186,0.0,0.0,0.0,0.0,-0.5453360717819216
1666090184600156443,0.44813302902949187,0.0,0.0,0.0,0.0,-0.5517999709149153
1666090184650629323,0.4631330290294919,0.0,0.0,0.0,0.0,-0.558263870047909
1666090184700058905,0.4781330290294919,0.0,0.0,0.0,0.0,-0.5655937899593131
1666090184750226465,0.4931330290294919,0.0,0.0,0.0,0.0,-0.5729237098707172
1666090184800069817,0.5081330290294919,0.0,0.0,0.0,0.0,-0.5790440161974796
1666090184850030468,0.5231330290294919,0.0,0.0,0.0,0.0,-0.585164322524242
1666090184901628320,0.5381330290294919,0.0,0.0,0.0,0.0,-0.5912846288510044
1666090184950136796,0.5531330290294919,0.0,0.0,0.0,0.0,-0.5874075159985214
1666090185000387650,0.5681330290294919,0.0,0.0,0.0,0.0,-0.5835304031460382
1666090185050142519,0.5831330290294919,0.0,0.0,0.0,0.0,-0.5796532902935551
1666090185100552602,0.598133029029492,0.0,0.0,0.0,0.0,-0.575776177441072
1666090185153991081,0.613133029029492,0.0,0.0,0.0,0.0,-0.5718990645885889
1666090185199921103,0.628133029029492,0.0,0.0,0.0,0.0,-0.5680219517361058
1666090185250081578,0.643133029029492,0.0,0.0,0.0,0.0,-0.5641448388836227
1666090185300160428,0.658133029029492,0.0,0.0,0.0,0.0,-0.5602677260311396
1666090185349958501,0.673133029029492,0.0,0.0,0.0,0.0,-0.5379367485470099
1666090185399956275,0.688133029029492,0.0,0.0,0.0,0.0,-0.5156057710628802
1666090185453025520,0.703133029029492,0.0,0.0,0.0,0.0,-0.4932747935787505
1666090185499943309,0.718133029029492,0.0,0.0,0.0,0.0,-0.4709438160946207
1666090185550182673,0.7331330290294921,0.0,0.0,0.0,0.0,-0.44861283861049095
1666090185600764710,0.7481330290294921,0.0,0.0,0.0,0.0,-0.3871295884872106
1666090185650161995,0.7631330290294921,0.0,0.0,0.0,0.0,-0.3256463383639302
1666090185700131772,0.7781330290294921,0.0,0.0,0.0,0.0,-0.2641630882406498
1666090185750071481,0.7931330290294921,0.0,0.0,0.0,0.0,-0.20267983811736937
1666090185799948674,0.7999999999999999,0.0,0.0,0.0,0.0,-0.07255129516124725
1666090185849917862,0.7999999999999999,0.0,0.0,0.0,0.0,-0.07255129516124725
1666090185900508252,0.7999999999999999,0.0,0.0,0.0,0.0,-4.996003610813204e-16
1666090185950030528,0.7999999999999999,0.0,0.0,0.0,0.0,-0.037251684814691544
1666090186000028260,0.7999999999999999,0.0,0.0,0.0,0.0,-0.0372551754117012
1666090186050165764,0.7999999999999999,0.0,0.0,0.0,0.0,-0.031278423964977264
1666090186100618607,0.7999999999999999,0.0,0.0,0.0,0.0,-0.031278423964977264
1666090186150043658,0.7999999999999999,0.0,0.0,0.0,0.0,-4.996003610813204e-16
1666090186200008215,0.7999999999999999,0.0,0.0,0.0,0.0,-4.996003610813204e-16
1666090186250192847,0.7999999999999999,0.0,0.0,0.0,0.0,-4.996003610813204e-16
1666090186300397785,0.7999999999999999,0.0,0.0,0.0,0.0,-4.996003610813204e-16
1666090186350106590,0.7505403161048889,0.0,0.0,0.0,0.0,-4.996003610813204e-16
1666090186400530309,0.7505403161048889,0.0,0.0,0.0,0.0,-4.996003610813204e-16
1666090186450043438,0.7170321941375731,0.0,0.0,0.0,0.0,-4.996003610813204e-16
1666090186501834109,0.7170321941375731,0.0,0.0,0.0,0.0,-4.996003610813204e-16
1666090186549932067,0.6742623350267078,0.0,0.0,0.0,0.0,0.0999999999999995
1666090186601323476,0.6433798074722289,0.0,0.0,0.0,0.0,0.17453292519943245
1666090186650800774,0.6433798074722289,0.0,0.0,0.0,0.0,0.17453292519943245
1666090186700115959,0.6059386134147643,0.0,0.0,0.0,0.0,0.0017527377931401134
1666090186749977089,0.6059386134147643,0.0,0.0,0.0,0.0,0.0017527377931401134
1666090186800459369,0.5609900054126293,0.0,0.0,0.0,0.0,0.10175273779314012
1666090186849939396,0.5282763242721558,0.0,0.0,0.0,0.0,0.17453292519943245
1666090186900550332,0.48923695087432856,0.0,0.0,0.0,0.0,0.17453292519943245
1666090186950014355,0.4904452562332153,0.0,0.0,0.0,0.0,0.17453292519943245
1666090187000141096,0.49972623586654663,0.0,0.0,0.0,0.0,0.12349431216716766
1666090187050424545,0.47362285852432245,0.0,0.0,0.0,0.0,0.1285734474658966
1666090187099978111,0.47362285852432245,0.0,0.0,0.0,0.0,0.1285734474658966
1666090187149904985,0.47362285852432245,0.0,0.0,0.0,0.0,0.1285734474658966
1666090187202370652,0.39246091246604914,0.0,0.0,0.0,0.0,0.015237787738442421
1666090187250058533,0.39246091246604914,0.0,0.0,0.0,0.0,0.015237787738442421
1666090187300181278,0.35597285628318787,0.0,0.0,0.0,0.0,0.018383651971817017
1666090187350284883,0.35597285628318787,0.0,0.0,0.0,0.0,0.018383651971817017
1666090187400290676,0.3532526195049286,0.0,0.0,0.0,0.0,0.023782741278409958
1666090187450855553,0.35746401548385615,0.0,0.0,0.0,0.0,0.03152807801961899
1666090187499956492,0.35746401548385615,0.0,0.0,0.0,0.0,0.03152807801961899
1666090187550433378,0.37246401548385616,0.0,0.0,0.0,0.0,0.054042424729443705
1666090187601026441,0.3874640154838562,0.0,0.0,0.0,0.0,0.07655677143926842
1666090187649984515,0.37147998809814453,0.0,0.0,0.0,0.0,0.056955404579639435
1666090187700107138,0.37147998809814453,0.0,0.0,0.0,0.0,0.056955404579639435
1666090187750613660,0.3785387873649597,0.0,0.0,0.0,0.0,0.06718526035547256
1666090187800016152,0.39353878736495973,0.0,0.0,0.0,0.0,0.08589137557305679
1666090187849928942,0.40853878736495974,0.0,0.0,0.0,0.0,0.10459749079064101
1666090187900242074,0.42353878736495976,0.0,0.0,0.0,0.0,0.12330360600822524
1666090187950745400,0.39312636852264404,0.0,0.0,0.0,0.0,0.09084488451480865
1666090188000202759,0.40776094794273376,0.0,0.0,0.0,0.0,0.10535044223070145
1666090188049915542,0.40776094794273376,0.0,0.0,0.0,0.0,0.10535044223070145
1666090188100449193,0.4227609479427338,0.0,0.0,0.0,0.0,0.11957757651593846
1666090188150986344,0.4234609305858612,0.0,0.0,0.0,0.0,0.12024149298667908
1666090188200517296,0.4384609305858612,0.0,0.0,0.0,0.0,0.1349471735050713
1666090188249979858,0.45346093058586123,0.0,0.0,0.0,0.0,0.1496528540234635
1666090188300071179,0.46846093058586125,0.0,0.0,0.0,0.0,0.16435853454185573
1666090188350601426,0.48346093058586126,0.0,0.0,0.0,0.0,0.19266138159395765
1666090188400312396,0.4984609305858613,0.0,0.0,0.0,0.0,0.22111059786547774
1666090188449941679,0.5134609305858613,0.0,0.0,0.0,0.0,0.22889637393585366
1666090188500380534,0.5154725898925219,0.0,0.0,0.0,0.0,0.3288963739358537
1666090188550719351,0.5174973151949082,0.0,0.0,0.0,0.0,0.42889637393585367
1666090188600095889,0.5223142706153493,0.0,0.0,0.0,0.0,0.5288963739358536
1666090188649977792,0.5271312260357904,0.0,0.0,0.0,0.0,0.6288963739358536
1666090188700085137,0.5414666789372993,0.0,0.0,0.0,0.0,0.7288963739358536
1666090188750003789,0.555802131838808,0.0,0.0,0.0,0.0,0.8288963739358536
1666090188800966943,0.570802131838808,0.0,0.0,0.0,0.0,0.8706536803941434
1666090188850522079,0.5711690783500671,0.0,0.0,0.0,0.0,0.8726646259971643
1666090188900307626,0.5785231771803657,0.0,0.0,0.0,0.0,0.9726646259971643
1666090188950011623,0.5840044021606445,0.0,0.0,0.0,0.0,1.0471975511965972
1666090189000021885,0.5938302278518677,0.0,0.0,0.0,0.0,1.0471975511965972
1666090189050002367,0.6002638339996337,0.0,0.0,0.0,0.0,1.0471975511965972
1666090189100076582,0.6002638339996337,0.0,0.0,0.0,0.0,1.0471975511965972
1666090189150066239,0.6002638339996337,0.0,0.0,0.0,0.0,1.0471975511965972
1666090189200434511,0.6027635931968689,0.0,0.0,0.0,0.0,1.0471975511965972
1666090189250154640,0.6051198244094849,0.0,0.0,0.0,0.0,1.0471975511965972
1666090189304414546,0.6051198244094849,0.0,0.0,0.0,0.0,1.0471975511965972
1666090189350061779,0.6052514910697937,0.0,0.0,0.0,0.0,1.0471975511965972
1666090189399886522,0.6202514910697937,0.0,0.0,0.0,0.0,1.0471975511965972
1666090189453027457,0.6352514910697937,0.0,0.0,0.0,0.0,1.0471975511965972
1666090189500481334,0.6172552108764647,0.0,0.0,0.0,0.0,1.0471975511965972
1666090189550241751,0.6172552108764647,0.0,0.0,0.0,0.0,1.0471975511965972
1666090189600106830,0.6172552108764647,0.0,0.0,0.0,0.0,1.0471975511965972
1666090189650474696,0.6309859752655029,0.0,0.0,0.0,0.0,1.0471975511965972
1666090189699915353,0.6459859752655029,0.0,0.0,0.0,0.0,1.0471975511965972
1666090189750896818,0.648860991001129,0.0,0.0,0.0,0.0,1.0471975511965972
1666090189800972840,0.663860991001129,0.0,0.0,0.0,0.0,1.0471975511965972
1666090189850922051,0.6788609910011291,0.0,0.0,0.0,0.0,1.0471975511965972
1666090189900174920,0.6921018362045287,0.0,0.0,0.0,0.0,1.0471975511965972
1666090189950472013,0.5421018362045287,0.0,0.0,0.0,0.0,0.9587670239490118
1666090190000030751,0.39210183620452865,0.0,0.0,0.0,0.0,0.8703364967014265
1666090190050117653,0.24210183620452863,0.0,0.0,0.0,0.0,0.7819059694538412
1666090190103205351,0.1,0.0,0.0,0.0,0.0,0.6981317007977313
1666090190150555538,0.1,0.0,0.0,0.0,0.0,0.6981317007977313
1666090190200485235,0.1,0.0,0.0,0.0,0.0,0.6981317007977313
1666090190250149395,0.1,0.0,0.0,0.0,0.0,0.6981317007977313
1666090190300067629,0.1,0.0,0.0,0.0,0.0,0.6981317007977313
1666090190352533397,0.1,0.0,0.0,0.0,0.0,0.6981317007977313
1666090190400052643,0.1,0.0,0.0,0.0,0.0,0.5235987755982984
1666090190450960545,0.1,0.0,0.0,0.0,0.0,0.5235987755982984
1666090190500112159,0.1,0.0,0.0,0.0,0.0,0.5235987755982984
1666090190550109069,0.1,0.0,0.0,0.0,0.0,0.5235987755982984
1666090190600064727,0.1,0.0,0.0,0.0,0.0,0.5235987755982984
1666090190650162015,0.1,0.0,0.0,0.0,0.0,0.5235987755982984
1666090190700564900,0.1,0.0,0.0,0.0,0.0,0.5235987755982984
1666090190750017203,0.1,0.0,0.0,0.0,0.0,0.3490658503988654
1666090190800344090,0.1,0.0,0.0,0.0,0.0,0.3490658503988654
1666090190849989516,0.1,0.0,0.0,0.0,0.0,0.3490658503988654
1666090190900425632,0.1,0.0,0.0,0.0,0.0,0.3490658503988654
1666090190949987599,0.1,0.0,0.0,0.0,0.0,0.3490658503988654
1666090191000786727,0.1,0.0,0.0,0.0,0.0,0.17453292519943245
1666090191050078414,0.1,0.0,0.0,0.0,0.0,0.17453292519943245
1666090191100445564,0.1,0.0,0.0,0.0,0.0,0.17453292519943245
1666090191150224386,0.1,0.0,0.0,0.0,0.0,0.17453292519943245
1666090191200090156,0.1,0.0,0.0,0.0,0.0,0.17453292519943245
1666090191250062261,0.1,0.0,0.0,0.0,0.0,0.17453292519943245
1666090191300268113,0.1,0.0,0.0,0.0,0.0,0.17453292519943245
1666090191350875059,0.1,0.0,0.0,0.0,0.0,0.17453292519943245
1666090191399945750,0.1,0.0,0.0,0.0,0.0,0.17453292519943245
1666090191450216355,0.1,0.0,0.0,0.0,0.0,0.17453292519943245
1666090191500270890,0.1,0.0,0.0,0.0,0.0,0.08801183104515076
1666090191550725038,0.1,0.0,0.0,0.0,0.0,0.08793852478265762
1666090191600126611,0.1,0.0,0.0,0.0,0.0,0.08793852478265762
1666090191650317111,0.1,0.0,0.0,0.0,0.0,-4.996003610813204e-16
1666090191700284275,0.1,0.0,0.0,0.0,0.0,-4.996003610813204e-16
1666090191750031787,0.1,0.0,0.0,0.0,0.0,-4.996003610813204e-16
1666090191800097100,0.1,0.0,0.0,0.0,0.0,-4.996003610813204e-16
1666090191850070410,0.1,0.0,0.0,0.0,0.0,-4.996003610813204e-16
1666090191900304813,0.1,0.0,0.0,0.0,0.0,0.08028006553649902
1666090191950067294,0.1,0.0,0.0,0.0,0.0,0.08028006553649902
1666090192000433724,0.1,0.0,0.0,0.0,0.0,0.17453292519943245
1666090192049920216,0.1,0.0,0.0,0.0,0.0,0.17453292519943245
1666090192100527025,0.1,0.0,0.0,0.0,0.0,0.17453292519943245
1666090192150106361,0.1,0.0,0.0,0.0,0.0,0.17453292519943245
1666090192199975384,0.1,0.0,0.0,0.0,0.0,0.17453292519943245
1666090192250123217,0.1,0.0,0.0,0.0,0.0,0.17453292519943245
1666090192300122254,0.1,0.0,0.0,0.0,0.0,0.17453292519943245
1666090192350627729,0.1,0.0,0.0,0.0,0.0,0.27453292519943245
1666090192400133092,0.1,0.0,0.0,0.0,0.0,0.3745329251994325
1666090192449976823,0.1,0.0,0.0,0.0,0.0,0.47453292519943246
1666090192500203826,0.1,0.0,0.0,0.0,0.0,0.5745329251994324
1666090192550499899,0.1,0.0,0.0,0.0,0.0,0.6745329251994324
1666090192600173461,0.1,0.0,0.0,0.0,0.0,0.7745329251994324
1666090192650194296,0.1,0.0,0.0,0.0,0.0,0.8745329251994324
1666090192699908308,0.1,0.0,0.0,0.0,0.0,0.9745329251994324
1666090192750086733,0.0,0.0,0.0,0.0,0.0,0.0
1666090192800146925,0.0,0.0,0.0,0.0,0.0,0.0
1666090192849986515,0.0,0.0,0.0,0.0,0.0,0.0
1666090192900080502,0.0,0.0,0.0,0.0,0.0,0.0
1666090192949918263,0.0,0.0,0.0,0.0,0.0,0.0
1666090193001375977,0.0,0.0,0.0,0.0,0.0,0.0
1666090193050456495,0.0,0.0,0.0,0.0,0.0,0.0
1666090193100118206,0.0,0.0,0.0,0.0,0.0,0.0
1666090193150061264,0.0,0.0,0.0,0.0,0.0,0.0
1666090193199915253,0.0,0.0,0.0,0.0,0.0,0.0
1666090193249997050,0.0,0.0,0.0,0.0,0.0,0.0
1666090193300734247,0.0,0.0,0.0,0.0,0.0,0.0
1666090193349978269,0.0,0.0,0.0,0.0,0.0,0.0
1666090193399997763,0.0,0.0,0.0,0.0,0.0,0.0
1666090193455048496,0.0,0.0,0.0,0.0,0.0,0.0
1666090193500541241,0.0,0.0,0.0,0.0,0.0,0.0
1666090193550112285,0.0,0.0,0.0,0.0,0.0,0.0
1666090193600437368,0.0,0.0,0.0,0.0,0.0,0.0
1666090193649968815,0.0,0.0,0.0,0.0,0.0,0.0
1666090193700017930,0.0,0.0,0.0,0.0,0.0,0.0
1666090193750121031,0.0,0.0,0.0,0.0,0.0,0.0
1666090193800277495,0.0,0.0,0.0,0.0,0.0,0.0
1666090193849945333,0.0,0.0,0.0,0.0,0.0,0.0
1666090193900493793,0.0,0.0,0.0,0.0,0.0,0.0
1666090193950401772,0.0,0.0,0.0,0.0,0.0,0.0
1666090194000372674,0.0,0.0,0.0,0.0,0.0,0.0
1666090194050181279,0.0,0.0,0.0,0.0,0.0,0.0
1666090194100838375,0.0,0.0,0.0,0.0,0.0,0.0
1666090194150588889,0.0,0.0,0.0,0.0,0.0,0.0
1666090194200209887,0.0,0.0,0.0,0.0,0.0,-4.996003610813204e-16
1666090194249947213,0.0,0.0,0.0,0.0,0.0,-4.996003610813204e-16
1666090194299942589,0.0,0.0,0.0,0.0,0.0,-4.996003610813204e-16
1666090194350157891,0.0,0.0,0.0,0.0,0.0,-4.996003610813204e-16
1666090194401807131,0.0,0.0,0.0,0.0,0.0,-4.996003610813204e-16
1666090194450011118,0.0,0.0,0.0,0.0,0.0,0.0
1666090194500694596,0.0,0.0,0.0,0.0,0.0,0.0
1666090194550165240,0.0,0.0,0.0,0.0,0.0,0.0
1666090194600095065,0.0,0.0,0.0,0.0,0.0,0.0
1666090194650761514,0.0,0.0,0.0,0.0,0.0,0.0
1666090194700143096,0.0,0.0,0.0,0.0,0.0,0.0
1666090194750198350,0.0,0.0,0.0,0.0,0.0,0.0
1666090194800130980,0.0,0.0,0.0,0.0,0.0,0.0
1666090194849984645,0.0,0.0,0.0,0.0,0.0,0.0
1666090194901076507,0.0,0.0,0.0,0.0,0.0,0.0
1666090194950306894,0.0,0.0,0.0,0.0,0.0,0.1
1666090195000360406,0.0,0.0,0.0,0.0,0.0,0.2
1666090195049967245,0.0,0.0,0.0,0.0,0.0,0.2434589222965033
1666090195104815499,0.0,0.0,0.0,0.0,0.0,0.23693977763242655
1666090195150292216,0.0,0.0,0.0,0.0,0.0,0.23693977763242655
1666090195200414579,0.0,0.0,0.0,0.0,0.0,0.0
1666090195250289128,0.0,0.0,0.0,0.0,0.0,0.0
1666090195304624030,0.0,0.0,0.0,0.0,0.0,0.0
1666090195349945779,0.0,0.0,0.0,0.0,0.0,0.0
1666090195400308667,0.0,0.0,0.0,0.0,0.0,0.0
1666090195452773363,0.0,0.0,0.0,0.0,0.0,0.0
1666090195500252925,0.0,0.0,0.0,0.0,0.0,0.0
1666090195550097971,0.0,0.0,0.0,0.0,0.0,0.0
1666090195600380902,0.0,0.0,0.0,0.0,0.0,0.0
1666090195649916133,0.0,0.0,0.0,0.0,0.0,0.0
1666090195700775971,0.0,0.0,0.0,0.0,0.0,0.0
1666090195750131021,0.0,0.0,0.0,0.0,0.0,0.0
1666090195800525375,0.0,0.0,0.0,0.0,0.0,0.0
1666090195850238167,0.0,0.0,0.0,0.0,0.0,0.0
1666090195900112700,0.0040925556795058824,0.0,0.0,0.0,0.0,0.1
1666090195950116799,0.008185111359011765,0.0,0.0,0.0,0.0,0.2
1666090196000179388,0.012277667038517648,0.0,0.0,0.0,0.0,0.30000000000000004
1666090196050027134,0.0,0.0,0.0,0.0,0.0,0.0
1666090196100100376,0.0,0.0,0.0,0.0,0.0,0.0
1666090196150050785,0.0,0.0,0.0,0.0,0.0,0.0
1666090196201366366,0.0,0.0,0.0,0.0,0.0,0.0
1666090196251926780,0.0,0.0,0.0,0.0,0.0,0.0
1666090196300136957,0.0,0.0,0.0,0.0,0.0,0.0
1666090196350063668,0.0,0.0,0.0,0.0,0.0,0.0
1666090196400336035,0.0,0.0,0.0,0.0,0.0,0.0
1666090196452573362,0.0,0.0,0.0,0.0,0.0,0.0
1666090196500107844,0.0,0.0,0.0,0.0,0.0,0.0
1666090196549990621,0.0,0.0,0.0,0.0,0.0,0.0
1666090196600108548,0.0,0.0,0.0,0.0,0.0,0.0
1666090196650722024,0.0,0.0,0.0,0.0,0.0,0.0
1666090196700073814,0.004407367654852489,0.0,0.0,0.0,0.0,0.1
1666090196750843383,0.0,0.0,0.0,0.0,0.0,0.0
1666090196800094463,0.0,0.0,0.0,0.0,0.0,0.0
1666090196850089193,0.0,0.0,0.0,0.0,0.0,0.0
1666090196900213461,0.0040925556795058824,0.0,0.0,0.0,0.0,0.1
1666090196950681167,0.008185111359011765,0.0,0.0,0.0,0.0,0.2
1666090197000349876,0.0,0.0,0.0,0.0,0.0,0.0
1666090197050671056,0.0,0.0,0.0,0.0,0.0,0.0
1666090197100531482,0.004407367654852489,0.0,0.0,0.0,0.0,0.1
1666090197150162915,0.0,0.0,0.0,0.0,0.0,0.0
1666090197203499159,0.0,0.0,0.0,0.0,0.0,0.0
1666090197250032322,0.0,0.0,0.0,0.0,0.0,0.0
1666090197300087888,0.0,0.0,0.0,0.0,0.0,0.0
1666090197350194112,0.0,0.0,0.0,0.0,0.0,0.0
1666090197400191238,0.0,0.0,0.0,0.0,0.0,0.0
1666090197450567762,0.0,0.0,0.0,0.0,0.0,0.0
1666090197500125598,0.0,0.0,0.0,0.0,0.0,0.0
1666090197551100534,0.0,0.0,0.0,0.0,0.0,0.0
1666090197600445989,0.0,0.0,0.0,0.0,0.0,0.0
1666090197650330978,0.0,0.0,0.0,0.0,0.0,0.0
1666090197700074050,0.0,0.0,0.0,0.0,0.0,0.0
1666090197750110528,0.0040925556795058824,0.0,0.0,0.0,0.0,0.1
1666090197800263893,0.008185111359011765,0.0,0.0,0.0,0.0,0.2
1666090197850329992,0.0,0.0,0.0,0.0,0.0,0.22998954234891458
1666090197900085355,0.0,0.0,0.0,0.0,0.0,0.22998954234891458
1666090197950211581,0.0,0.0,0.0,0.0,0.0,0.26573208672201437
1666090198000188063,0.0,0.0,0.0,0.0,0.0,0.29148319226417385
1666090198050289051,0.0,0.0,0.0,0.0,0.0,0.3336836618067285
1666090198100101866,0.0,0.0,0.0,0.0,0.0,0.3769814379161151
1666090198150204472,0.0,0.0,0.0,0.0,0.0,0.3769814379161151
1666090198200664604,0.0,0.0,0.0,0.0,0.0,0.4228244091459884
1666090198249964821,0.0,0.0,0.0,0.0,0.0,0.4649302259413403
1666090198300215230,0.0,0.0,0.0,0.0,0.0,0.4649302259413403
1666090198350595569,0.0,0.0,0.0,0.0,0.0,0.4947898109452408
1666090198400052216,0.0,0.0,0.0,0.0,0.0,0.4947898109452408
1666090198450250743,0.0,0.0,0.0,0.0,0.0,0.5235987755982984
1666090198505018457,0.0,0.0,0.0,0.0,0.0,0.5235987755982984
1666090198551396425,0.0,0.0,0.0,0.0,0.0,0.5594987521115531
1666090198600239697,0.0,0.0,0.0,0.0,0.0,0.5832459776721258
1666090198650046525,0.0,0.0,0.0,0.0,0.0,0.6250054759049098
1666090198700188264,0.0,0.0,0.0,0.0,0.0,0.6643542158130584
1666090198750144080,0.0,0.0,0.0,0.0,0.0,0.6643542158130584
1666090198800315342,0.0,0.0,0.0,0.0,0.0,0.7176829847036346
1666090198850045154,0.0,0.0,0.0,0.0,0.0,0.7176829847036346
1666090198901585110,0.0,0.0,0.0,0.0,0.0,0.788048724549711
1666090198950049244,0.0,0.0,0.0,0.0,0.0,0.8225953372384078
1666090199001467480,0.0,0.0,0.0,0.0,0.0,0.8777776376385977
1666090199050023860,0.0,0.0,0.0,0.0,0.0,0.8777776376385977
1666090199100525240,0.0,0.0,0.0,0.0,0.0,0.9130813150145629
1666090199150142631,0.0,0.0,0.0,0.0,0.0,0.9130813150145629
1666090199200603733,0.0,0.0,0.0,0.0,0.0,0.9355420892389181
1666090199250248640,0.0,0.0,0.0,0.0,0.0,0.9104296056245684
1666090199300146622,0.0,0.0,0.0,0.0,0.0,0.9104296056245684
1666090199350095024,0.0,0.0,0.0,0.0,0.0,0.9232608262454842
1666090199400669702,0.0,0.0,0.0,0.0,0.0,0.9232608262454842
1666090199450491059,0.0,0.0,0.0,0.0,0.0,0.8832314593157259
1666090199500261784,0.0,0.0,0.0,0.0,0.0,0.8832314593157259
1666090199550146960,0.0,0.0,0.0,0.0,0.0,0.8550494829710354
1666090199600242413,0.0,0.0,0.0,0.0,0.0,0.8550494829710354
1666090199650042107,0.0,0.0,0.0,0.0,0.0,0.7788021126859572
1666090199700816753,0.0,0.0,0.0,0.0,0.0,0.7788021126859572
1666090199750140140,0.0,0.0,0.0,0.0,0.0,0.7788021126859572
1666090199800472953,0.0,0.0,0.0,0.0,0.0,0.6678154519429317
1666090199850010023,0.0,0.0,0.0,0.0,0.0,0.6678154519429317
1666090199900741203,0.0,0.0,0.0,0.0,0.0,0.5571908048098235
1666090199950926368,0.0,0.0,0.0,0.0,0.0,0.4954399170771061
1666090200001024928,0.0,0.0,0.0,0.0,0.0,0.4954399170771061
1666090200050042035,0.0,0.0,0.0,0.0,0.0,0.41067293255402576
1666090200100426904,0.0,0.0,0.0,0.0,0.0,0.41067293255402576
1666090200150210390,0.015,0.0,0.0,0.0,0.0,0.4155079783331081
1666090200199958272,0.03,0.0,0.0,0.0,0.0,0.42034302411219043
1666090200250066798,0.045,0.0,0.0,0.0,0.0,0.4172120692019421
1666090200300632389,0.06,0.0,0.0,0.0,0.0,0.4086817753377221
1666090200349946360,0.075,0.0,0.0,0.0,0.0,0.4001514814735021
1666090200399927052,0.09,0.0,0.0,0.0,0.0,0.3916211876092821
1666090200450029381,0.105,0.0,0.0,0.0,0.0,0.37439733395347136
1666090200500263956,0.12,0.0,0.0,0.0,0.0,0.3571734802976606
1666090200550734540,0.135,0.0,0.0,0.0,0.0,0.33994962664184986
1666090200600611783,0.15000000000000002,0.0,0.0,0.0,0.0,0.3179967495975961
1666090200650482430,0.16500000000000004,0.0,0.0,0.0,0.0,0.29821280561474584
1666090200700154459,0.18000000000000005,0.0,0.0,0.0,0.0,0.27901275454082564
1666090200750024193,0.19500000000000006,0.0,0.0,0.0,0.0,0.25981270346690544
1666090200802583353,0.21000000000000008,0.0,0.0,0.0,0.0,0.24145632699770642
1666090200850059360,0.2250000000000001,0.0,0.0,0.0,0.0,0.2230999505285074
1666090200900694929,0.2400000000000001,0.0,0.0,0.0,0.0,0.20369624092543773
1666090200950009726,0.2550000000000001,0.0,0.0,0.0,0.0,0.18429253132236806
1666090201000048346,0.27000000000000013,0.0,0.0,0.0,0.0,0.14655905526432136
1666090201050187863,0.28500000000000014,0.0,0.0,0.0,0.0,0.10101752993191684
1666090201101080299,0.30000000000000016,0.0,0.0,0.0,0.0,0.05547600459951232
1666090201149972213,0.31500000000000017,0.0,0.0,0.0,0.0,-0.0030289599460879627
1666090201200147690,0.3300000000000002,0.0,0.0,0.0,0.0,-0.06359636300749924
1666090201250356263,0.3450000000000002,0.0,0.0,0.0,0.0,-0.12416376606891051
1666090201304448477,0.3553420109766136,0.0,0.0,0.0,0.0,-0.22416376606891053
1666090201350137061,0.3656840219532271,0.0,0.0,0.0,0.0,-0.3241637660689105
1666090201400469934,0.3806840219532271,0.0,0.0,0.0,0.0,-0.40176716852613514
1666090201452766874,0.3832214445235925,0.0,0.0,0.0,0.0,-0.5017671685261351
1666090201500180148,0.38575886709395796,0.0,0.0,0.0,0.0,-0.6017671685261351
1666090201550429067,0.3882962896643234,0.0,0.0,0.0,0.0,-0.7017671685261351
1666090201600094848,0.38679422430047594,0.0,0.0,0.0,0.0,-0.801767168526135
1666090201650182321,0.40179422430047596,0.0,0.0,0.0,0.0,-0.880949541175583
1666090201700179531,0.41679422430047597,0.0,0.0,0.0,0.0,-0.9601319138250309
1666090201750003378,0.42914451289357697,0.0,0.0,0.0,0.0,-1.060131913825031
1666090201800380384,0.43102583117733156,0.0,0.0,0.0,0.0,-1.160131913825031
1666090201850015151,0.4258859134177258,0.0,0.0,0.0,0.0,-1.260131913825031
1666090201901092301,0.4204327167537661,0.0,0.0,0.0,0.0,-1.3601319138250312
1666090201950137733,0.4184623956680298,0.0,0.0,0.0,0.0,-1.3962634015954642
1666090202000265767,0.4259498417377472,0.0,0.0,0.0,0.0,-1.3962634015954642
1666090202049910030,0.42740184068679804,0.0,0.0,0.0,0.0,-1.3962634015954642
1666090202100109591,0.42740184068679804,0.0,0.0,0.0,0.0,-1.3962634015954642
1666090202150501214,0.43121588230133057,0.0,0.0,0.0,0.0,-1.3962634015954642
1666090202200066955,0.43121588230133057,0.0,0.0,0.0,0.0,-1.3962634015954642
1666090202249993791,0.43121588230133057,0.0,0.0,0.0,0.0,-1.3962634015954642
1666090202301357348,0.28121588230133054,0.0,0.0,0.0,0.0,-0.9105681412039075
1666090202349930864,0.29621588230133056,0.0,0.0,0.0,0.0,-0.9588215235048814
1666090202400091236,0.2949544213048831,0.0,0.0,0.0,0.0,-1.0588215235048815
1666090202450502380,0.29622222049002445,0.0,0.0,0.0,0.0,-1.1588215235048815
1666090202499970834,0.29204443097114563,0.0,0.0,0.0,0.0,-1.2217304763960313
1666090202550236540,0.29204443097114563,0.0,0.0,0.0,0.0,-1.2217304763960313
1666090202600506041,0.29204443097114563,0.0,0.0,0.0,0.0,-1.2217304763960313
1666090202650378306,0.3051588833332062,0.0,0.0,0.0,0.0,-1.2217304763960313
1666090202700025340,0.3051588833332062,0.0,0.0,0.0,0.0,-1.2217304763960313
1666090202752569664,0.30309256911277765,0.0,0.0,0.0,0.0,-1.2217304763960313
1666090202800084319,0.30309256911277765,0.0,0.0,0.0,0.0,-1.2217304763960313
1666090202850335865,0.31809256911277767,0.0,0.0,0.0,0.0,-1.2217304763960313
1666090202900097762,0.3330925691127777,0.0,0.0,0.0,0.0,-1.1982103593045372
1666090202950100093,0.3480925691127777,0.0,0.0,0.0,0.0,-1.1745856205687153
1666090203000046273,0.30892086029052734,0.0,0.0,0.0,0.0,-0.8726646259971653
1666090203050100683,0.32392086029052736,0.0,0.0,0.0,0.0,-0.8726646259971653
1666090203100062607,0.33892086029052737,0.0,0.0,0.0,0.0,-0.8726646259971653
1666090203150557296,0.32974690198898315,0.0,0.0,0.0,0.0,-0.5235987755982994
1666090203199855208,0.34060290455818176,0.0,0.0,0.0,0.0,-0.3490658503988664
1666090203250132286,0.34785833954811096,0.0,0.0,0.0,0.0,-0.3490658503988664
1666090203300049291,0.34785833954811096,0.0,0.0,0.0,0.0,-0.3490658503988664
1666090203350132838,0.362858339548111,0.0,0.0,0.0,0.0,-0.3490658503988664
1666090203400041554,0.377858339548111,0.0,0.0,0.0,0.0,-0.3490658503988664
1666090203449987482,0.392858339548111,0.0,0.0,0.0,0.0,-0.3490658503988664
1666090203500077478,0.3874703049659729,0.0,0.0,0.0,0.0,-0.17453292519943345
1666090203550451378,0.39838266372680664,0.0,0.0,0.0,0.0,-0.17453292519943345
1666090203600450349,0.41338266372680665,0.0,0.0,0.0,0.0,-0.2037101102941529
1666090203650000913,0.42838266372680667,0.0,0.0,0.0,0.0,-0.23089713324151287
1666090203700616814,0.4433826637268067,0.0,0.0,0.0,0.0,-0.2580841561888728
1666090203750399372,0.4583826637268067,0.0,0.0,0.0,0.0,-0.28389084268283543
1666090203800056511,0.4733826637268067,0.0,0.0,0.0,0.0,-0.309444750299617
1666090203850104946,0.44871134967729026,0.0,0.0,0.0,0.0,-0.409444750299617
1666090203900072378,0.4240400356277738,0.0,0.0,0.0,0.0,-0.509444750299617
1666090203950889068,0.4113224446773529,0.0,0.0,0.0,0.0,-0.5235987755982994
1666090204000015649,0.4113224446773529,0.0,0.0,0.0,0.0,-0.5235987755982994
1666090204050304621,0.4263224446773529,0.0,0.0,0.0,0.0,-0.5587791673792561
1666090204099940867,0.44132244467735293,0.0,0.0,0.0,0.0,-0.6000284389429288
1666090204150699918,0.45632244467735295,0.0,0.0,0.0,0.0,-0.6412777105066014
1666090204200014665,0.47132244467735296,0.0,0.0,0.0,0.0,-0.693574354885231
1666090204250004122,0.46696916222572327,0.0,0.0,0.0,0.0,-0.6981317007977323
1666090204300370528,0.46696916222572327,0.0,0.0,0.0,0.0,-0.6981317007977323
1666090204349978741,0.40671306261314155,0.0,0.0,0.0,0.0,-0.7981317007977323
1666090204400171011,0.42171306261314156,0.0,0.0,0.0,0.0,-0.8190185544052102
1666090204449989310,0.4367130626131416,0.0,0.0,0.0,0.0,-0.8399054080126881
1666090204500562395,0.4517130626131416,0.0,0.0,0.0,0.0,-0.860792261620166
1666090204550053481,0.4562172591686249,0.0,0.0,0.0,0.0,-0.8726646259971653
1666090204600135533,0.4562172591686249,0.0,0.0,0.0,0.0,-0.8726646259971653
1666090204650904783,0.4525059759616852,0.0,0.0,0.0,0.0,-0.8726646259971653
1666090204700806755,0.45501869916915894,0.0,0.0,0.0,0.0,-0.8726646259971653
1666090204750074689,0.45501869916915894,0.0,0.0,0.0,0.0,-0.8726646259971653
1666090204800083794,0.45501869916915894,0.0,0.0,0.0,0.0,-0.8726646259971653
1666090204850139845,0.4563163220882416,0.0,0.0,0.0,0.0,-0.8726646259971653
1666090204900301987,0.46468475461006165,0.0,0.0,0.0,0.0,-0.8726646259971653
1666090204950546077,0.47288545966148376,0.0,0.0,0.0,0.0,-0.6981317007977323
1666090205000222479,0.47288545966148376,0.0,0.0,0.0,0.0,-0.6981317007977323
1666090205050218125,0.47288545966148376,0.0,0.0,0.0,0.0,-0.6981317007977323
1666090205100219552,0.48653846979141235,0.0,0.0,0.0,0.0,-0.6981317007977323
1666090205150927412,0.5015384697914124,0.0,0.0,0.0,0.0,-0.5026562537937027
1666090205200067047,0.5133243799209595,0.0,0.0,0.0,0.0,-0.3490658503988664
1666090205250652385,0.42364481091499323,0.0,0.0,0.0,0.0,-0.3490658503988664
1666090205300304787,0.4223654568195343,0.0,0.0,0.0,0.0,-0.3490658503988664
1666090205350184687,0.4373654568195343,0.0,0.0,0.0,0.0,-0.3275578050844288
1666090205400219714,0.45236545681953433,0.0,0.0,0.0,0.0,-0.30604975976999116
1666090205449956550,0.46736545681953434,0.0,0.0,0.0,0.0,-0.27741350960415706
1666090205501559289,0.4261588156223297,0.0,0.0,0.0,0.0,-0.09415853023529053
1666090205550097788,0.4411588156223297,0.0,0.0,0.0,0.0,-0.1121383039775561
1666090205600031870,0.45615881562232974,0.0,0.0,0.0,0.0,-0.13011807771982167
1666090205650188986,0.47115881562232975,0.0,0.0,0.0,0.0,-0.14809785146208726
1666090205700028543,0.47537151863531674,0.0,0.0,0.0,0.0,-0.24809785146208727
1666090205750052401,0.4773114025966301,0.0,0.0,0.0,0.0,-0.34809785146208727
1666090205800494114,0.4792512865579434,0.0,0.0,0.0,0.0,-0.44809785146208725
1666090205849985965,0.47530513857295714,0.0,0.0,0.0,0.0,-0.5480978514620872
1666090205899900813,0.4713589905879708,0.0,0.0,0.0,0.0,-0.6480978514620872
1666090205950089770,0.46227788925170893,0.0,0.0,0.0,0.0,-0.6981317007977323
1666090205999978745,0.4567289352416992,0.0,0.0,0.0,0.0,-0.6981317007977323
1666090206050408125,0.4567289352416992,0.0,0.0,0.0,0.0,-0.6981317007977323
1666090206099971125,0.4496861398220062,0.0,0.0,0.0,0.0,-0.6981317007977323
1666090206150003044,0.4496861398220062,0.0,0.0,0.0,0.0,-0.6981317007977323
1666090206200477386,0.44717249274253845,0.0,0.0,0.0,0.0,-0.6981317007977323
1666090206249999358,0.4430962800979614,0.0,0.0,0.0,0.0,-0.6981317007977323
1666090206300073894,0.4430962800979614,0.0,0.0,0.0,0.0,-0.6981317007977323
1666090206350026859,0.44817516207695,0.0,0.0,0.0,0.0,-0.5235987755982994
1666090206399917189,0.3781777620315552,0.0,0.0,0.0,0.0,-0.5235987755982994
1666090206450113206,0.3778934478759765,0.0,0.0,0.0,0.0,-0.5235987755982994
1666090206500328923,0.3778934478759765,0.0,0.0,0.0,0.0,-0.5235987755982994
1666090206550280658,0.3928934478759765,0.0,0.0,0.0,0.0,-0.5235987755982994
1666090206600065201,0.40789344787597653,0.0,0.0,0.0,0.0,-0.5235987755982994
1666090206650043936,0.42289344787597655,0.0,0.0,0.0,0.0,-0.5235987755982994
1666090206700083908,0.3958696126937866,0.0,0.0,0.0,0.0,-0.3490658503988664
1666090206750141242,0.3958696126937866,0.0,0.0,0.0,0.0,-0.3490658503988664
1666090206800259455,0.3958696126937866,0.0,0.0,0.0,0.0,-0.3490658503988664
1666090206849939214,0.41086961269378663,0.0,0.0,0.0,0.0,-0.3490658503988664
1666090206900086958,0.42586961269378665,0.0,0.0,0.0,0.0,-0.3490658503988664
1666090206950131107,0.44086961269378666,0.0,0.0,0.0,0.0,-0.3490658503988664
1666090207000083939,0.4558696126937867,0.0,0.0,0.0,0.0,-0.3490658503988664
1666090207050223905,0.4708696126937867,0.0,0.0,0.0,0.0,-0.3490658503988664
1666090207100066702,0.48172542452812195,0.0,0.0,0.0,0.0,-0.3490658503988664
1666090207151184917,0.48172542452812195,0.0,0.0,0.0,0.0,-0.3490658503988664
1666090207200068630,0.49672542452812196,0.0,0.0,0.0,0.0,-0.32925855457533326
1666090207250661698,0.511725424528122,0.0,0.0,0.0,0.0,-0.30945125875180013
1666090207300539684,0.526725424528122,0.0,0.0,0.0,0.0,-0.289643962928267
1666090207350139057,0.541725424528122,0.0,0.0,0.0,0.0,-0.2760441713000812
1666090207400042444,0.556725424528122,0.0,0.0,0.0,0.0,-0.2624443796718954
1666090207450349310,0.571725424528122,0.0,0.0,0.0,0.0,-0.25247516608390413
1666090207500598770,0.586725424528122,0.0,0.0,0.0,0.0,-0.2425059524959129
1666090207551061574,0.601725424528122,0.0,0.0,0.0,0.0,-0.22480979247772886
1666090207601263504,0.6167254245281221,0.0,0.0,0.0,0.0,-0.20711363245954484
1666090207649967872,0.6317254245281221,0.0,0.0,0.0,0.0,-0.19068058092268592
1666090207700057057,0.6467254245281221,0.0,0.0,0.0,0.0,-0.174247529385827
1666090207749929001,0.6617254245281221,0.0,0.0,0.0,0.0,-0.1521277201393883
1666090207800024399,0.6767254245281221,0.0,0.0,0.0,0.0,-0.1300079108929496
1666090207850241136,0.6917254245281221,0.0,0.0,0.0,0.0,-0.09349308448538893
1666090207900292420,0.7067254245281221,0.0,0.0,0.0,0.0,-0.05697825807782823
1666090207951010559,0.693955659866333,0.0,0.0,0.0,0.0,-0.0013833411503583193
1666090207999980124,0.693955659866333,0.0,0.0,0.0,0.0,-0.0013833411503583193
1666090208050075328,0.643604040145874,0.0,0.0,0.0,0.0,0.0177155751734972
1666090208100097876,0.6378393633707592,0.0,0.0,0.0,0.0,0.1177155751734972
1666090208150973573,0.6371952295303345,0.0,0.0,0.0,0.0,0.12888938188552856
1666090208199938634,0.5695876479148864,0.0,0.0,0.0,0.0,0.04275507479906082
1666090208249982509,0.5695876479148864,0.0,0.0,0.0,0.0,0.04275507479906082
1666090208300046412,0.5695876479148864,0.0,0.0,0.0,0.0,0.04275507479906082
1666090208350044350,0.520844578742981,0.0,0.0,0.0,0.0,0.06223694980144501
1666090208400124839,0.535844578742981,0.0,0.0,0.0,0.0,0.09400293010771127
1666090208450029989,0.550844578742981,0.0,0.0,0.0,0.0,0.12576891041397756
1666090208500349112,0.565844578742981,0.0,0.0,0.0,0.0,0.17415531201918205
1666090208550624429,0.5689937472343445,0.0,0.0,0.0,0.0,0.18431377410888672
1666090208599948298,0.48697867989540095,0.0,0.0,0.0,0.0,0.17453292519943245
1666090208651364373,0.4849060362244634,0.0,0.0,0.0,0.0,0.27453292519943245
1666090208699935474,0.47865802305564026,0.0,0.0,0.0,0.0,0.3745329251994325
1666090208749976505,0.47241000988681714,0.0,0.0,0.0,0.0,0.47453292519943246
1666090208800488823,0.466161996717994,0.0,0.0,0.0,0.0,0.5745329251994324
1666090208850190026,0.4565124288477331,0.0,0.0,0.0,0.0,0.6745329251994324
1666090208900075126,0.4347839764547081,0.0,0.0,0.0,0.0,0.7745329251994324
1666090208949970969,0.4134614765644073,0.0,0.0,0.0,0.0,0.8726646259971643
1666090209000070125,0.3766959607601166,0.0,0.0,0.0,0.0,0.8726646259971643
1666090209050053160,0.3766959607601166,0.0,0.0,0.0,0.0,0.8726646259971643
1666090209100019921,0.3680092066453839,0.0,0.0,0.0,0.0,0.9726646259971643
1666090209150040609,0.3615347146987915,0.0,0.0,0.0,0.0,1.0471975511965972
1666090209200112569,0.3615347146987915,0.0,0.0,0.0,0.0,1.0471975511965972
1666090209252287241,0.3286323547363281,0.0,0.0,0.0,0.0,1.0471975511965972
1666090209300333163,0.32183921337127686,0.0,0.0,0.0,0.0,1.0471975511965972
1666090209350000698,0.32183921337127686,0.0,0.0,0.0,0.0,1.0471975511965972
1666090209400996094,0.33683921337127687,0.0,0.0,0.0,0.0,1.0687151346011041
1666090209450202874,0.3518392133712769,0.0,0.0,0.0,0.0,1.090232718005611
1666090209500034609,0.31685754656791687,0.0,0.0,0.0,0.0,1.0471975511965972
1666090209550094628,0.31685754656791687,0.0,0.0,0.0,0.0,1.0471975511965972
1666090209600131823,0.31685754656791687,0.0,0.0,0.0,0.0,1.0471975511965972
1666090209654415934,0.32726961374282837,0.0,0.0,0.0,0.0,1.0471975511965972
1666090209700142133,0.3422696137428284,0.0,0.0,0.0,0.0,1.0471975511965972
1666090209750045290,0.3572696137428284,0.0,0.0,0.0,0.0,1.0471975511965972
1666090209800594964,0.36681264638900757,0.0,0.0,0.0,0.0,1.0471975511965972
1666090209850201154,0.3818126463890076,0.0,0.0,0.0,0.0,1.0471975511965972
1666090209901202727,0.3968126463890076,0.0,0.0,0.0,0.0,1.0471975511965972
1666090209950620968,0.4118126463890076,0.0,0.0,0.0,0.0,1.0471975511965972
1666090210000127658,0.4268126463890076,0.0,0.0,0.0,0.0,1.0471975511965972
1666090210049958401,0.44181264638900763,0.0,0.0,0.0,0.0,1.0228531407874593
1666090210099953547,0.45681264638900765,0.0,0.0,0.0,0.0,1.0064028532742293
1666090210150306022,0.47181264638900766,0.0,0.0,0.0,0.0,0.9898755005367534
1666090210200389523,0.4868126463890077,0.0,0.0,0.0,0.0,0.9733481477992776
1666090210250262661,0.5018126463890077,0.0,0.0,0.0,0.0,0.9568207950618016
1666090210300295870,0.5168126463890077,0.0,0.0,0.0,0.0,0.9459379266791411
1666090210350094194,0.5318126463890077,0.0,0.0,0.0,0.0,0.9189287139991584
1666090210400118052,0.5468126463890077,0.0,0.0,0.0,0.0,0.8967354879693097
1666090210450962466,0.5618126463890077,0.0,0.0,0.0,0.0,0.8745422619394609
1666090210500108419,0.5768126463890078,0.0,0.0,0.0,0.0,0.8555731189420203
1666090210550697331,0.5918126463890078,0.0,0.0,0.0,0.0,0.8191909462616211
1666090210599955648,0.6068126463890078,0.0,0.0,0.0,0.0,0.782808773581222
1666090210650208012,0.6218126463890078,0.0,0.0,0.0,0.0,0.7231226644129729
1666090210699978752,0.6368126463890078,0.0,0.0,0.0,0.0,0.6634365552447238
1666090210750233795,0.6518126463890078,0.0,0.0,0.0,0.0,0.5904792727633621
1666090210800111800,0.6668126463890078,0.0,0.0,0.0,0.0,0.5175219902820003
1666090210850422955,0.6818126463890078,0.0,0.0,0.0,0.0,0.4445647078006385
1666090210900730523,0.6737892627716064,0.0,0.0,0.0,0.0,0.17453292519943245
1666090210950030423,0.6737892627716064,0.0,0.0,0.0,0.0,0.17453292519943245
1666090211000072107,0.6186903715133667,0.0,0.0,0.0,0.0,0.17453292519943245
1666090211049998517,0.6186903715133667,0.0,0.0,0.0,0.0,0.17453292519943245
1666090211100290292,0.5901333689689636,0.0,0.0,0.0,0.0,0.07151960581541061
1666090211151035529,0.5901333689689636,0.0,0.0,0.0,0.0,0.07151960581541061
1666090211200174893,0.5037333369255066,0.0,0.0,0.0,0.0,-4.996003610813204e-16
1666090211250089620,0.5050837993621826,0.0,0.0,0.0,0.0,-4.996003610813204e-16
1666090211301874893,0.4587782025337219,0.0,0.0,0.0,0.0,-4.996003610813204e-16
1666090211350165743,0.4193946123123169,0.0,0.0,0.0,0.0,-0.06957943737506866
1666090211400334403,0.2693946123123169,0.0,0.0,0.0,0.0,-0.04469376812739599
1666090211450774197,0.11939461231231685,0.0,0.0,0.0,0.0,-0.01980809887972332
1666090211500635022,0.0,0.0,0.0,0.0,0.0,-4.996003610813204e-16
1666090211550049284,0.0,0.0,0.0,0.0,0.0,-4.996003610813204e-16
1666090211600372497,0.0,0.0,0.0,0.0,0.0,-4.996003610813204e-16
1666090211651280482,0.0,0.0,0.0,0.0,0.0,-4.996003610813204e-16
1666090211700197639,0.0,0.0,0.0,0.0,0.0,-4.996003610813204e-16
1666090211749969073,0.0,0.0,0.0,0.0,0.0,-4.996003610813204e-16
1666090211801037832,0.0,0.0,0.0,0.0,0.0,-4.996003610813204e-16
1666090211850085644,0.0,0.0,0.0,0.0,0.0,-4.996003610813204e-16
1666090211900138488,0.0,0.0,0.0,0.0,0.0,-4.996003610813204e-16
1666090211950106323,0.0,0.0,0.0,0.0,0.0,-4.996003610813204e-16
1666090212000480991,0.0,0.0,0.0,0.0,0.0,-4.996003610813204e-16
1666090212050176796,0.0,0.0,0.0,0.0,0.0,-4.996003610813204e-16
1666090212100371422,0.0,0.0,0.0,0.0,0.0,-4.996003610813204e-16
1666090212150087675,0.0,0.0,0.0,0.0,0.0,-4.996003610813204e-16
1666090212201423615,0.0,0.0,0.0,0.0,0.0,-4.996003610813204e-16
1666090212250627554,0.0,0.0,0.0,0.0,0.0,-4.996003610813204e-16
1666090212301521994,0.0,0.0,0.0,0.0,0.0,-4.996003610813204e-16
1666090212350336854,0.0,0.0,0.0,0.0,0.0,-4.996003610813204e-16
1666090212400133531,0.0,0.0,0.0,0.0,0.0,-4.996003610813204e-16
1666090212450153043,0.0,0.0,0.0,0.0,0.0,-4.996003610813204e-16
1666090212500017976,0.0,0.0,0.0,0.0,0.0,-4.996003610813204e-16
1666090212550295198,0.0,0.0,0.0,0.0,0.0,-4.996003610813204e-16
1666090212600053040,0.0,0.0,0.0,0.0,0.0,-4.996003610813204e-16
1666090212649983733,0.0,0.0,0.0,0.0,0.0,-4.996003610813204e-16
1666090212699897773,0.0,0.0,0.0,0.0,0.0,-4.996003610813204e-16
1666090212751089013,0.0,0.0,0.0,0.0,0.0,-4.996003610813204e-16
1666090212800034473,0.0,0.0,0.0,0.0,0.0,-4.996003610813204e-16
1666090212850867909,0.0,0.0,0.0,0.0,0.0,-4.996003610813204e-16
1666090212900503666,0.0,0.0,0.0,0.0,0.0,-4.996003610813204e-16
1666090212952325610,0.0,0.0,0.0,0.0,0.0,-4.996003610813204e-16
1666090213000289154,0.0,0.0,0.0,0.0,0.0,-4.996003610813204e-16
1666090213050160955,0.0,0.0,0.0,0.0,0.0,-4.996003610813204e-16
1666090213100064926,0.0,0.0,0.0,0.0,0.0,-4.996003610813204e-16
1666090213150870664,0.0,0.0,0.0,0.0,0.0,-4.996003610813204e-16
1666090213200785206,0.0,0.0,0.0,0.0,0.0,-4.996003610813204e-16
1666090213250084918,0.0,0.0,0.0,0.0,0.0,-4.996003610813204e-16
1666090213300061608,0.0,0.0,0.0,0.0,0.0,-4.996003610813204e-16
1666090213350141490,0.0,0.0,0.0,0.0,0.0,-4.996003610813204e-16
1666090213400298050,0.0,0.0,0.0,0.0,0.0,0.0999999999999995
1666090213450323087,0.0,0.0,0.0,0.0,0.0,0.17453292519943245
1666090213500022598,0.0,0.0,0.0,0.0,0.0,0.17453292519943245
1666090213550567016,0.0,0.0,0.0,0.0,0.0,0.17453292519943245
1666090213600107736,0.0,0.0,0.0,0.0,0.0,0.17453292519943245
1666090213650137470,0.0,0.0,0.0,0.0,0.0,0.17453292519943245
1666090213699982299,0.0,0.0,0.0,0.0,0.0,0.17453292519943245
1666090213750106356,0.0,0.0,0.0,0.0,0.0,0.17453292519943245
1666090213800025851,0.0,0.0,0.0,0.0,0.0,0.17453292519943245
1666090213850178824,0.0,0.0,0.0,0.0,0.0,0.17453292519943245
1666090213900022686,0.0,0.0,0.0,0.0,0.0,0.17453292519943245
1666090213951261482,0.0,0.0,0.0,0.0,0.0,0.17453292519943245
1666090214000103835,0.0,0.0,0.0,0.0,0.0,0.17453292519943245
1666090214050069201,0.0,0.0,0.0,0.0,0.0,0.17453292519943245
1666090214100243238,0.0,0.0,0.0,0.0,0.0,0.07453292519943244
1666090214151278127,0.0,0.0,0.0,0.0,0.0,-4.996003610813204e-16
1666090214199957692,0.0,0.0,0.0,0.0,0.0,-4.996003610813204e-16
1666090214250069100,0.0,0.0,0.0,0.0,0.0,-4.996003610813204e-16
1666090214301291348,0.0,0.0,0.0,0.0,0.0,-4.996003610813204e-16
1666090214350080890,0.0,0.0,0.0,0.0,0.0,-4.996003610813204e-16
1666090214400431751,0.0,0.0,0.0,0.0,0.0,-4.996003610813204e-16
1666090214450095579,0.0,0.0,0.0,0.0,0.0,-4.996003610813204e-16
1666090214500554465,0.0,0.0,0.0,0.0,0.0,-4.996003610813204e-16
1666090214550525071,0.0,0.0,0.0,0.0,0.0,-4.996003610813204e-16
1666090214600040990,0.0,0.0,0.0,0.0,0.0,-4.996003610813204e-16
1666090214650199816,0.0,0.0,0.0,0.0,0.0,-4.996003610813204e-16
1666090214699939573,0.0,0.0,0.0,0.0,0.0,-4.996003610813204e-16
1666090214750220966,0.0,0.0,0.0,0.0,0.0,-4.996003610813204e-16
1666090214800213329,0.0,0.0,0.0,0.0,0.0,-4.996003610813204e-16
1666090214849962611,0.0,0.0,0.0,0.0,0.0,-4.996003610813204e-16
1666090214900330742,0.0,0.0,0.0,0.0,0.0,0.0
1666090214950191107,0.0,0.0,0.0,0.0,0.0,-4.996003610813204e-16
1666090215000888297,0.0,0.0,0.0,0.0,0.0,-4.996003610813204e-16
1666090215050100995,0.0,0.0,0.0,0.0,0.0,-4.996003610813204e-16
1666090215100436657,0.0,0.0,0.0,0.0,0.0,-4.996003610813204e-16
1666090215150016546,0.0,0.0,0.0,0.0,0.0,-4.996003610813204e-16
1666090215200564592,0.0,0.0,0.0,0.0,0.0,-4.996003610813204e-16
1666090215250446269,0.0,0.0,0.0,0.0,0.0,-4.996003610813204e-16
1666090215300179704,0.0,0.0,0.0,0.0,0.0,-4.996003610813204e-16
1666090215350090049,0.0,0.0,0.0,0.0,0.0,-4.996003610813204e-16
1666090215400166041,0.0,0.0,0.0,0.0,0.0,-4.996003610813204e-16
1666090215453971716,0.0,0.0,0.0,0.0,0.0,-4.996003610813204e-16
1666090215499967091,0.0,0.0,0.0,0.0,0.0,-4.996003610813204e-16
1666090215550639610,0.0,0.0,0.0,0.0,0.0,0.0999999999999995
1666090215599908664,0.0,0.0,0.0,0.0,0.0,0.17453292519943245
1666090215650034205,0.0,0.0,0.0,0.0,0.0,0.17453292519943245
1666090215700036240,0.0,0.0,0.0,0.0,0.0,0.17453292519943245
1666090215750317437,0.0,0.0,0.0,0.0,0.0,0.17453292519943245
1666090215800456424,0.0,0.0,0.0,0.0,0.0,0.17453292519943245
1666090215850263483,0.0,0.0,0.0,0.0,0.0,0.17453292519943245
1666090215900417804,0.0,0.0,0.0,0.0,0.0,0.17453292519943245
1666090215950076225,0.0,0.0,0.0,0.0,0.0,0.17453292519943245
1666090216000800297,0.0,0.0,0.0,0.0,0.0,0.17453292519943245
1666090216050129258,0.0,0.0,0.0,0.0,0.0,0.17453292519943245
1666090216100102695,0.0,0.0,0.0,0.0,0.0,0.17453292519943245
1666090216150272399,0.0,0.0,0.0,0.0,0.0,0.17453292519943245
1666090216200162858,0.0,0.0,0.0,0.0,0.0,0.17453292519943245
1666090216250495861,0.0,0.0,0.0,0.0,0.0,0.17453292519943245
1666090216299980324,0.0,0.0,0.0,0.0,0.0,0.07453292519943244
1666090216349949760,0.0,0.0,0.0,0.0,0.0,-4.996003610813204e-16
1666090216399924685,0.0,0.0,0.0,0.0,0.0,-4.996003610813204e-16
1666090216450986437,0.0,0.0,0.0,0.0,0.0,-4.996003610813204e-16
1666090216499998394,0.0,0.0,0.0,0.0,0.0,-4.996003610813204e-16
1666090216550294226,0.0,0.0,0.0,0.0,0.0,-4.996003610813204e-16
1666090216600038272,0.0,0.0,0.0,0.0,0.0,-4.996003610813204e-16
1666090216649999428,0.0,0.0,0.0,0.0,0.0,-4.996003610813204e-16
1666090216699911457,0.0,0.0,0.0,0.0,0.0,-4.996003610813204e-16
1666090216750154109,0.0,0.0,0.0,0.0,0.0,-4.996003610813204e-16
1666090216800158993,0.0,0.0,0.0,0.0,0.0,-4.996003610813204e-16
1666090216850021676,0.0,0.0,0.0,0.0,0.0,-4.996003610813204e-16
1666090216900128587,0.0,0.0,0.0,0.0,0.0,-4.996003610813204e-16
1666090216949996237,0.0,0.0,0.0,0.0,0.0,-4.996003610813204e-16
1666090217000192806,0.0,0.0,0.0,0.0,0.0,-4.996003610813204e-16
1666090217051015341,0.0,0.0,0.0,0.0,0.0,-4.996003610813204e-16
1666090217100067508,0.0,0.0,0.0,0.0,0.0,-4.996003610813204e-16
1666090217150013529,0.0,0.0,0.0,0.0,0.0,-4.996003610813204e-16
1666090217200145629,0.0,0.0,0.0,0.0,0.0,-4.996003610813204e-16
1666090217250157662,0.0,0.0,0.0,0.0,0.0,-4.996003610813204e-16
1666090217300373645,0.0,0.0,0.0,0.0,0.0,-4.996003610813204e-16
1666090217350178937,0.0,0.0,0.0,0.0,0.0,-4.996003610813204e-16
1666090217400281312,0.0,0.0,0.0,0.0,0.0,-4.996003610813204e-16
1666090217452174708,0.0,0.0,0.0,0.0,0.0,-4.996003610813204e-16
1666090217500057930,0.0,0.0,0.0,0.0,0.0,-4.996003610813204e-16
1666090217550323452,0.0,0.0,0.0,0.0,0.0,-4.996003610813204e-16
1666090217601660836,0.0,0.0,0.0,0.0,0.0,0.0999999999999995
1666090217650027536,0.0,0.0,0.0,0.0,0.0,0.17453292519943245
1666090217700018264,0.0,0.0,0.0,0.0,0.0,0.17453292519943245
1666090217750308853,0.0,0.0,0.0,0.0,0.0,0.23402985556383835
1666090217800085584,0.0,0.0,0.0,0.0,0.0,0.23402985556383835
1666090217850217490,0.0,0.0,0.0,0.0,0.0,0.2698732135213813
1666090217900054239,0.0,0.0,0.0,0.0,0.0,0.2698732135213813
1666090217950341203,0.0,0.0,0.0,0.0,0.0,0.31917217707890594
1666090218000704192,0.0,0.0,0.0,0.0,0.0,0.31425759646026297
1666090218050171949,0.0,0.0,0.0,0.0,0.0,0.31539942481332056
1666090218100189713,0.0,0.0,0.0,0.0,0.0,0.3251035307619619
1666090218150036838,0.0,0.0,0.0,0.0,0.0,0.3251035307619619
1666090218200092244,0.0,0.0,0.0,0.0,0.0,0.3251035307619619
1666090218250930243,0.0,0.0,0.0,0.0,0.0,0.33746387171584946
1666090218300073635,0.0,0.0,0.0,0.0,0.0,0.33746387171584946
1666090218353049605,0.0,0.0,0.0,0.0,0.0,0.3319784024484332
1666090218400976899,0.0,0.0,0.0,0.0,0.0,0.3204638378148142
1666090218451367838,0.0,0.0,0.0,0.0,0.0,0.3204638378148142
1666090218500297339,0.0,0.0,0.0,0.0,0.0,0.3055164270825554
1666090218550215171,0.0,0.0,0.0,0.0,0.0,0.3055164270825554
1666090218599897470,0.0,0.0,0.0,0.0,0.0,0.23864481650847058
1666090218650207153,0.0,0.0,0.0,0.0,0.0,0.23160059932677066
1666090218700113153,0.0,0.0,0.0,0.0,0.0,0.23160059932677066
