%time,field.linear.x,field.linear.y,field.linear.z,field.angular.x,field.angular.y,field.angular.z
1663935905542400888,0.0,0.0,0.0,0.0,0.0,0.0
1663935905561919393,0.0,0.0,0.0,0.0,0.0,0.0
1663935905581778134,0.0,0.0,0.0,0.0,0.0,0.0
1663935905601332287,0.0,0.0,0.0,0.0,0.0,0.0
1663935905621316768,0.0,0.0,0.0,0.0,0.0,0.0
1663935905642708218,0.0,0.0,0.0,0.0,0.0,0.0
1663935905662388591,0.0,0.0,0.0,0.0,0.0,0.0
1663935905682639028,0.0,0.0,0.0,0.0,0.0,0.0
1663935905702618395,0.0,0.0,0.0,0.0,0.0,0.0
1663935905743986085,0.0,0.0,0.0,0.0,0.0,0.0
1663935905743998743,0.0,0.0,0.0,0.0,0.0,0.0
1663935905788024434,0.0,0.0,0.0,0.0,0.0,0.0
1663935905788051065,0.0,0.0,0.0,0.0,0.0,0.0
1663935905832044933,0.0,0.0,0.0,0.0,0.0,0.0
1663935905832078255,0.0,0.0,0.0,0.0,0.0,0.0
1663935905875992248,0.0,0.0,0.0,0.0,0.0,0.0
1663935905876003651,0.0,0.0,0.0,0.0,0.0,0.0
1663935905920091602,0.0,0.0,0.0,0.0,0.0,0.0
1663935905920134328,0.0,0.0,0.0,0.0,0.0,0.0
1663935905964238545,0.0,0.0,0.0,0.0,0.0,0.0
1663935905964254565,0.0,0.0,0.0,0.0,0.0,0.0
1663935905964264550,0.0,0.0,0.0,0.0,0.0,0.0
1663935906008031655,0.0,0.0,0.0,0.0,0.0,0.0
1663935906008049614,0.0,0.0,0.0,0.0,0.0,0.0
1663935906022208880,0.0,0.0,0.0,0.0,0.0,0.0
1663935906042419876,0.0,0.0,0.0,0.0,0.0,0.0
1663935906087965366,0.0,0.0,0.0,0.0,0.0,0.0
1663935906087977278,0.0,0.0,0.0,0.0,0.0,0.0
1663935906135977292,0.0,0.0,0.0,0.0,0.0,0.0
1663935906135990439,0.0,0.0,0.0,0.0,0.0,0.0
1663935906179998390,0.0,0.0,0.0,0.0,0.0,0.0
1663935906180020327,0.0,0.0,0.0,0.0,0.0,0.0
1663935906223981548,0.0,0.0,0.0,0.0,0.0,0.0
1663935906223996639,0.0,0.0,0.0,0.0,0.0,0.0
1663935906224001695,0.0,0.0,0.0,0.0,0.0,0.0
1663935906267965679,0.0,0.0,0.0,0.0,0.0,0.0
1663935906267975758,0.0,0.0,0.0,0.0,0.0,0.0
1663935906282197121,0.0,0.0,0.0,0.0,0.0,0.0
1663935906302374404,0.0,0.0,0.0,0.0,0.0,0.0
1663935906343972430,0.0,0.0,0.0,0.0,0.0,0.0
1663935906343983173,0.0,0.0,0.0,0.0,0.0,0.0
1663935906388139968,0.0,0.0,0.0,0.0,0.0,0.0
1663935906388164823,0.0,0.0,0.0,0.0,0.0,0.0
1663935906431988429,0.0,0.0,0.0,0.0,0.0,0.0
1663935906432005370,0.0,0.0,0.0,0.0,0.0,0.0
1663935906479960081,0.0,0.0,0.0,0.0,0.0,0.0
1663935906479969889,0.0,0.0,0.0,0.0,0.0,0.0
1663935906524006949,0.0,0.0,0.0,0.0,0.0,0.0
1663935906524026841,0.0,0.0,0.0,0.0,0.0,0.0
1663935906524034960,0.0,0.0,0.0,0.0,0.0,0.0
1663935906572033360,0.0,0.0,0.0,0.0,0.0,0.0
1663935906572054001,0.0,0.0,0.0,0.0,0.0,0.0
1663935906582044558,0.0,0.0,0.0,0.0,0.0,0.0
1663935906602845837,0.0,0.0,0.0,0.0,0.0,0.0
1663935906650355145,0.0,0.0,0.0,0.0,0.0,0.0
1663935906650380018,0.0,0.0,0.0,0.0,0.0,0.0
1663935906691991692,0.0,0.0,0.0,0.0,0.0,0.0
1663935906692008996,0.0,0.0,0.0,0.0,0.0,0.0
1663935906735966115,0.0,0.0,0.0,0.0,0.0,0.0
1663935906735978966,0.0,0.0,0.0,0.0,0.0,0.0
1663935906779972341,0.0,0.0,0.0,0.0,0.0,0.0
1663935906780004072,0.0,0.0,0.0,0.0,0.0,0.0
1663935906828014193,0.0,0.0,0.0,0.0,0.0,0.0
1663935906828030017,0.0,0.0,0.0,0.0,0.0,0.0
1663935906828038803,0.0,0.0,0.0,0.0,0.0,0.0
1663935906871952779,0.0,0.0,0.0,0.0,0.0,0.0
1663935906871963973,0.0,0.0,0.0,0.0,0.0,0.0
1663935906882991481,0.0,0.0,0.0,0.0,0.0,0.0
1663935906903231232,0.0,0.0,0.0,0.0,0.0,0.0
1663935906943950485,0.0,0.0,0.0,0.0,0.0,0.0
1663935906943961635,0.0,0.0,0.0,0.0,0.0,0.0
1663935907000874496,0.0,0.0,0.0,0.0,0.0,0.0
1663935907000886355,0.0,0.0,0.0,0.0,0.0,0.0
1663935907044138228,0.0,0.0,0.0,0.0,0.0,0.0
1663935907044153598,0.0,0.0,0.0,0.0,0.0,0.0
1663935907044160132,0.0,0.0,0.0,0.0,0.0,0.0
1663935907088042473,0.0,0.0,0.0,0.0,0.0,0.0
1663935907088056455,0.0,0.0,0.0,0.0,0.0,0.0
1663935907103427764,0.0,0.0,0.0,0.0,0.0,0.0
1663935907123116390,0.0,0.0,0.0,0.0,0.0,0.0
1663935907168416405,0.0,0.0,0.0,0.0,0.0,0.0
1663935907168462124,0.0,0.0,0.0,0.0,0.0,0.0
1663935907211965265,0.0,0.0,0.0,0.0,0.0,0.0
1663935907211978694,0.0,0.0,0.0,0.0,0.0,0.0
1663935907260032252,0.0,0.0,0.0,0.0,0.0,0.0
1663935907260044901,0.0,0.0,0.0,0.0,0.0,0.0
1663935907308017599,0.0,0.0,0.0,0.0,0.0,0.0
1663935907308037065,0.0,0.0,0.0,0.0,0.0,0.0
1663935907308048461,0.0,0.0,0.0,0.0,0.0,0.0
1663935907355976507,0.0,0.0,0.0,0.0,0.0,0.0
1663935907355990476,0.0,0.0,0.0,0.0,0.0,0.0
1663935907362867208,0.0,0.0,0.0,0.0,0.0,0.0
1663935907382954257,0.0,0.0,0.0,0.0,0.0,0.0
1663935907428139069,0.0,0.0,0.0,0.0,0.0,0.0
1663935907428158577,0.0,0.0,0.0,0.0,0.0,0.0
1663935907472004765,0.0,0.0,0.0,0.0,0.0,0.0
1663935907472022790,0.0,0.0,0.0,0.0,0.0,0.0
1663935907516135755,0.0,0.0,0.0,0.0,0.0,0.0
1663935907516166117,0.0,0.0,0.0,0.0,0.0,0.0
1663935907560082788,0.0,0.0,0.0,0.0,0.0,0.0
1663935907560119766,0.0,0.0,0.0,0.0,0.0,0.0
1663935907604088935,0.0,0.0,0.0,0.0,0.0,0.0
1663935907604127188,0.0,0.0,0.0,0.0,0.0,0.0
1663935907604137069,0.0,0.0,0.0,0.0,0.0,0.0
1663935907648051734,0.0,0.0,0.0,0.0,0.0,0.0
1663935907648070895,0.0,0.0,0.0,0.0,0.0,0.0
1663935907662878621,0.0,0.0,0.0,0.0,0.0,0.0
1663935907682609761,0.0,0.0,0.0,0.0,0.0,0.0
1663935907728068101,0.0,0.0,0.0,0.0,0.0,0.0
1663935907728083557,0.0,0.0,0.0,0.0,0.0,0.0
1663935907772105543,0.0,0.0,0.0,0.0,0.0,0.0
1663935907772133325,0.0,0.0,0.0,0.0,0.0,0.0
1663935907816002439,0.0,0.0,0.0,0.0,0.0,0.0
1663935907816013948,0.0,0.0,0.0,0.0,0.0,0.0
1663935907860021821,0.0,0.0,0.0,0.0,0.0,0.0
1663935907860040524,0.0,0.0,0.0,0.0,0.0,0.0
1663935907908146118,0.0,0.0,0.0,0.0,0.0,0.0
1663935907908177681,0.0,0.0,0.0,0.0,0.0,0.0
1663935907908216717,0.0,0.0,0.0,0.0,0.0,0.0
1663935907952107671,0.0,0.0,0.0,0.0,0.0,0.0
1663935907952135776,0.0,0.0,0.0,0.0,0.0,0.0
1663935907964112504,0.0,0.0,0.0,0.0,0.0,0.0
1663935907983724219,0.0,0.0,0.0,0.0,0.0,0.0
1663935908028058362,0.0,0.0,0.0,0.0,0.0,0.0
1663935908028085430,0.0,0.0,0.0,0.0,0.0,0.0
1663935908076078385,0.0,0.0,0.0,0.0,0.0,0.0
1663935908076092249,0.0,0.0,0.0,0.0,0.0,0.0
1663935908123998155,0.0,0.0,0.0,0.0,0.0,0.0
1663935908124017628,0.0,0.0,0.0,0.0,0.0,0.0
1663935908124024070,0.0,0.0,0.0,0.0,0.0,0.0
1663935908172070631,0.0,0.0,0.0,0.0,0.0,0.0
1663935908172091431,0.0,0.0,0.0,0.0,0.0,0.0
1663935908182810781,0.0,0.0,0.0,0.0,0.0,0.0
1663935908202698531,0.0,0.0,0.0,0.0,0.0,0.0
1663935908248006328,0.0,0.0,0.0,0.0,0.0,0.0
1663935908248021065,0.0,0.0,0.0,0.0,0.0,0.0
1663935908292068213,0.0,0.0,0.0,0.0,0.0,0.0
1663935908292094738,0.0,0.0,0.0,0.0,0.0,0.0
1663935908336055459,0.0,0.0,0.0,0.0,0.0,0.0
1663935908336075611,0.0,0.0,0.0,0.0,0.0,0.0
1663935908380000127,0.0,0.0,0.0,0.0,0.0,0.0
1663935908380019188,0.0,0.0,0.0,0.0,0.0,0.0
1663935908424040788,0.0,0.0,0.0,0.0,0.0,0.0
1663935908424060222,0.0,0.0,0.0,0.0,0.0,0.0
1663935908424066304,0.0,0.0,0.0,0.0,0.0,0.0
1663935908468112682,0.0,0.0,0.0,0.0,0.0,0.0
1663935908468143358,0.0,0.0,0.0,0.0,0.0,0.0
1663935908483557646,0.0,0.0,0.0,0.0,0.0,0.0
1663935908503988841,0.0,0.0,0.0,0.0,0.0,0.0
1663935908544049373,0.0,0.0,0.0,0.0,0.0,0.0
1663935908544070063,0.0,0.0,0.0,0.0,0.0,0.0
1663935908592013363,0.0,0.0,0.0,0.0,0.0,0.0
1663935908592031644,0.0,0.0,0.0,0.0,0.0,0.0
1663935908636733889,0.0,0.0,0.0,0.0,0.0,0.0
1663935908636786252,0.0,0.0,0.0,0.0,0.0,0.0
1663935908684076080,0.0,0.0,0.0,0.0,0.0,0.0
1663935908684106749,0.0,0.0,0.0,0.0,0.0,0.0
1663935908684126940,0.0,0.0,0.0,0.0,0.0,0.0
1663935908728153321,0.0,0.0,0.0,0.0,0.0,0.0
1663935908728197613,0.0,0.0,0.0,0.0,0.0,0.0
1663935908743029266,0.0,0.0,0.0,0.0,0.0,0.0
1663935908763271006,0.0,0.0,0.0,0.0,0.0,0.0
1663935908808067481,0.0,0.0,0.0,0.0,0.0,0.0
1663935908808115397,0.0,0.0,0.0,0.0,0.0,0.0
1663935908856035937,0.0,0.0,0.0,0.0,0.0,0.0
1663935908856058537,0.0,0.0,0.0,0.0,0.0,0.0
1663935908900023899,0.0,0.0,0.0,0.0,0.0,0.0
1663935908900047868,0.0,0.0,0.0,0.0,0.0,0.0
1663935908944001093,0.0,0.0,0.0,0.0,0.0,0.0
1663935908944019496,0.0,0.0,0.0,0.0,0.0,0.0
1663935908944056314,0.0,0.0,0.0,0.0,0.0,0.0
1663935908992188247,0.0,0.0,0.0,0.0,0.0,0.0
1663935908992227692,0.0,0.0,0.0,0.0,0.0,0.0
1663935909003435308,0.0,0.0,0.0,0.0,0.0,0.0
1663935909024018451,0.0,0.0,0.0,0.0,0.0,0.0
1663935909064039967,0.0,0.0,0.0,0.0,0.0,0.0
1663935909064063003,0.0,0.0,0.0,0.0,0.0,0.0
1663935909108511749,0.0,0.0,0.0,0.0,0.0,0.0
1663935909108551865,0.0,0.0,0.0,0.0,0.0,0.0
1663935909156580243,0.0,0.0,0.0,0.0,0.0,0.0
1663935909156633456,0.0,0.0,0.0,0.0,0.0,0.0
1663935909204088707,0.0,0.0,0.0,0.0,0.0,0.0
1663935909204104769,0.0,0.0,0.0,0.0,0.0,0.0
1663935909248013932,0.0,0.0,0.0,0.0,0.0,0.0
1663935909248033119,0.0,0.0,0.0,0.0,0.0,0.0
1663935909248045937,0.0,0.0,0.0,0.0,0.0,0.0
1663935909292134187,0.0,0.0,0.0,0.0,0.0,0.0
1663935909292163302,0.0,0.0,0.0,0.0,0.0,0.0
1663935909303246702,0.0,0.0,0.0,0.0,0.0,0.0
1663935909324288650,0.0,0.0,0.0,0.0,0.0,0.0
1663935909372086833,0.0,0.0,0.0,0.0,0.0,0.0
1663935909372119068,0.0,0.0,0.0,0.0,0.0,0.0
1663935909420357691,0.0,0.0,0.0,0.0,0.0,0.0
1663935909420395907,0.0,0.0,0.0,0.0,0.0,0.0
1663935909464083370,0.0,0.0,0.0,0.0,0.0,0.0
1663935909464125249,0.0,0.0,0.0,0.0,0.0,0.0
1663935909464136868,0.0,0.0,0.0,0.0,0.0,0.0
1663935909512116178,0.0,0.0,0.0,0.0,0.0,0.0
1663935909512132578,0.0,0.0,0.0,0.0,0.0,0.0
1663935909524159760,0.0,0.0,0.0,0.0,0.0,0.0
1663935909543952774,0.0,0.0,0.0,0.0,0.0,0.0
1663935909588628946,0.0,0.0,0.0,0.0,0.0,0.0
1663935909588664737,0.0,0.0,0.0,0.0,0.0,0.0
1663935909635986099,0.0,0.0,0.0,0.0,0.0,0.0
1663935909636001567,0.0,0.0,0.0,0.0,0.0,0.0
1663935909680083816,0.0,0.0,0.0,0.0,0.0,0.0
1663935909680109174,0.0,0.0,0.0,0.0,0.0,0.0
1663935909728055548,0.0,0.0,0.0,0.0,0.0,0.0
1663935909728073886,0.0,0.0,0.0,0.0,0.0,0.0
1663935909728086495,0.0,0.0,0.0,0.0,0.0,0.0
1663935909772059644,0.0,0.0,0.0,0.0,0.0,0.0
1663935909772088252,0.0,0.0,0.0,0.0,0.0,0.0
1663935909785132094,0.0,0.0,0.0,0.0,0.0,0.0
1663935909803593135,0.0,0.0,0.0,0.0,0.0,0.0
1663935909844019913,0.0,0.0,0.0,0.0,0.0,0.0
1663935909844036899,0.0,0.0,0.0,0.0,0.0,0.0
1663935909892380454,0.0,0.0,0.0,0.0,0.0,0.0
1663935909892426958,0.0,0.0,0.0,0.0,0.0,0.0
1663935909935982737,0.0,0.0,0.0,0.0,0.0,0.0
1663935909935998390,0.0,0.0,0.0,0.0,0.0,0.0
1663935909980168828,0.0,0.0,0.0,0.0,0.0,0.0
1663935909980192981,0.0,0.0,0.0,0.0,0.0,0.0
1663935910028094783,0.0,0.0,0.0,0.0,0.0,0.0
1663935910046981459,0.0,0.0,0.0,0.0,0.0,0.0
1663935910103766050,0.0,0.0,0.0,0.0,0.0,0.0
1663935910144070668,0.0,0.0,0.0,0.0,0.0,0.0
1663935910192130400,0.0,0.0,0.0,0.0,0.0,0.0
1663935910192158931,0.0,0.0,0.0,0.0,0.0,0.0
1663935910192183349,0.0,0.0,0.0,0.0,0.0,0.0
1663935910239991554,0.0,0.0,0.0,0.0,0.0,0.0
1663935910240017896,0.0,0.0,0.0,0.0,0.0,0.0
1663935910244766124,0.0,0.0,0.0,0.0,0.0,0.0
1663935910264776824,0.0,0.0,0.0,0.0,0.0,0.0
1663935910308003054,0.0,0.0,0.0,0.0,0.0,0.0
1663935910308019841,0.0,0.0,0.0,0.0,0.0,0.0
1663935910356121502,0.0,0.0,0.0,0.0,0.0,0.0
1663935910356147656,0.0,0.0,0.0,0.0,0.0,0.0
1663935910400208987,0.0,0.0,0.0,0.0,0.0,0.0
1663935910400245320,0.0,0.0,0.0,0.0,0.0,0.0
1663935910444108759,0.0,0.0,0.0,0.0,0.0,0.0
1663935910444151855,0.0,0.0,0.0,0.0,0.0,0.0
1663935910488065975,0.0,0.0,0.0,0.0,0.0,0.0
1663935910488090159,0.0,0.0,0.0,0.0,0.0,0.0
1663935910488097497,0.0,0.0,0.0,0.0,0.0,0.0
1663935910532021373,0.0,0.0,0.0,0.0,0.0,0.0
1663935910532042776,0.0,0.0,0.0,0.0,0.0,0.0
1663935910544865285,0.0,0.0,0.0,0.0,0.0,0.0
1663935910564285658,0.0,0.0,0.0,0.0,0.0,0.0
1663935910607996573,0.0,0.0,0.0,0.0,0.0,0.0
1663935910608012852,0.0,0.0,0.0,0.0,0.0,0.0
1663935910652142040,0.0,0.0,0.0,0.0,0.0,0.0
1663935910652176230,0.0,0.0,0.0,0.0,0.0,0.0
1663935910700021761,0.0,0.0,0.0,0.0,0.0,0.0
1663935910700039685,0.0,0.0,0.0,0.0,0.0,0.0
1663935910743997483,0.0,0.0,0.0,0.0,0.0,0.0
1663935910744021640,0.0,0.0,0.0,0.0,0.0,0.0
1663935910788104685,0.0,0.0,0.0,0.0,0.0,0.0
1663935910788130404,0.0,0.0,0.0,0.0,0.0,0.0
1663935910788151282,0.0,0.0,0.0,0.0,0.0,0.0
1663935910832021785,0.0,0.0,0.0,0.0,0.0,0.0
1663935910832039993,0.0,0.0,0.0,0.0,0.0,0.0
1663935910845403387,0.0,0.0,0.0,0.0,0.0,0.0
1663935910864356925,0.0,0.0,0.0,0.0,0.0,0.0
1663935910907991064,0.0,0.0,0.0,0.0,0.0,0.0
1663935910908005618,0.0,0.0,0.0,0.0,0.0,0.0
1663935910952063775,0.0,0.0,0.0,0.0,0.0,0.0
1663935910952104588,0.0,0.0,0.0,0.0,0.0,0.0
1663935910995993660,0.0,0.0,0.0,0.0,0.0,0.0
1663935910996013401,0.0,0.0,0.0,0.0,0.0,0.0
1663935911040067538,0.0,0.0,0.0,0.0,0.0,0.0
1663935911040109087,0.0,0.0,0.0,0.0,0.0,0.0
1663935911083982044,0.0,0.0,0.0,0.0,0.0,0.0
1663935911084000539,0.0,0.0,0.0,0.0,0.0,0.0
1663935911128040661,0.0,0.0,0.0,0.0,0.0,0.0
1663935911128062319,0.0,0.0,0.0,0.0,0.0,0.0
1663935911128069257,0.0,0.0,0.0,0.0,0.0,0.0
1663935911171965427,0.0,0.0,0.0,0.0,0.0,0.0
1663935911171981077,0.0,0.0,0.0,0.0,0.0,0.0
1663935911185266314,0.0,0.0,0.0,0.0,0.0,0.0
1663935911205165322,0.0,0.0,0.0,0.0,0.0,0.0
1663935911247979369,0.0,0.0,0.0,0.0,0.0,0.0
1663935911247995167,0.0,0.0,0.0,0.0,0.0,0.0
1663935911296045707,0.0,0.0,0.0,0.0,0.0,0.0
1663935911296068725,0.0,0.0,0.0,0.0,0.0,0.0
1663935911340011100,0.0,0.0,0.0,0.0,0.0,0.0
1663935911340030431,0.0,0.0,0.0,0.0,0.0,0.0
1663935911384084453,0.0,0.0,0.0,0.0,0.0,0.0
1663935911384109886,0.0,0.0,0.0,0.0,0.0,0.0
1663935911384127708,0.0,0.0,0.0,0.0,0.0,0.0
1663935911428007885,0.0,0.0,0.0,0.0,0.0,0.0
1663935911428033490,0.0,0.0,0.0,0.0,0.0,0.0
1663935911444263698,0.0,0.0,0.0,0.0,0.0,0.0
1663935911465905376,0.0,0.0,0.0,0.0,0.0,0.0
1663935911512048483,0.0,0.0,0.0,0.0,0.0,0.0
1663935911512079033,0.0,0.0,0.0,0.0,0.0,0.0
1663935911556079968,0.0,0.0,0.0,0.0,0.0,0.0
1663935911556111566,0.0,0.0,0.0,0.0,0.0,0.0
1663935911604080002,0.0,0.0,0.0,0.0,0.0,0.0
1663935911604119633,0.0,0.0,0.0,0.0,0.0,0.0
1663935911647988532,0.0,0.0,0.0,0.0,0.0,0.0
1663935911648020585,0.0,0.0,0.0,0.0,0.0,0.0
1663935911648050783,0.0,0.0,0.0,0.0,0.0,0.0
1663935911692264268,0.0,0.0,0.0,0.0,0.0,0.0
1663935911692309211,0.0,0.0,0.0,0.0,0.0,0.0
1663935911705417074,0.0,0.0,0.0,0.0,0.0,0.0
1663935911725678510,0.0,0.0,0.0,0.0,0.0,0.0
1663935911768220543,0.0,0.0,0.0,0.0,0.0,0.0
1663935911768270135,0.0,0.0,0.0,0.0,0.0,0.0
1663935911812119467,0.0,0.0,0.0,0.0,0.0,0.0
1663935911812163099,0.0,0.0,0.0,0.0,0.0,0.0
1663935911856030575,0.0,0.0,0.0,0.0,0.0,0.0
1663935911856055605,0.0,0.0,0.0,0.0,0.0,0.0
1663935911900326455,0.0,0.0,0.0,0.0,0.0,0.0
1663935911900368683,0.0,0.0,0.0,0.0,0.0,0.0
1663935911944152874,0.0,0.0,0.0,0.0,0.0,0.0
1663935911944196999,0.0,0.0,0.0,0.0,0.0,0.0
1663935911988327263,0.0,0.0,0.0,0.0,0.0,0.0
1663935911988359637,0.0,0.0,0.0,0.0,0.0,0.0
1663935911988384941,0.0,0.0,0.0,0.0,0.0,0.0
1663935912032120016,0.0,0.0,0.0,0.0,0.0,0.0
1663935912032164626,0.0,0.0,0.0,0.0,0.0,0.0
1663935912045207867,0.0,0.0,0.0,0.0,0.0,0.0
1663935912064831451,0.0,0.0,0.0,0.0,0.0,0.0
1663935912108117651,0.0,0.0,0.0,0.0,0.0,0.0
1663935912108141247,0.0,0.0,0.0,0.0,0.0,0.0
1663935912152113494,0.0,0.0,0.0,0.0,0.0,0.0
1663935912152167196,0.0,0.0,0.0,0.0,0.0,0.0
1663935912196142810,0.0,0.0,0.0,0.0,0.0,0.0
1663935912196194079,0.0,0.0,0.0,0.0,0.0,0.0
1663935912240007269,0.0,0.0,0.0,0.0,0.0,0.0
1663935912240026761,0.0,0.0,0.0,0.0,0.0,0.0
1663935912284110513,0.0,0.0,0.0,0.0,0.0,0.0
1663935912284136437,0.0,0.0,0.0,0.0,0.0,0.0
1663935912332094248,0.0,0.0,0.0,0.0,0.0,0.0
1663935912332161089,0.0,0.0,0.0,0.0,0.0,0.0
1663935912332192545,0.0,0.0,0.0,0.0,0.0,0.0
1663935912376195477,0.0,0.0,0.0,0.0,0.0,0.0
1663935912376232070,0.0,0.0,0.0,0.0,0.0,0.0
1663935912386627198,0.0,0.0,0.0,0.0,0.0,0.0
1663935912406000430,0.0,0.0,0.0,0.0,0.0,0.0
1663935912448130718,0.0,0.0,0.0,0.0,0.0,0.0
1663935912448185496,0.0,0.0,0.0,0.0,0.0,0.0
1663935912492356163,0.0,0.0,0.0,0.0,0.0,0.0006981317007977319
1663935912492484877,0.0,0.0,0.0,0.0,0.0,0.0006981317007977319
1663935912536208454,0.0,0.0,0.0,0.0,0.0,0.0010471975511965976
1663935912536228328,0.0,0.0,0.0,0.0,0.0,0.0005235987755982988
1663935912584302631,0.0,0.0,0.0,0.0,0.0,0.00034906585039886593
1663935912584368671,0.0,0.0,0.0,0.0,0.0,-0.0006981317007977319
1663935912624325137,0.021323022083379328,0.0,0.0,0.0,0.0,-0.0013962634015954637
1663935912624383551,0.025587626500055197,0.0,0.0,0.0,0.0,0.0005235987755982988
1663935912668176226,0.008529208833351731,0.0,0.0,0.0,0.0,-0.0017453292519943296
1663935912668204130,0.010661511041689664,0.0,0.0,0.0,0.0,-0.0010471975511965976
1663935912671989835,0.012793813250027599,0.0,0.0,0.0,0.0,0.00017453292519943296
1663935912712060784,0.03198453312506899,0.0,0.0,0.0,0.0,0.007679448708775049
1663935912712084720,0.029852230916731063,0.0,0.0,0.0,0.0,0.0038397243543875246
1663935912726652630,0.034116835333406925,0.0,0.0,0.0,0.0,0.0012217304763960308
1663935912747580702,0.025587626500055197,0.0,0.0,0.0,0.0,-0.0012217304763960308
1663935912788111720,0.03198453312506899,0.0,0.0,0.0,0.0,0.00034906585039886593
1663935912788150823,0.04691064858343452,0.0,0.0,0.0,0.0,0.002967059728390361
1663935912832128422,0.05330755520844832,0.0,0.0,0.0,0.0,0.006632251157578452
1663935912832169347,0.06396906625013798,0.0,0.0,0.0,0.0,0.009075712110370514
1663935912876330755,0.05543985741678625,0.0,0.0,0.0,0.0,0.016057029118347832
1663935912876394969,0.059704461833462126,0.0,0.0,0.0,0.0,0.011693705988362009
1663935912920087411,0.07249827508348972,0.0,0.0,0.0,0.0,0.008028514559173916
1663935912920107906,0.08315978612517938,0.0,0.0,0.0,0.0,0.003316125578789226
1663935912968189391,0.09382129716686904,0.0,0.0,0.0,0.0,0.0008726646259971648
1663935912968249359,0.08955669275019319,0.0,0.0,0.0,0.0,0.01291543646475804
1663935912968286810,0.08529208833351731,0.0,0.0,0.0,0.0,0.017453292519943295
1663935913012112974,0.09808590158354492,0.0,0.0,0.0,0.0,0.012217304763960306
1663935913012176610,0.10661511041689664,0.0,0.0,0.0,0.0,0.013264502315156903
1663935913026114052,0.12580583029193804,0.0,0.0,0.0,0.0,0.019547687622336492
1663935913045795011,0.11727662145858632,0.0,0.0,0.0,0.0,0.019896753472735354
1663935913088199738,0.11301201704191044,0.0,0.0,0.0,0.0,0.004886921905584123
1663935913088247311,0.1300704347086139,0.0,0.0,0.0,0.0,0.0012217304763960308
1663935913132164848,0.13220273691695184,0.0,0.0,0.0,0.0,0.009948376736367677
1663935913132197141,0.1556580612086691,0.0,0.0,0.0,0.0,0.012566370614359173
1663935913180030670,0.1492611545836553,0.0,0.0,0.0,0.0,0.006108652381980153
1663935913180051006,0.1407319457503036,0.0,0.0,0.0,0.0,0.013788101090755204
1663935913224172105,0.15139345679199323,0.0,0.0,0.0,0.0,0.01902408884673819
1663935913224221806,0.16205496783368292,0.0,0.0,0.0,0.0,0.013788101090755204
1663935913268153058,0.17698108329204845,0.0,0.0,0.0,0.0,0.0022689280275926286
1663935913268194506,0.17698108329204845,0.0,0.0,0.0,0.0,-0.00715584993317675
1663935913268337940,0.17911338550038639,0.0,0.0,0.0,0.0,-0.01291543646475804
1663935913316197668,0.18337798991706222,0.0,0.0,0.0,0.0,-0.0012217304763960308
1663935913316224430,0.19190719875041395,0.0,0.0,0.0,0.0,-0.007679448708775049
1663935913332351220,0.20683331420877948,0.0,0.0,0.0,0.0,0.0
1663935913346789311,0.19830410537542775,0.0,0.0,0.0,0.0,0.007679448708775049
1663935913388093127,0.20256870979210362,0.0,0.0,0.0,0.0,0.010297442586766544
1663935913388126295,0.20896561641711744,0.0,0.0,0.0,0.0,0.024434609527920613
1663935913432140047,0.21749482525046915,0.0,0.0,0.0,0.0,0.02076941809873252
1663935913432194202,0.23455324291717264,0.0,0.0,0.0,0.0,0.012740903539558606
1663935913476100420,0.22815633629215884,0.0,0.0,0.0,0.0,0.009250245035569947
1663935913476131005,0.22389173187548297,0.0,0.0,0.0,0.0,0.013788101090755204
1663935913520171546,0.23455324291717264,0.0,0.0,0.0,0.0,0.00645771823237902
1663935913520203867,0.2388178473338485,0.0,0.0,0.0,0.0,0.003490658503988659
1663935913564239478,0.25587626500055194,0.0,0.0,0.0,0.0,0.005235987755982988
1663935913564305093,0.24947935837553817,0.0,0.0,0.0,0.0,0.010471975511965976
1663935913608770408,0.24734705616720024,0.0,0.0,0.0,0.0,0.017453292519943295
1663935913608809813,0.25587626500055194,0.0,0.0,0.0,0.0,0.014660765716752367
1663935913608967357,0.27080238045891747,0.0,0.0,0.0,0.0,0.006632251157578452
1663935913656945221,0.2814638915006072,0.0,0.0,0.0,0.0,0.009075712110370514
1663935913656979187,0.28359619370894507,0.0,0.0,0.0,0.0,0.01064650843716541
1663935913667547930,0.2729346826672554,0.0,0.0,0.0,0.0,0.01291543646475804
1663935913686489823,0.2814638915006072,0.0,0.0,0.0,0.0,0.006283185307179587
1663935913728156194,0.28359619370894507,0.0,0.0,0.0,0.0,0.006806784082777885
1663935913728182744,0.30918382020900026,0.0,0.0,0.0,0.0,0.021467549799530253
1663935913772174273,0.3113161224173382,0.0,0.0,0.0,0.0,0.022863813201125717
1663935913772212985,0.30918382020900026,0.0,0.0,0.0,0.0,-0.004886921905584123
1663935913820153523,0.317713029042352,0.0,0.0,0.0,0.0,-0.008726646259971648
1663935913820202378,0.31984533125069,0.0,0.0,0.0,0.0,0.007504915783575617
1663935913868023734,0.34330065554240724,0.0,0.0,0.0,0.0,0.004363323129985824
1663935913868039548,0.34116835333406925,0.0,0.0,0.0,0.0,-0.018675022996339326
1663935913868067019,0.34116835333406925,0.0,0.0,0.0,0.0,-0.026878070480712675
1663935913912248366,0.34330065554240724,0.0,0.0,0.0,0.0,-0.013962634015954637
1663935913912308380,0.3560944687924348,0.0,0.0,0.0,0.0,-0.006108652381980153
1663935913927180715,0.3731528864591383,0.0,0.0,0.0,0.0,-0.01658062789394613
1663935913946652033,0.36035907320911065,0.0,0.0,0.0,0.0,-0.017278759594743863
1663935913992122882,0.3539621665840969,0.0,0.0,0.0,0.0,-0.004886921905584123
1663935913992635910,0.36888828204246243,0.0,0.0,0.0,0.0,-0.00715584993317675
1663935914036141806,0.3646236776257865,0.0,0.0,0.0,0.0,-0.014137166941154071
1663935914036199611,0.34116835333406925,0.0,0.0,0.0,0.0,-0.012391837689159739
1663935914080051995,0.3454329577507451,0.0,0.0,0.0,0.0,-0.0015707963267948967
1663935914080067363,0.3539621665840969,0.0,0.0,0.0,0.0,-0.018675022996339326
1663935914124130931,0.317713029042352,0.0,0.0,0.0,0.0,-0.008377580409572781
1663935914124162761,0.32410993566736584,0.0,0.0,0.0,0.0,-0.0036651914291880917
1663935914168152167,0.32837454008404166,0.0,0.0,0.0,0.0,0.00034906585039886593
1663935914168182779,0.33050684229237964,0.0,0.0,0.0,0.0,0.012217304763960306
1663935914168240632,0.32837454008404166,0.0,0.0,0.0,0.0,0.01972222054753592
1663935914212644823,0.3326391445007175,0.0,0.0,0.0,0.0,0.01117010721276371
1663935914212704931,0.3262422378757037,0.0,0.0,0.0,0.0,0.00645771823237902
1663935914228314005,0.3347714467090555,0.0,0.0,0.0,0.0,0.01815142422074103
1663935914246654679,0.3326391445007175,0.0,0.0,0.0,0.0,0.02548180707911721
1663935914288065575,0.3347714467090555,0.0,0.0,0.0,0.0,0.007504915783575617
1663935914288090102,0.31984533125069,0.0,0.0,0.0,0.0,-0.0038397243543875246
1663935914332071545,0.30491921579232445,0.0,0.0,0.0,0.0,-0.0031415926535897933
1663935914332132007,0.3113161224173382,0.0,0.0,0.0,0.0,0.014835298641951801
1663935914376184961,0.3134484246256761,0.0,0.0,0.0,0.0,0.010995574287564275
1663935914376216834,0.32197763345902786,0.0,0.0,0.0,0.0,-0.030368728984701335
1663935914424102649,0.28786079812562093,0.0,0.0,0.0,0.0,-0.0158824961931484
1663935914424126899,0.28786079812562093,0.0,0.0,0.0,0.0,-0.00017453292519943296
1663935914468407992,0.28786079812562093,0.0,0.0,0.0,0.0,-0.01291543646475804
1663935914468496996,0.29425770475063473,0.0,0.0,0.0,0.0,-0.03298672286269282
1663935914468523491,0.30278691358398646,0.0,0.0,0.0,0.0,-0.022165681500327987
1663935914512040630,0.28999310033395886,0.0,0.0,0.0,0.0,-0.0038397243543875246
1663935914512061568,0.28786079812562093,0.0,0.0,0.0,0.0,-0.006981317007977318
1663935914527651851,0.2771992870839313,0.0,0.0,0.0,0.0,-0.027925268031909273
1663935914550068540,0.26867007825057954,0.0,0.0,0.0,0.0,-0.023736477827122886
1663935914592110194,0.27080238045891747,0.0,0.0,0.0,0.0,-0.011344640137963142
1663935914592159553,0.27506698487559333,0.0,0.0,0.0,0.0,0.006632251157578452
1663935914636099319,0.26440547383390367,0.0,0.0,0.0,0.0,0.023038346126325153
1663935914636124696,0.2601408694172278,0.0,0.0,0.0,0.0,0.026529004630313806
1663935914680024979,0.26653777604224166,0.0,0.0,0.0,0.0,0.023561944901923447
1663935914680040875,0.27080238045891747,0.0,0.0,0.0,0.0,0.032114058236695664
1663935914724140561,0.24734705616720024,0.0,0.0,0.0,0.0,0.02757620218151041
1663935914724166587,0.24308245175052437,0.0,0.0,0.0,0.0,0.024434609527920613
1663935914772175552,0.24308245175052437,0.0,0.0,0.0,0.0,0.015009831567151233
1663935914772210972,0.2409501495421864,0.0,0.0,0.0,0.0,-0.005934119456780722
1663935914772255683,0.24521475395886227,0.0,0.0,0.0,0.0,-0.011868238913561443
1663935914816074104,0.24947935837553817,0.0,0.0,0.0,0.0,-0.0038397243543875246
1663935914816104076,0.24521475395886227,0.0,0.0,0.0,0.0,-0.0013962634015954637
1663935914827630294,0.2409501495421864,0.0,0.0,0.0,0.0,-0.023212879051524585
1663935914847134306,0.22602403408382088,0.0,0.0,0.0,0.0,-0.03106686068549907
1663935914888024195,0.23242094070883468,0.0,0.0,0.0,0.0,-0.02076941809873252
1663935914888052551,0.23455324291717264,0.0,0.0,0.0,0.0,-0.0054105206811824215
1663935914936018885,0.22602403408382088,0.0,0.0,0.0,0.0,0.011344640137963142
1663935914936051763,0.221759429667145,0.0,0.0,0.0,0.0,0.0012217304763960308
1663935914984179088,0.22815633629215884,0.0,0.0,0.0,0.0,-0.02757620218151041
1663935914984223637,0.2409501495421864,0.0,0.0,0.0,0.0,-0.033859387488689996
1663935915032014657,0.24308245175052437,0.0,0.0,0.0,0.0,0.021642082724729686
1663935915032064245,0.2388178473338485,0.0,0.0,0.0,0.0,0.034208453339088854
1663935915032072552,0.21749482525046915,0.0,0.0,0.0,0.0,0.032463124087094536
1663935915080141984,0.21536252304213124,0.0,0.0,0.0,0.0,0.02775073510670984
1663935915080163094,0.21323022083379328,0.0,0.0,0.0,0.0,0.043807764225057666
1663935915086808185,0.21536252304213124,0.0,0.0,0.0,0.0,0.05986479334340551
1663935915106970117,0.2196271274588071,0.0,0.0,0.0,0.0,0.060562925044203235
1663935915148244509,0.221759429667145,0.0,0.0,0.0,0.0,0.04834562028024293
1663935915148280846,0.21749482525046915,0.0,0.0,0.0,0.0,0.0291469985083053
1663935915192167624,0.21749482525046915,0.0,0.0,0.0,0.0,0.029321531433504733
1663935915192200546,0.22389173187548297,0.0,0.0,0.0,0.0,0.031415926535897934
1663935915240091944,0.22602403408382088,0.0,0.0,0.0,0.0,0.03874630939427412
1663935915240114099,0.22389173187548297,0.0,0.0,0.0,0.0,0.03647738136668148
1663935915284051433,0.22389173187548297,0.0,0.0,0.0,0.0,0.03874630939427412
1663935915284078415,0.22389173187548297,0.0,0.0,0.0,0.0,0.04363323129985824
1663935915328152557,0.22602403408382088,0.0,0.0,0.0,0.0,0.043807764225057666
1663935915328233987,0.22602403408382088,0.0,0.0,0.0,0.0,0.03752457891787808
1663935915328271093,0.22602403408382088,0.0,0.0,0.0,0.0,0.02530727415391778
1663935915374386795,0.22815633629215884,0.0,0.0,0.0,0.0,-0.003316125578789226
1663935915374408504,0.22815633629215884,0.0,0.0,0.0,0.0,-0.016406094968746697
1663935915388136688,0.22602403408382088,0.0,0.0,0.0,0.0,-0.012566370614359173
1663935915406685328,0.22815633629215884,0.0,0.0,0.0,0.0,-0.017453292519943295
1663935915452064818,0.24521475395886227,0.0,0.0,0.0,0.0,-0.035430183815484885
1663935915452099412,0.24734705616720024,0.0,0.0,0.0,0.0,-0.03752457891787808
1663935915496224432,0.24521475395886227,0.0,0.0,0.0,0.0,-0.023038346126325153
1663935915496250470,0.23668554512551054,0.0,0.0,0.0,0.0,-0.018500490071139894
1663935915544130921,0.24308245175052437,0.0,0.0,0.0,0.0,-0.026878070480712675
1663935915544176497,0.2409501495421864,0.0,0.0,0.0,0.0,-0.028623399732707
1663935915587992611,0.24947935837553817,0.0,0.0,0.0,0.0,-0.022165681500327987
1663935915588011796,0.24734705616720024,0.0,0.0,0.0,0.0,-0.006108652381980153
1663935915588017814,0.25587626500055194,0.0,0.0,0.0,0.0,-0.0024434609527920616
1663935915632184570,0.253743962792214,0.0,0.0,0.0,0.0,-0.004886921905584123
1663935915632274040,0.26867007825057954,0.0,0.0,0.0,0.0,-0.007504915783575617
1663935915648167135,0.26653777604224166,0.0,0.0,0.0,0.0,0.0
1663935915667555492,0.27080238045891747,0.0,0.0,0.0,0.0,0.00715584993317675
1663935915712041861,0.27080238045891747,0.0,0.0,0.0,0.0,0.0013962634015954637
1663935915712069575,0.2729346826672554,0.0,0.0,0.0,0.0,-0.00017453292519943296
1663935915756081665,0.2963900069589727,0.0,0.0,0.0,0.0,-0.002967059728390361
1663935915756157073,0.2921254025422968,0.0,0.0,0.0,0.0,0.006632251157578452
1663935915804956406,0.28359619370894507,0.0,0.0,0.0,0.0,0.007853981633974483
1663935915805005926,0.28359619370894507,0.0,0.0,0.0,0.0,-0.0031415926535897933
1663935915848077884,0.29425770475063473,0.0,0.0,0.0,0.0,-0.014486232791552934
1663935915848112175,0.2963900069589727,0.0,0.0,0.0,0.0,-0.013264502315156903
1663935915848132088,0.3006546113756486,0.0,0.0,0.0,0.0,-0.010297442586766544
1663935915892328952,0.29425770475063473,0.0,0.0,0.0,0.0,-0.006108652381980153
1663935915892491963,0.3113161224173382,0.0,0.0,0.0,0.0,-0.00890117918517108
1663935915907454540,0.317713029042352,0.0,0.0,0.0,0.0,-0.017278759594743863
1663935915927666359,0.32837454008404166,0.0,0.0,0.0,0.0,-0.010471975511965976
1663935915968228172,0.32837454008404166,0.0,0.0,0.0,0.0,-0.0038397243543875246
1663935915968294459,0.32837454008404166,0.0,0.0,0.0,0.0,-0.0012217304763960308
1663935916012191098,0.3369037489173934,0.0,0.0,0.0,0.0,0.0
1663935916012238717,0.3347714467090555,0.0,0.0,0.0,0.0,0.008203047484373348
1663935916056063540,0.3539621665840969,0.0,0.0,0.0,0.0,0.009599310885968814
1663935916056095399,0.3646236776257865,0.0,0.0,0.0,0.0,0.0031415926535897933
1663935916100091939,0.3560944687924348,0.0,0.0,0.0,0.0,0.024434609527920613
1663935916100120207,0.36249137541744864,0.0,0.0,0.0,0.0,0.041189770347066175
1663935916144138861,0.36675597983412445,0.0,0.0,0.0,0.0,0.04206243497306335
1663935916144187990,0.38807900191750383,0.0,0.0,0.0,0.0,0.04014257279586957
1663935916188355053,0.3752851886674762,0.0,0.0,0.0,0.0,0.03577924966588375
1663935916188419808,0.3838143975008279,0.0,0.0,0.0,0.0,0.045727626402251434
1663935916188443688,0.3902113041258417,0.0,0.0,0.0,0.0,0.046774823953448036
1663935916236288322,0.3923436063341797,0.0,0.0,0.0,0.0,0.029670597283903602
1663935916236327352,0.4072697217925452,0.0,0.0,0.0,0.0,0.031415926535897934
1663935916247396177,0.41579893062589696,0.0,0.0,0.0,0.0,0.04153883619746504
1663935916270244421,0.40300511737586936,0.0,0.0,0.0,0.0,0.04066617157146788
1663935916308672170,0.4072697217925452,0.0,0.0,0.0,0.0,0.03892084231947355
1663935916308762094,0.42006353504257277,0.0,0.0,0.0,0.0,0.04066617157146788
1663935916352185176,0.4392542549176142,0.0,0.0,0.0,0.0,0.033335788713091695
1663935916352219042,0.4349896505009383,0.0,0.0,0.0,0.0,0.03735004599267865
1663935916396170291,0.44351885933429,0.0,0.0,0.0,0.0,0.041189770347066175
1663935916396205441,0.4328573482926004,0.0,0.0,0.0,0.0,0.04031710572106901
1663935916440090323,0.43712195270927623,0.0,0.0,0.0,0.0,0.05235987755982988
1663935916440120078,0.4627095792093315,0.0,0.0,0.0,0.0,0.04817108735504349
1663935916488131172,0.44778346375096595,0.0,0.0,0.0,0.0,0.05445427266222308
1663935916488206731,0.46057727700099355,0.0,0.0,0.0,0.0,0.06230825429619756
1663935916488286239,0.46484188141766936,0.0,0.0,0.0,0.0,0.05742133239061344
1663935916535293836,0.4691064858343453,0.0,0.0,0.0,0.0,0.04817108735504349
1663935916535311720,0.49042950791772455,0.0,0.0,0.0,0.0,0.06911503837897545
1663935916548649771,0.4840326012927108,0.0,0.0,0.0,0.0,0.05864306286700947
1663935916568086334,0.47976799687603494,0.0,0.0,0.0,0.0,0.0582939970166106
1663935916608044353,0.49682641454273835,0.0,0.0,0.0,0.0,0.05759586531581287
1663935916608066758,0.48616490350104874,0.0,0.0,0.0,0.0,0.05916666164260777
1663935916652080127,0.507487925584428,0.0,0.0,0.0,0.0,0.0841248699461267
1663935916652103736,0.5160171344177797,0.0,0.0,0.0,0.0,0.0879645943005142
1663935916696126904,0.5160171344177797,0.0,0.0,0.0,0.0,0.13910274138394804
1663935916696177049,0.5202817388344556,0.0,0.0,0.0,0.0,0.13962634015954636
1663935916740019732,0.5096202277927661,0.0,0.0,0.0,0.0,0.1335176877775662
1663935916740038464,0.5224140410427935,0.0,0.0,0.0,0.0,0.14713125594312196
1663935916796654248,0.5266786454594694,0.0,0.0,0.0,0.0,0.1562069680534925
1663935916796700712,0.5309432498761453,0.0,0.0,0.0,0.0,0.18203784098300854
1663935916832182856,0.5458693653345108,0.0,0.0,0.0,0.0,0.18483036778619952
1663935916832233654,0.5394724587094971,0.0,0.0,0.0,0.0,0.17488199104983182
1663935916832254992,0.5565308763762006,0.0,0.0,0.0,0.0,0.21293016874330817
1663935916876097658,0.5543985741678626,0.0,0.0,0.0,0.0,0.20943951023931953
1663935916876134845,0.5437370631261729,0.0,0.0,0.0,0.0,0.21572269554649914
1663935916888158364,0.5480016675428488,0.0,0.0,0.0,0.0,0.222529479629277
1663935916906855774,0.5480016675428488,0.0,0.0,0.0,0.0,0.21258110289290932
1663935916948128224,0.5671923874178901,0.0,0.0,0.0,0.0,0.20577431881013142
1663935916948159614,0.5671923874178901,0.0,0.0,0.0,0.0,0.20542525295973257
1663935916992125062,0.5671923874178901,0.0,0.0,0.0,0.0,0.20804324683772407
1663935916992174095,0.5671923874178901,0.0,0.0,0.0,0.0,0.2090904443889207
1663935917036095172,0.5693246896262281,0.0,0.0,0.0,0.0,0.21362830044410594
1663935917036127566,0.5778538984595799,0.0,0.0,0.0,0.0,0.22916173078685548
1663935917084044786,0.5778538984595799,0.0,0.0,0.0,0.0,0.20943951023931953
1663935917084068788,0.5714569918345661,0.0,0.0,0.0,0.0,0.22759093446006054
1663935917132133672,0.5757215962512419,0.0,0.0,0.0,0.0,0.22375121010567306
1663935917132182240,0.5693246896262281,0.0,0.0,0.0,0.0,0.20629791758572974
1663935917132231336,0.5906477117096074,0.0,0.0,0.0,0.0,0.18884462506578648
1663935917176063944,0.5863831072929316,0.0,0.0,0.0,0.0,0.19338248112097173
1663935917176085659,0.5821185028762557,0.0,0.0,0.0,0.0,0.187448361664191
1663935917188449784,0.5565308763762006,0.0,0.0,0.0,0.0,0.210835773640915
1663935917207811247,0.5522662719595246,0.0,0.0,0.0,0.0,0.2059488517353309
1663935917248051049,0.5543985741678626,0.0,0.0,0.0,0.0,0.19460421159736774
1663935917292119098,0.5650600852095522,0.0,0.0,0.0,0.0,0.2197369528260861
1663935917292153483,0.5629277830012144,0.0,0.0,0.0,0.0,0.25359634031477607
1663935917292277514,0.5607954807928763,0.0,0.0,0.0,0.0,0.2556907354171693
1663935917336095988,0.5501339697511867,0.0,0.0,0.0,0.0,0.2546435378659727
1663935917336164364,0.5543985741678626,0.0,0.0,0.0,0.0,0.2541199390903744
1663935917348494834,0.5629277830012144,0.0,0.0,0.0,0.0,0.285012266850674
1663935917369958190,0.5501339697511867,0.0,0.0,0.0,0.0,0.2886774582798621
1663935917412152036,0.5629277830012144,0.0,0.0,0.0,0.0,0.27977627909469105
1663935917412193916,0.5629277830012144,0.0,0.0,0.0,0.0,0.26790804018112957
1663935917456043871,0.5735892940429039,0.0,0.0,0.0,0.0,0.2844886680750757
1663935917456065081,0.5821185028762557,0.0,0.0,0.0,0.0,0.2946115777366428
1663935917500113604,0.5735892940429039,0.0,0.0,0.0,0.0,0.2907718533822553
1663935917500175429,0.5714569918345661,0.0,0.0,0.0,0.0,0.24329889772800953
1663935917544117810,0.5671923874178901,0.0,0.0,0.0,0.0,0.23719024534602937
1663935917544157994,0.5629277830012144,0.0,0.0,0.0,0.0,0.260403124397554
1663935917588377505,0.5607954807928763,0.0,0.0,0.0,0.0,0.24905848425959082
1663935917588425137,0.5714569918345661,0.0,0.0,0.0,0.0,0.23439771854283847
1663935917632067175,0.5735892940429039,0.0,0.0,0.0,0.0,0.2307325271136504
1663935917632115392,0.5757215962512419,0.0,0.0,0.0,0.0,0.23335052099164186
1663935917632137332,0.5650600852095522,0.0,0.0,0.0,0.0,0.20734511513692636
1663935917679996686,0.5629277830012144,0.0,0.0,0.0,0.0,0.2076941809873252
1663935917680025029,0.5650600852095522,0.0,0.0,0.0,0.0,0.22113321622768156
1663935917687579023,0.5735892940429039,0.0,0.0,0.0,0.0,0.2192133540504878
1663935917708546955,0.5757215962512419,0.0,0.0,0.0,0.0,0.23649211364523165
1663935917752284362,0.5693246896262281,0.0,0.0,0.0,0.0,0.23876104167282428
1663935917752333172,0.5778538984595799,0.0,0.0,0.0,0.0,0.22200588085367873
1663935917796117729,0.5757215962512419,0.0,0.0,0.0,0.0,0.19739673840055869
1663935917796167151,0.5735892940429039,0.0,0.0,0.0,0.0,0.2124065699677099
1663935917840101089,0.5778538984595799,0.0,0.0,0.0,0.0,0.21764255772369293
1663935917840149233,0.5693246896262281,0.0,0.0,0.0,0.0,0.21781709064889232
1663935917884150703,0.5735892940429039,0.0,0.0,0.0,0.0,0.18535396656179778
1663935917884198312,0.5714569918345661,0.0,0.0,0.0,0.0,0.14521139376592823
1663935917928276783,0.5799862006679177,0.0,0.0,0.0,0.0,0.15690509975429023
1663935917928325655,0.5863831072929316,0.0,0.0,0.0,0.0,0.16912240451825053
1663935917972246120,0.5693246896262281,0.0,0.0,0.0,0.0,0.14695672301792254
1663935917972283207,0.5629277830012144,0.0,0.0,0.0,0.0,0.1244419756671957
1663935917972323594,0.5586631785845384,0.0,0.0,0.0,0.0,0.14189526818713902
1663935918020582196,0.5522662719595246,0.0,0.0,0.0,0.0,0.15795229730548682
1663935918020607359,0.5607954807928763,0.0,0.0,0.0,0.0,0.15009831567151233
1663935918028699532,0.5714569918345661,0.0,0.0,0.0,0.0,0.12514010736799341
1663935918048811658,0.5757215962512419,0.0,0.0,0.0,0.0,0.1165879940332212
1663935918092184474,0.5650600852095522,0.0,0.0,0.0,0.0,0.12932889757277982
1663935918092217143,0.5714569918345661,0.0,0.0,0.0,0.0,0.13526301702956053
1663935918136713150,0.5863831072929316,0.0,0.0,0.0,0.0,0.1630137521362704
1663935918136750566,0.5821185028762557,0.0,0.0,0.0,0.0,0.16563174601426187
1663935918180129863,0.5906477117096074,0.0,0.0,0.0,0.0,0.1699950691442477
1663935918180148074,0.5842508050845936,0.0,0.0,0.0,0.0,0.1699950691442477
1663935918228177060,0.5394724587094971,0.0,0.0,0.0,0.0,0.1694714703686494
1663935918228245283,0.5458693653345108,0.0,0.0,0.0,0.0,0.1839577031602023
1663935918272281764,0.5458693653345108,0.0,0.0,0.0,0.0,0.16598081186466074
1663935918272432261,0.5543985741678626,0.0,0.0,0.0,0.0,0.1663298777150596
1663935918272452641,0.5501339697511867,0.0,0.0,0.0,0.0,0.1827359726838063
1663935918316145637,0.5373401565011591,0.0,0.0,0.0,0.0,0.17837264955382048
1663935918316205529,0.5330755520844833,0.0,0.0,0.0,0.0,0.1593485607070823
1663935918330101893,0.5416047609178349,0.0,0.0,0.0,0.0,0.1668534764906579
1663935918348812104,0.5543985741678626,0.0,0.0,0.0,0.0,0.15289084247470328
1663935918392252694,0.5629277830012144,0.0,0.0,0.0,0.0,0.15987215948268058
1663935918392286453,0.5501339697511867,0.0,0.0,0.0,0.0,0.14887658519511632
1663935918440063333,0.5373401565011591,0.0,0.0,0.0,0.0,0.1583013631558857
1663935918440092634,0.5309432498761453,0.0,0.0,0.0,0.0,0.15219271077390553
1663935918484299458,0.5352078542928211,0.0,0.0,0.0,0.0,0.1254891732183923
1663935918484398111,0.5480016675428488,0.0,0.0,0.0,0.0,0.1494001839707146
1663935918528165310,0.5437370631261729,0.0,0.0,0.0,0.0,0.15673056682909078
1663935918528214484,0.5352078542928211,0.0,0.0,0.0,0.0,0.18133970928221083
1663935918572049539,0.5394724587094971,0.0,0.0,0.0,0.0,0.20141099568014562
1663935918572081134,0.5437370631261729,0.0,0.0,0.0,0.0,0.1986184688769547
1663935918572109334,0.5565308763762006,0.0,0.0,0.0,0.0,0.16772614111665504
1663935918616267470,0.5565308763762006,0.0,0.0,0.0,0.0,0.16650441064025903
1663935918616302314,0.5565308763762006,0.0,0.0,0.0,0.0,0.17819811662862106
1663935918628940992,0.5522662719595246,0.0,0.0,0.0,0.0,0.1832595714594046
1663935918649171942,0.5650600852095522,0.0,0.0,0.0,0.0,0.18133970928221083
1663935918692075324,0.5799862006679177,0.0,0.0,0.0,0.0,0.18465583486100007
1663935918692096069,0.5437370631261729,0.0,0.0,0.0,0.0,0.19442967867216834
1663935918736133099,0.5373401565011591,0.0,0.0,0.0,0.0,0.1881464933649887
1663935918736181203,0.5288109476678073,0.0,0.0,0.0,0.0,0.17715091907742447
1663935918784118651,0.5352078542928211,0.0,0.0,0.0,0.0,0.14695672301792254
1663935918784154854,0.5543985741678626,0.0,0.0,0.0,0.0,0.14905111812031574
1663935918828163560,0.5501339697511867,0.0,0.0,0.0,0.0,0.13945180723434694
1663935918828210898,0.5330755520844833,0.0,0.0,0.0,0.0,0.14276793281313616
1663935918876087364,0.5394724587094971,0.0,0.0,0.0,0.0,0.1609193570338772
1663935918876110046,0.5501339697511867,0.0,0.0,0.0,0.0,0.15952309363228173
1663935918876118359,0.5565308763762006,0.0,0.0,0.0,0.0,0.14416419621473162
1663935918919991794,0.5693246896262281,0.0,0.0,0.0,0.0,0.16493361431346412
1663935918920004650,0.5501339697511867,0.0,0.0,0.0,0.0,0.1616174887346749
1663935918928015924,0.5671923874178901,0.0,0.0,0.0,0.0,0.16493361431346412
1663935918948203250,0.5693246896262281,0.0,0.0,0.0,0.0,0.1768018532270256
1663935918996228870,0.5778538984595799,0.0,0.0,0.0,0.0,0.16859880574265224
1663935918996260837,0.5821185028762557,0.0,0.0,0.0,0.0,0.17610372152622786
1663935919040050288,0.5757215962512419,0.0,0.0,0.0,0.0,0.20367992370773824
1663935919040068542,0.5352078542928211,0.0,0.0,0.0,0.0,0.2059488517353309
1663935919088629518,0.5117525300011039,0.0,0.0,0.0,0.0,0.20629791758572974
1663935919088728790,0.5309432498761453,0.0,0.0,0.0,0.0,0.21886428820008888
1663935919132387226,0.5458693653345108,0.0,0.0,0.0,0.0,0.21711895894809458
1663935919132562179,0.5373401565011591,0.0,0.0,0.0,0.0,0.2106612407157156
1663935919132643496,0.5288109476678073,0.0,0.0,0.0,0.0,0.21310470166850767
1663935919180006421,0.5224140410427935,0.0,0.0,0.0,0.0,0.1998401993533507
1663935919180019545,0.5352078542928211,0.0,0.0,0.0,0.0,0.20542525295973257
1663935919188893532,0.5458693653345108,0.0,0.0,0.0,0.0,0.2106612407157156
1663935919208854029,0.5330755520844833,0.0,0.0,0.0,0.0,0.23108159296404923
1663935919252000554,0.5330755520844833,0.0,0.0,0.0,0.0,0.25237460983838006
1663935919252019633,0.5394724587094971,0.0,0.0,0.0,0.0,0.273318560862312
1663935919300092109,0.5373401565011591,0.0,0.0,0.0,0.0,0.2804744107954888
1663935919300136768,0.5373401565011591,0.0,0.0,0.0,0.0,0.28064894372068816
1663935919344234573,0.5373401565011591,0.0,0.0,0.0,0.0,0.2750638901143063
1663935919344328124,0.5245463432511316,0.0,0.0,0.0,0.0,0.2696533694331239
1663935919392189758,0.5160171344177797,0.0,0.0,0.0,0.0,0.26371924997634316
1663935919392277155,0.5117525300011039,0.0,0.0,0.0,0.0,0.22759093446006054
1663935919392299244,0.5117525300011039,0.0,0.0,0.0,0.0,0.20053833105414848
1663935919440210434,0.507487925584428,0.0,0.0,0.0,0.0,0.20071286397934787
1663935919440256934,0.5160171344177797,0.0,0.0,0.0,0.0,0.19268434942017396
1663935919449412356,0.5053556233760901,0.0,0.0,0.0,0.0,0.22287854547967584
1663935919469232272,0.507487925584428,0.0,0.0,0.0,0.0,0.2527236756887789
1663935919512125230,0.49895871675107634,0.0,0.0,0.0,0.0,0.27785641691749724
1663935919512168966,0.49256181012606254,0.0,0.0,0.0,0.0,0.2761110876655029
1663935919556047618,0.5053556233760901,0.0,0.0,0.0,0.0,0.2907718533822553
1663935919556071348,0.5032233211677521,0.0,0.0,0.0,0.0,0.3125884690321844
1663935919604145126,0.49682641454273835,0.0,0.0,0.0,0.0,0.34068826998929314
1663935919604193785,0.5117525300011039,0.0,0.0,0.0,0.0,0.3291690969261305
1663935919648082891,0.5032233211677521,0.0,0.0,0.0,0.0,0.32655110304813906
1663935919648123916,0.5010910189594143,0.0,0.0,0.0,0.0,0.3530801076784529
1663935919692016519,0.507487925584428,0.0,0.0,0.0,0.0,0.3597123588360313
1663935919692035727,0.5010910189594143,0.0,0.0,0.0,0.0,0.3586651612848347
1663935919692048235,0.5096202277927661,0.0,0.0,0.0,0.0,0.35552356863124496
1663935919740170753,0.5032233211677521,0.0,0.0,0.0,0.0,0.3277728335245351
1663935919740220108,0.5032233211677521,0.0,0.0,0.0,0.0,0.32882003107573166
1663935919749512449,0.5117525300011039,0.0,0.0,0.0,0.0,0.34941491624926474
1663935919769420758,0.5053556233760901,0.0,0.0,0.0,0.0,0.34191000046568915
1663935919816118058,0.507487925584428,0.0,0.0,0.0,0.0,0.32079151651655774
1663935919816140159,0.507487925584428,0.0,0.0,0.0,0.0,0.32655110304813906
1663935919864113561,0.5096202277927661,0.0,0.0,0.0,0.0,0.3295181627765294
1663935919864140060,0.5266786454594694,0.0,0.0,0.0,0.0,0.3195697860401617
1663935919912138532,0.5202817388344556,0.0,0.0,0.0,0.0,0.31730085801256913
1663935919912219945,0.5330755520844833,0.0,0.0,0.0,0.0,0.3324852225049198
1663935919912255008,0.5309432498761453,0.0,0.0,0.0,0.0,0.3337069529813158
1663935919960182220,0.49469411233440047,0.0,0.0,0.0,0.0,0.33178709080412205
1663935919960227697,0.48616490350104874,0.0,0.0,0.0,0.0,0.3309144261781249
1663935919969178192,0.49042950791772455,0.0,0.0,0.0,0.0,0.3354522822333101
1663935919988507273,0.507487925584428,0.0,0.0,0.0,0.0,0.33178709080412205
1663935920032164387,0.5053556233760901,0.0,0.0,0.0,0.0,0.3368485456349056
1663935920032209321,0.49682641454273835,0.0,0.0,0.0,0.0,0.3460987906704755
1663935920080089555,0.4882972057093866,0.0,0.0,0.0,0.0,0.36582101121801147
1663935920080128305,0.49682641454273835,0.0,0.0,0.0,0.0,0.34784411992246983
1663935920128428824,0.5053556233760901,0.0,0.0,0.0,0.0,0.35325464060365225
1663935920128520641,0.5053556233760901,0.0,0.0,0.0,0.0,0.3654719453676126
1663935920172147430,0.49682641454273835,0.0,0.0,0.0,0.0,0.35499996985564664
1663935920172208143,0.4882972057093866,0.0,0.0,0.0,0.0,0.3492403833240653
1663935920172273607,0.49469411233440047,0.0,0.0,0.0,0.0,0.36023595761162963
1663935920216056917,0.507487925584428,0.0,0.0,0.0,0.0,0.3586651612848347
1663935920216114884,0.5202817388344556,0.0,0.0,0.0,0.0,0.3661700770684103
1663935920230743443,0.5096202277927661,0.0,0.0,0.0,0.0,0.3558726344816438
1663935920249873384,0.5010910189594143,0.0,0.0,0.0,0.0,0.34697145529647266
1663935920296186181,0.5010910189594143,0.0,0.0,0.0,0.0,0.3488913174736665
1663935920296253416,0.5117525300011039,0.0,0.0,0.0,0.0,0.35255650890285456
1663935920340246107,0.5181494366261178,0.0,0.0,0.0,0.0,0.35430183815484895
1663935920340375970,0.5202817388344556,0.0,0.0,0.0,0.0,0.3590142271352336
1663935920384099673,0.5202817388344556,0.0,0.0,0.0,0.0,0.3319616237293215
1663935920384143566,0.5138848322094418,0.0,0.0,0.0,0.0,0.34819318577286873
1663935920428173892,0.5224140410427935,0.0,0.0,0.0,0.0,0.3401646712136948
1663935920428213381,0.5181494366261178,0.0,0.0,0.0,0.0,0.3490658503988659
1663935920472667361,0.5309432498761453,0.0,0.0,0.0,0.0,0.3677408733952052
1663935920472695862,0.5352078542928211,0.0,0.0,0.0,0.0,0.38117990863556156
1663935920472701148,0.5266786454594694,0.0,0.0,0.0,0.0,0.38013271108436497
1663935920516048608,0.5330755520844833,0.0,0.0,0.0,0.0,0.3724532623755899
1663935920516081359,0.5416047609178349,0.0,0.0,0.0,0.0,0.3775147172063734
1663935920533035922,0.5352078542928211,0.0,0.0,0.0,0.0,0.4061381169390805
1663935920549541572,0.5330755520844833,0.0,0.0,0.0,0.0,0.37803831598197174
1663935920592023279,0.5288109476678073,0.0,0.0,0.0,0.0,0.3576179637336381
1663935920592052735,0.5224140410427935,0.0,0.0,0.0,0.0,0.35988689176123073
1663935920636116285,0.5266786454594694,0.0,0.0,0.0,0.0,0.3244567079457459
1663935920636220227,0.5416047609178349,0.0,0.0,0.0,0.0,0.3204424506661589
1663935920684102909,0.5543985741678626,0.0,0.0,0.0,0.0,0.3127630019573839
1663935920684162934,0.5458693653345108,0.0,0.0,0.0,0.0,0.31433379828417873
1663935920728285276,0.5416047609178349,0.0,0.0,0.0,0.0,0.31450833120937816
1663935920728353294,0.5416047609178349,0.0,0.0,0.0,0.0,0.31555552876057474
1663935920776104176,0.5458693653345108,0.0,0.0,0.0,0.0,0.33964107243809655
1663935920776133793,0.5458693653345108,0.0,0.0,0.0,0.0,0.34871678454846705
1663935920776156498,0.5480016675428488,0.0,0.0,0.0,0.0,0.3445279943436806
1663935920820205791,0.5437370631261729,0.0,0.0,0.0,0.0,0.37018433434799736
1663935920820247824,0.5394724587094971,0.0,0.0,0.0,0.0,0.3654719453676126
1663935920829596420,0.5373401565011591,0.0,0.0,0.0,0.0,0.3516838442768574
1663935920850213202,0.5373401565011591,0.0,0.0,0.0,0.0,0.3120648702565861
1663935920892173560,0.5373401565011591,0.0,0.0,0.0,0.0,0.29949849964222697
1663935920892232806,0.5352078542928211,0.0,0.0,0.0,0.0,0.29530970943744056
1663935920936235824,0.5309432498761453,0.0,0.0,0.0,0.0,0.27977627909469105
1663935920936253721,0.5501339697511867,0.0,0.0,0.0,0.0,0.2567379329683659
1663935920984165176,0.5543985741678626,0.0,0.0,0.0,0.0,0.22916173078685548
1663935920984193773,0.5650600852095522,0.0,0.0,0.0,0.0,0.24504422698000386
1663935921028114570,0.5714569918345661,0.0,0.0,0.0,0.0,0.22985986248765322
1663935921028168330,0.5629277830012144,0.0,0.0,0.0,0.0,0.20856684561332237
1663935921076197201,0.5650600852095522,0.0,0.0,0.0,0.0,0.1947787445225672
1663935921076234017,0.5671923874178901,0.0,0.0,0.0,0.0,0.19198621771937624
1663935921076246047,0.5799862006679177,0.0,0.0,0.0,0.0,0.19844393595175525
1663935921124327692,0.5565308763762006,0.0,0.0,0.0,0.0,0.18291050560900574
1663935921124373949,0.5543985741678626,0.0,0.0,0.0,0.0,0.17924531417981765
1663935921130453190,0.5586631785845384,0.0,0.0,0.0,0.0,0.19687313962496036
1663935921153893551,0.5565308763762006,0.0,0.0,0.0,0.0,0.17278759594743864
1663935921196121260,0.5586631785845384,0.0,0.0,0.0,0.0,0.158824961931484
1663935921196151801,0.5522662719595246,0.0,0.0,0.0,0.0,0.16807520696705394
1663935921240171210,0.5480016675428488,0.0,0.0,0.0,0.0,0.17278759594743864
1663935921240223055,0.5607954807928763,0.0,0.0,0.0,0.0,0.1733111947230369
1663935921285029473,0.5714569918345661,0.0,0.0,0.0,0.0,0.18081611050661253
1663935921285075182,0.5757215962512419,0.0,0.0,0.0,0.0,0.16406094968746698
1663935921328058101,0.5757215962512419,0.0,0.0,0.0,0.0,0.1825614397586069
1663935921328087656,0.5714569918345661,0.0,0.0,0.0,0.0,0.19181168479417682
1663935921372109137,0.5373401565011591,0.0,0.0,0.0,0.0,0.19774580425095753
1663935921372182150,0.5394724587094971,0.0,0.0,0.0,0.0,0.16859880574265224
1663935921372202922,0.5416047609178349,0.0,0.0,0.0,0.0,0.16074482410867777
1663935921420201790,0.5501339697511867,0.0,0.0,0.0,0.0,0.1593485607070823
1663935921420233625,0.5480016675428488,0.0,0.0,0.0,0.0,0.1446877949903299
1663935921431349681,0.5501339697511867,0.0,0.0,0.0,0.0,0.1466076571675237
1663935921448946445,0.5394724587094971,0.0,0.0,0.0,0.0,0.1562069680534925
1663935921496534255,0.5522662719595246,0.0,0.0,0.0,0.0,0.1457349925415265
1663935921496593130,0.5629277830012144,0.0,0.0,0.0,0.0,0.1324704902263696
1663935921544113467,0.5565308763762006,0.0,0.0,0.0,0.0,0.14364059743913332
1663935921544156753,0.5565308763762006,0.0,0.0,0.0,0.0,0.17243853009703977
1663935921592020678,0.5501339697511867,0.0,0.0,0.0,0.0,0.18360863730980345
1663935921592048829,0.5586631785845384,0.0,0.0,0.0,0.0,0.16807520696705394
1663935921592056813,0.5671923874178901,0.0,0.0,0.0,0.0,0.18448130193580062
1663935921636429752,0.5629277830012144,0.0,0.0,0.0,0.0,0.19460421159736774
1663935921636476370,0.5607954807928763,0.0,0.0,0.0,0.0,0.16702800941585735
1663935921650146327,0.5522662719595246,0.0,0.0,0.0,0.0,0.17243853009703977
1663935921670214507,0.5543985741678626,0.0,0.0,0.0,0.0,0.15498523757709648
1663935921716127929,0.5629277830012144,0.0,0.0,0.0,0.0,0.10140362954087054
1663935921716218346,0.5693246896262281,0.0,0.0,0.0,0.0,0.12810716709638378
1663935921760165023,0.5693246896262281,0.0,0.0,0.0,0.0,0.10070549784007281
1663935921760207881,0.5586631785845384,0.0,0.0,0.0,0.0,0.11885692206081383
1663935921804110139,0.5629277830012144,0.0,0.0,0.0,0.0,0.10402162341886204
1663935921804125342,0.5543985741678626,0.0,0.0,0.0,0.0,0.09128071987930345
1663935921848100332,0.5565308763762006,0.0,0.0,0.0,0.0,0.07853981633974483
1663935921848142515,0.5735892940429039,0.0,0.0,0.0,0.0,0.07836528341454539
1663935921895810387,0.5757215962512419,0.0,0.0,0.0,0.0,0.10262536001726656
1663935921895941812,0.5629277830012144,0.0,0.0,0.0,0.0,0.08185594191853407
1663935921896230042,0.5799862006679177,0.0,0.0,0.0,0.0,0.10245082709206714
1663935921936138140,0.5735892940429039,0.0,0.0,0.0,0.0,0.1165879940332212
1663935921936163550,0.5799862006679177,0.0,0.0,0.0,0.0,0.1038470904936626
1663935921949646650,0.5799862006679177,0.0,0.0,0.0,0.0,0.11205013797803595
1663935921969960727,0.5757215962512419,0.0,0.0,0.0,0.0,0.10245082709206714
1663935922012352503,0.5757215962512419,0.0,0.0,0.0,0.0,0.10105456369047167
1663935922012389948,0.5863831072929316,0.0,0.0,0.0,0.0,0.0994837673636768
1663935922056035404,0.5927800139179454,0.0,0.0,0.0,0.0,0.10140362954087054
1663935922056057759,0.5927800139179454,0.0,0.0,0.0,0.0,0.09773843811168245
1663935922104374991,0.5842508050845936,0.0,0.0,0.0,0.0,0.09564404300928928
1663935922104450587,0.5842508050845936,0.0,0.0,0.0,0.0,0.10646508437165408
1663935922148154393,0.5949123161262834,0.0,0.0,0.0,0.0,0.10943214410004444
1663935922148190943,0.5842508050845936,0.0,0.0,0.0,0.0,0.10506882097005864
1663935922192129639,0.5927800139179454,0.0,0.0,0.0,0.0,0.10018189906447451
1663935922192182870,0.5885154095012695,0.0,0.0,0.0,0.0,0.10890854532444616
1663935922192224898,0.5352078542928211,0.0,0.0,0.0,0.0,0.1473057888683214
1663935922236177801,0.47976799687603494,0.0,0.0,0.0,0.0,0.14905111812031574
1663935922236237502,0.49256181012606254,0.0,0.0,0.0,0.0,0.13945180723434694
1663935922251310666,0.5373401565011591,0.0,0.0,0.0,0.0,0.1425933998879367
1663935922272043091,0.5288109476678073,0.0,0.0,0.0,0.0,0.15114551322270892
1663935922312178835,0.5181494366261178,0.0,0.0,0.0,0.0,0.16772614111665504
1663935922312232658,0.5096202277927661,0.0,0.0,0.0,0.0,0.18081611050661253
1663935922360856814,0.5224140410427935,0.0,0.0,0.0,0.0,0.17575465567582899
1663935922360889954,0.5437370631261729,0.0,0.0,0.0,0.0,0.16615534478986016
1663935922404156407,0.5501339697511867,0.0,0.0,0.0,0.0,0.19024088846738194
1663935922404193418,0.5565308763762006,0.0,0.0,0.0,0.0,0.22689280275926285
1663935922448163254,0.5501339697511867,0.0,0.0,0.0,0.0,0.20699604928652748
1663935922448215858,0.5522662719595246,0.0,0.0,0.0,0.0,0.19757127132575808
1663935922492339053,0.5501339697511867,0.0,0.0,0.0,0.0,0.20996310901491783
1663935922492389818,0.5480016675428488,0.0,0.0,0.0,0.0,0.21764255772369293
1663935922492432559,0.5629277830012144,0.0,0.0,0.0,0.0,0.22549653935766736
1663935922536166422,0.5607954807928763,0.0,0.0,0.0,0.0,0.2124065699677099
1663935922536202910,0.5522662719595246,0.0,0.0,0.0,0.0,0.210835773640915
1663935922550084903,0.5352078542928211,0.0,0.0,0.0,0.0,0.20106192982974677
1663935922569659077,0.4627095792093315,0.0,0.0,0.0,0.0,0.18919369091618532
1663935922612114953,0.42646044166758657,0.0,0.0,0.0,0.0,0.19442967867216834
1663935922612163991,0.4627095792093315,0.0,0.0,0.0,0.0,0.1869247628885927
1663935922656003465,0.5032233211677521,0.0,0.0,0.0,0.0,0.15777776438028737
1663935922656022160,0.4882972057093866,0.0,0.0,0.0,0.0,0.16283921921107095
1663935922700235531,0.46057727700099355,0.0,0.0,0.0,0.0,0.16964600329384882
1663935922700269983,0.4563126725843177,0.0,0.0,0.0,0.0,0.1949532774477666
1663935922744070831,0.4733710902510211,0.0,0.0,0.0,0.0,0.1722639971718403
1663935922744098264,0.49042950791772455,0.0,0.0,0.0,0.0,0.1530653753999027
1663935922788099696,0.5010910189594143,0.0,0.0,0.0,0.0,0.1710422666954443
1663935922788161371,0.49042950791772455,0.0,0.0,0.0,0.0,0.19216075064457566
1663935922832130909,0.49469411233440047,0.0,0.0,0.0,0.0,0.19006635554218249
1663935922832165378,0.4840326012927108,0.0,0.0,0.0,0.0,0.17278759594743864
1663935922832178062,0.44778346375096595,0.0,0.0,0.0,0.0,0.1706932008450454
1663935922876137984,0.44351885933429,0.0,0.0,0.0,0.0,0.1658062789394613
1663935922876181202,0.42006353504257277,0.0,0.0,0.0,0.0,0.16266468628587152
1663935922890948358,0.40513741958420724,0.0,0.0,0.0,0.0,0.16249015336067207
1663935922911228250,0.39874051295919344,0.0,0.0,0.0,0.0,0.18186330805780915
1663935922956135149,0.39874051295919344,0.0,0.0,0.0,0.0,0.21642082724729686
1663935922956185353,0.40940202400088316,0.0,0.0,0.0,0.0,0.24207716725161352
1663935923004182504,0.41579893062589696,0.0,0.0,0.0,0.0,0.31904618726456346
1663935923004229568,0.41366662841755897,0.0,0.0,0.0,0.0,0.36948620264719956
1663935923058375763,0.41579893062589696,0.0,0.0,0.0,0.0,0.3907792195215304
1663935923058452878,0.40300511737586936,0.0,0.0,0.0,0.0,0.40840704496667307
1663935923058467398,0.4008728151675314,0.0,0.0,0.0,0.0,0.41835542170304074
1663935923096155172,0.4285927438759245,0.0,0.0,0.0,0.0,0.44837508483734323
1663935923096211737,0.4328573482926004,0.0,0.0,0.0,0.0,0.5024802916491674
1663935923111317733,0.44351885933429,0.0,0.0,0.0,0.0,0.5642649471697667
1663935923132832719,0.4392542549176142,0.0,0.0,0.0,0.0,0.5927138139772743
1663935923180193392,0.4349896505009383,0.0,0.0,0.0,0.0,0.6000441968356506
1663935923180262443,0.44778346375096595,0.0,0.0,0.0,0.0,0.6229080100367762
1663935923224104319,0.4499157659593038,0.0,0.0,0.0,0.0,0.6660176425610361
1663935923224130003,0.44351885933429,0.0,0.0,0.0,0.0,0.6632251157578452
1663935923268055254,0.44351885933429,0.0,0.0,0.0,0.0,0.6183701539815909
1663935923268081747,0.44778346375096595,0.0,0.0,0.0,0.0,0.5822418384653083
1663935923312175517,0.45204806816764176,0.0,0.0,0.0,0.0,0.5876523591464908
1663935923312223346,0.3646236776257865,0.0,0.0,0.0,0.0,0.5796238445873169
1663935923312236550,0.3518298643757589,0.0,0.0,0.0,0.0,0.5787511799613196
1663935923360069869,0.3710205842508003,0.0,0.0,0.0,0.0,0.5523967082562053
1663935923360101858,0.38168209529249003,0.0,0.0,0.0,0.0,0.5162683927399226
1663935923370395486,0.37741749087581417,0.0,0.0,0.0,0.0,0.5436700619962336
1663935923390154733,0.36035907320911065,0.0,0.0,0.0,0.0,0.5831145030913054
1663935923432056880,0.3560944687924348,0.0,0.0,0.0,0.0,0.5750859885321317
1663935923432113221,0.3731528864591383,0.0,0.0,0.0,0.0,0.5204571829447091
1663935923476338356,0.38807900191750383,0.0,0.0,0.0,0.0,0.5454153912482279
1663935923476360724,0.40940202400088316,0.0,0.0,0.0,0.0,0.6169738905799955
1663935923520153063,0.40513741958420724,0.0,0.0,0.0,0.0,0.640535835481919
1663935923520203312,0.3902113041258417,0.0,0.0,0.0,0.0,0.6251769380643688
1663935923568427532,0.4072697217925452,0.0,0.0,0.0,0.0,0.6134832320760067
1663935923568472572,0.41153432620922104,0.0,0.0,0.0,0.0,0.5988224663592545
1663935923616074466,0.4072697217925452,0.0,0.0,0.0,0.0,0.6129596333004085
1663935923616109501,0.3902113041258417,0.0,0.0,0.0,0.0,0.6250024051391695
1663935923616140949,0.3731528864591383,0.0,0.0,0.0,0.0,0.594982742004867
1663935923660140602,0.3838143975008279,0.0,0.0,0.0,0.0,0.524471440224296
1663935923660189643,0.36675597983412445,0.0,0.0,0.0,0.0,0.4459316238845512
1663935923670420940,0.3731528864591383,0.0,0.0,0.0,0.0,0.3921754829231258
1663935923690300546,0.3710205842508003,0.0,0.0,0.0,0.0,0.39950586578150205
1663935923732138726,0.37741749087581417,0.0,0.0,0.0,0.0,0.3663446099936098
1663935923732177682,0.39447590854251763,0.0,0.0,0.0,0.0,0.2488839513343914
1663935923776500416,0.3902113041258417,0.0,0.0,0.0,0.0,0.2436479635784084
1663935923776539499,0.40513741958420724,0.0,0.0,0.0,0.0,0.26773350725593015
1663935923824175776,0.4008728151675314,0.0,0.0,0.0,0.0,0.26022859147235455
1663935923824208033,0.38168209529249003,0.0,0.0,0.0,0.0,0.2389355745980237
1663935923868141255,0.4072697217925452,0.0,0.0,0.0,0.0,0.23701571242082992
1663935923868190808,0.4179312328342349,0.0,0.0,0.0,0.0,0.24120450262561632
1663935923912451495,0.42006353504257277,0.0,0.0,0.0,0.0,0.25220007691318064
1663935923912504287,0.41579893062589696,0.0,0.0,0.0,0.0,0.25446900494077324
1663935923912526381,0.40940202400088316,0.0,0.0,0.0,0.0,0.24574235868080158
1663935923956787759,0.40300511737586936,0.0,0.0,0.0,0.0,0.23055799418845094
1663935923956882228,0.41579893062589696,0.0,0.0,0.0,0.0,0.23003439541285262
1663935923973154792,0.44138655712595215,0.0,0.0,0.0,0.0,0.23649211364523165
1663935923991132901,0.445651161542628,0.0,0.0,0.0,0.0,0.21694442602289515
1663935924032490082,0.4307250460842625,0.0,0.0,0.0,0.0,0.19582594207376378
1663935924032532146,0.42646044166758657,0.0,0.0,0.0,0.0,0.20943951023931953
1663935924076180025,0.4328573482926004,0.0,0.0,0.0,0.0,0.1949532774477666
1663935924076258178,0.445651161542628,0.0,0.0,0.0,0.0,0.18709929581379214
1663935924120031431,0.445651161542628,0.0,0.0,0.0,0.0,0.18779742751458986
1663935924120050764,0.4328573482926004,0.0,0.0,0.0,0.0,0.19146261894377795
1663935924164131824,0.43712195270927623,0.0,0.0,0.0,0.0,0.19216075064457566
1663935924164156924,0.445651161542628,0.0,0.0,0.0,0.0,0.1806415775814131
1663935924208151096,0.4392542549176142,0.0,0.0,0.0,0.0,0.18517943363659836
1663935924208180447,0.4349896505009383,0.0,0.0,0.0,0.0,0.20071286397934787
1663935924256067477,0.4328573482926004,0.0,0.0,0.0,0.0,0.20071286397934787
1663935924256113953,0.44778346375096595,0.0,0.0,0.0,0.0,0.19600047499896323
1663935924256127527,0.45204806816764176,0.0,0.0,0.0,0.0,0.18867009214058703
1663935924300364073,0.46484188141766936,0.0,0.0,0.0,0.0,0.2040289895581371
1663935924300415516,0.4669741836260073,0.0,0.0,0.0,0.0,0.21380283336930536
1663935924311635775,0.4627095792093315,0.0,0.0,0.0,0.0,0.2165953601724963
1663935924334477044,0.4819002990843728,0.0,0.0,0.0,0.0,0.2303834612632515
1663935924376249762,0.49682641454273835,0.0,0.0,0.0,0.0,0.23300145514124296
1663935924376298020,0.49469411233440047,0.0,0.0,0.0,0.0,0.2569124658935653
