%time,field.x,field.y,field.z
1663935905542400888,0.0,0.0,0.0
1663935905561919393,0.0,0.0,0.0
1663935905581778134,0.0,0.0,0.0
1663935905601332287,0.0,0.0,0.0
1663935905621316768,0.0,0.0,0.0
1663935905642708218,0.0,0.0,0.0
1663935905662388591,0.0,0.0,0.0
1663935905682639028,0.0,0.0,0.0
1663935905702618395,0.0,0.0,0.0
1663935905743986085,0.0,0.0,0.0
1663935905743998743,0.0,0.0,0.0
1663935905788024434,0.0,0.0,0.0
1663935905788051065,0.0,0.0,0.0
1663935905832044933,0.0,0.0,0.0
1663935905832078255,0.0,0.0,0.0
1663935905875992248,0.0,0.0,0.0
1663935905876003651,0.0,0.0,0.0
1663935905920091602,0.0,0.0,0.0
1663935905920134328,0.0,0.0,0.0
1663935905964238545,0.0,0.0,0.0
1663935905964254565,0.0,0.0,0.0
1663935905964264550,0.0,0.0,0.0
1663935906008031655,0.0,0.0,0.0
1663935906008049614,0.0,0.0,0.0
1663935906022208880,0.0,0.0,0.0
1663935906042419876,0.0,0.0,0.0
1663935906087965366,0.0,0.0,0.0
1663935906087977278,0.0,0.0,0.0
1663935906135977292,0.0,0.0,0.0
1663935906135990439,0.0,0.0,0.0
1663935906179998390,0.0,0.0,0.0
1663935906180020327,0.0,0.0,0.0
1663935906223981548,0.0,0.0,0.0
1663935906223996639,0.0,0.0,0.0
1663935906224001695,0.0,0.0,0.0
1663935906267965679,0.0,0.0,0.0
1663935906267975758,0.0,0.0,0.0
1663935906282197121,0.0,0.0,0.0
1663935906302374404,0.0,0.0,0.0
1663935906343972430,0.0,0.0,0.0
1663935906343983173,0.0,0.0,0.0
1663935906388139968,0.0,0.0,0.0
1663935906388164823,0.0,0.0,0.0
1663935906431988429,0.0,0.0,0.0
1663935906432005370,0.0,0.0,0.0
1663935906479960081,0.0,0.0,0.0
1663935906479969889,0.0,0.0,0.0
1663935906524006949,0.0,0.0,0.0
1663935906524026841,0.0,0.0,0.0
1663935906524034960,0.0,0.0,0.0
1663935906572033360,0.0,0.0,0.0
1663935906572054001,0.0,0.0,0.0
1663935906582044558,0.0,0.0,0.0
1663935906602845837,0.0,0.0,0.0
1663935906650355145,0.0,0.0,0.0
1663935906650380018,0.0,0.0,0.0
1663935906691991692,0.0,0.0,0.0
1663935906692008996,0.0,0.0,0.0
1663935906735966115,0.0,0.0,0.0
1663935906735978966,0.0,0.0,0.0
1663935906779972341,0.0,0.0,0.0
1663935906780004072,0.0,0.0,0.0
1663935906828014193,0.0,0.0,0.0
1663935906828030017,0.0,0.0,0.0
1663935906828038803,0.0,0.0,0.0
1663935906871952779,0.0,0.0,0.0
1663935906871963973,0.0,0.0,0.0
1663935906882991481,0.0,0.0,0.0
1663935906903231232,0.0,0.0,0.0
1663935906943950485,0.0,0.0,0.0
1663935906943961635,0.0,0.0,0.0
1663935907000874496,0.0,0.0,0.0
1663935907000886355,0.0,0.0,0.0
1663935907044138228,0.0,0.0,0.0
1663935907044153598,0.0,0.0,0.0
1663935907044160132,0.0,0.0,0.0
1663935907088042473,0.0,0.0,0.0
1663935907088056455,0.0,0.0,0.0
1663935907103427764,0.0,0.0,0.0
1663935907123116390,0.0,0.0,0.0
1663935907168416405,0.0,0.0,0.0
1663935907168462124,0.0,0.0,0.0
1663935907211965265,0.0,0.0,0.0
1663935907211978694,0.0,0.0,0.0
1663935907260032252,0.0,0.0,0.0
1663935907260044901,0.0,0.0,0.0
1663935907308017599,0.0,0.0,0.0
1663935907308037065,0.0,0.0,0.0
1663935907308048461,0.0,0.0,0.0
1663935907355976507,0.0,0.0,0.0
1663935907355990476,0.0,0.0,0.0
1663935907362867208,0.0,0.0,0.0
1663935907382954257,0.0,0.0,0.0
1663935907428139069,0.0,0.0,0.0
1663935907428158577,0.0,0.0,0.0
1663935907472004765,0.0,0.0,0.0
1663935907472022790,0.0,0.0,0.0
1663935907516135755,0.0,0.0,0.0
1663935907516166117,0.0,0.0,0.0
1663935907560082788,0.0,0.0,0.0
1663935907560119766,0.0,0.0,0.0
1663935907604088935,0.0,0.0,0.0
1663935907604127188,0.0,0.0,0.0
1663935907604137069,0.0,0.0,0.0
1663935907648051734,0.0,0.0,0.0
1663935907648070895,0.0,0.0,0.0
1663935907662878621,0.0,0.0,0.0
1663935907682609761,0.0,0.0,0.0
1663935907728068101,0.0,0.0,0.0
1663935907728083557,0.0,0.0,0.0
1663935907772105543,0.0,0.0,0.0
1663935907772133325,0.0,0.0,0.0
1663935907816002439,0.0,0.0,0.0
1663935907816013948,0.0,0.0,0.0
1663935907860021821,0.0,0.0,0.0
1663935907860040524,0.0,0.0,0.0
1663935907908146118,0.0,0.0,0.0
1663935907908177681,0.0,0.0,0.0
1663935907908216717,0.0,0.0,0.0
1663935907952107671,0.0,0.0,0.0
1663935907952135776,0.0,0.0,0.0
1663935907964112504,0.0,0.0,0.0
1663935907983724219,0.0,0.0,0.0
1663935908028058362,0.0,0.0,0.0
1663935908028085430,0.0,0.0,0.0
1663935908076078385,0.0,0.0,0.0
1663935908076092249,0.0,0.0,0.0
1663935908123998155,0.0,0.0,0.0
1663935908124017628,0.0,0.0,0.0
1663935908124024070,0.0,0.0,0.0
1663935908172070631,0.0,0.0,0.0
1663935908172091431,0.0,0.0,0.0
1663935908182810781,0.0,0.0,0.0
1663935908202698531,0.0,0.0,0.0
1663935908248006328,0.0,0.0,0.0
1663935908248021065,0.0,0.0,0.0
1663935908292068213,0.0,0.0,0.0
1663935908292094738,0.0,0.0,0.0
1663935908336055459,0.0,0.0,0.0
1663935908336075611,0.0,0.0,0.0
1663935908380000127,0.0,0.0,0.0
1663935908380019188,0.0,0.0,0.0
1663935908424040788,0.0,0.0,0.0
1663935908424060222,0.0,0.0,0.0
1663935908424066304,0.0,0.0,0.0
1663935908468112682,0.0,0.0,0.0
1663935908468143358,0.0,0.0,0.0
1663935908483557646,0.0,0.0,0.0
1663935908503988841,0.0,0.0,0.0
1663935908544049373,0.0,0.0,0.0
1663935908544070063,0.0,0.0,0.0
1663935908592013363,0.0,0.0,0.0
1663935908592031644,0.0,0.0,0.0
1663935908636733889,0.0,0.0,0.0
1663935908636786252,0.0,0.0,0.0
1663935908684076080,0.0,0.0,0.0
1663935908684106749,0.0,0.0,0.0
1663935908684126940,0.0,0.0,0.0
1663935908728153321,0.0,0.0,0.0
1663935908728197613,0.0,0.0,0.0
1663935908743029266,0.0,0.0,0.0
1663935908763271006,0.0,0.0,0.0
1663935908808067481,0.0,0.0,0.0
1663935908808115397,0.0,0.0,0.0
1663935908856035937,0.0,0.0,0.0
1663935908856058537,0.0,0.0,0.0
1663935908900023899,0.0,0.0,0.0
1663935908900047868,0.0,0.0,0.0
1663935908944001093,0.0,0.0,0.0
1663935908944019496,0.0,0.0,0.0
1663935908944056314,0.0,0.0,0.0
1663935908992188247,0.0,0.0,0.0
1663935908992227692,0.0,0.0,0.0
1663935909003435308,0.0,0.0,0.0
1663935909024018451,0.0,0.0,0.0
1663935909064039967,0.0,0.0,0.0
1663935909064063003,0.0,0.0,0.0
1663935909108511749,0.0,0.0,0.0
1663935909108551865,0.0,0.0,0.0
1663935909156580243,0.0,0.0,0.0
1663935909156633456,0.0,0.0,0.0
1663935909204088707,0.0,0.0,0.0
1663935909204104769,0.0,0.0,0.0
1663935909248013932,0.0,0.0,0.0
1663935909248033119,0.0,0.0,0.0
1663935909248045937,0.0,0.0,0.0
1663935909292134187,0.0,0.0,0.0
1663935909292163302,0.0,0.0,0.0
1663935909303246702,0.0,0.0,0.0
1663935909324288650,0.0,0.0,0.0
1663935909372086833,0.0,0.0,0.0
1663935909372119068,0.0,0.0,0.0
1663935909420357691,0.0,0.0,0.0
1663935909420395907,0.0,0.0,0.0
1663935909464083370,0.0,0.0,0.0
1663935909464125249,0.0,0.0,0.0
1663935909464136868,0.0,0.0,0.0
1663935909512116178,0.0,0.0,0.0
1663935909512132578,0.0,0.0,0.0
1663935909524159760,0.0,0.0,0.0
1663935909543952774,0.0,0.0,0.0
1663935909588628946,0.0,0.0,0.0
1663935909588664737,0.0,0.0,0.0
1663935909635986099,0.0,0.0,0.0
1663935909636001567,0.0,0.0,0.0
1663935909680083816,0.0,0.0,0.0
1663935909680109174,0.0,0.0,0.0
1663935909728055548,0.0,0.0,0.0
1663935909728073886,0.0,0.0,0.0
1663935909728086495,0.0,0.0,0.0
1663935909772059644,0.0,0.0,0.0
1663935909772088252,0.0,0.0,0.0
1663935909785132094,0.0,0.0,0.0
1663935909803593135,0.0,0.0,0.0
1663935909844019913,0.0,0.0,0.0
1663935909844036899,0.0,0.0,0.0
1663935909892380454,0.0,0.0,0.0
1663935909892426958,0.0,0.0,0.0
1663935909935982737,0.0,0.0,0.0
1663935909935998390,0.0,0.0,0.0
1663935909980168828,0.0,0.0,0.0
1663935909980192981,0.0,0.0,0.0
1663935910028094783,0.0,0.0,0.0
1663935910046981459,0.0,0.0,0.0
1663935910103766050,0.0,0.0,0.0
1663935910144070668,0.0,0.0,0.0
1663935910192130400,0.0,0.0,0.0
1663935910192158931,0.0,0.0,0.0
1663935910192183349,0.0,0.0,0.0
1663935910239991554,0.0,0.0,0.0
1663935910240017896,0.0,0.0,0.0
1663935910244766124,0.0,0.0,0.0
1663935910264776824,0.0,0.0,0.0
1663935910308003054,0.0,0.0,0.0
1663935910308019841,0.0,0.0,0.0
1663935910356121502,0.0,0.0,0.0
1663935910356147656,0.0,0.0,0.0
1663935910400208987,0.0,0.0,0.0
1663935910400245320,0.0,0.0,0.0
1663935910444108759,0.0,0.0,0.0
1663935910444151855,0.0,0.0,0.0
1663935910488065975,0.0,0.0,0.0
1663935910488090159,0.0,0.0,0.0
1663935910488097497,0.0,0.0,0.0
1663935910532021373,0.0,0.0,0.0
1663935910532042776,0.0,0.0,0.0
1663935910544865285,0.0,0.0,0.0
1663935910564285658,0.0,0.0,0.0
1663935910607996573,0.0,0.0,0.0
1663935910608012852,0.0,0.0,0.0
1663935910652142040,0.0,0.0,0.0
1663935910652176230,0.0,0.0,0.0
1663935910700021761,0.0,0.0,0.0
1663935910700039685,0.0,0.0,0.0
1663935910743997483,0.0,0.0,0.0
1663935910744021640,0.0,0.0,0.0
1663935910788104685,0.0,0.0,0.0
1663935910788130404,0.0,0.0,0.0
1663935910788151282,0.0,0.0,0.0
1663935910832021785,0.0,0.0,0.0
1663935910832039993,0.0,0.0,0.0
1663935910845403387,0.0,0.0,0.0
1663935910864356925,0.0,0.0,0.0
1663935910907991064,0.0,0.0,0.0
1663935910908005618,0.0,0.0,0.0
1663935910952063775,0.0,0.0,0.0
1663935910952104588,0.0,0.0,0.0
1663935910995993660,0.0,0.0,0.0
1663935910996013401,0.0,0.0,0.0
1663935911040067538,0.0,0.0,0.0
1663935911040109087,0.0,0.0,0.0
1663935911083982044,0.0,0.0,0.0
1663935911084000539,0.0,0.0,0.0
1663935911128040661,0.0,0.0,0.0
1663935911128062319,0.0,0.0,0.0
1663935911128069257,0.0,0.0,0.0
1663935911171965427,0.0,0.0,0.0
1663935911171981077,0.0,0.0,0.0
1663935911185266314,0.0,0.0,0.0
1663935911205165322,0.0,0.0,0.0
1663935911247979369,0.0,0.0,0.0
1663935911247995167,0.0,0.0,0.0
1663935911296045707,0.0,0.0,0.0
1663935911296068725,0.0,0.0,0.0
1663935911340011100,0.0,0.0,0.0
1663935911340030431,0.0,0.0,0.0
1663935911384084453,0.0,0.0,0.0
1663935911384109886,0.0,0.0,0.0
1663935911384127708,0.0,0.0,0.0
1663935911428007885,0.0,0.0,0.0
1663935911428033490,0.0,0.0,0.0
1663935911444263698,0.0,0.0,0.0
1663935911465905376,0.0,0.0,0.0
1663935911512048483,0.0,0.0,0.0
1663935911512079033,0.0,0.0,0.0
1663935911556079968,0.0,0.0,0.0
1663935911556111566,0.0,0.0,0.0
1663935911604080002,0.0,0.0,0.0
1663935911604119633,0.0,0.0,0.0
1663935911647988532,0.0,0.0,0.0
1663935911648020585,0.0,0.0,0.0
1663935911648050783,0.0,0.0,0.0
1663935911692264268,0.0,0.0,0.0
1663935911692309211,0.0,0.0,0.0
1663935911705417074,0.0,0.0,0.0
1663935911725678510,0.0,0.0,0.0
1663935911768220543,0.0,0.0,0.0
1663935911768270135,0.0,0.0,0.0
1663935911812119467,0.0,0.0,0.0
1663935911812163099,0.0,0.0,0.0
1663935911856030575,0.0,0.0,0.0
1663935911856055605,0.0,0.0,0.0
1663935911900326455,0.0,0.0,0.0
1663935911900368683,0.0,0.0,0.0
1663935911944152874,0.0,0.0,0.0
1663935911944196999,0.0,0.0,0.0
1663935911988327263,0.0,0.0,0.0
1663935911988359637,0.0,0.0,0.0
1663935911988384941,0.0,0.0,0.0
1663935912032120016,0.0,0.0,0.0
1663935912032164626,0.0,0.0,0.0
1663935912045207867,0.0,0.0,0.0
1663935912064831451,0.0,0.0,0.0
1663935912108117651,0.0,0.0,0.0
1663935912108141247,0.0,0.0,0.0
1663935912152113494,0.0,0.0,0.0
1663935912152167196,0.0,0.0,0.0
1663935912196142810,0.0,0.0,0.0
1663935912196194079,0.0,0.0,0.0
1663935912240007269,0.0,0.0,0.0
1663935912240026761,0.0,0.0,0.0
1663935912284110513,0.0,0.0,0.0
1663935912284136437,0.0,0.0,0.0
1663935912332094248,0.0,0.0,0.0
1663935912332161089,0.0,0.0,0.0
1663935912332192545,0.0,0.0,0.0
1663935912376195477,0.0,0.0,0.0
1663935912376232070,0.0,0.0,0.0
1663935912386627198,0.0,0.0,0.0
1663935912406000430,0.0,0.0,0.0
1663935912448130718,0.0,0.0,0.0
1663935912448185496,0.0,0.0,0.0
1663935912492356163,0.0,0.0,0.0
1663935912492484877,0.0,0.0,0.0
1663935912536208454,0.0,0.0,0.0
1663935912536228328,0.0,0.0,0.0
1663935912584302631,0.0,0.0,0.0
1663935912584368671,0.0,0.0,0.0
1663935912624325137,0.0004264602078345051,4.465882485733701e-07,0.0
1663935912624383551,0.0009382125429747024,8.931765220871454e-07,0.0
1663935912668176226,0.0011087966261085045,1.0718118215164934e-06,0.0
1663935912668204130,0.0013220267657502534,1.2578902688138999e-06,0.0
1663935912671989835,0.001577902933320352,1.4811844055707875e-06,0.0
1663935912712060784,0.0022175933522455985,2.0394197474630065e-06,0.0
1663935912712084720,0.002814637643213906,2.664643295465725e-06,0.0
1663935912726652630,0.0034969738406455727,3.4982746377826418e-06,0.0
1663935912747580702,0.004008725988719323,4.123498144520329e-06,0.0
1663935912788111720,0.00464841617381151,4.9050275279424386e-06,0.0
1663935912788150823,0.005586628445280052,6.051270623628199e-06,0.0
1663935912832128422,0.006652778753767031,7.3538195959983815e-06,0.0
1663935912832169347,0.007932158831660112,9.140172336353212e-06,0.0
1663935912876330755,0.009040954612072466,1.0881866107876566e-05,0.0
1663935912876394969,0.010235041648113072,1.3174351461250612e-05,0.0
1663935912920087411,0.01168500396965383,1.62111498864377e-05,0.0
1663935912920107906,0.013348195411064863,1.9984818038767412e-05,0.0
1663935912968189391,0.015224615752803143,2.4569786999687846e-05,0.0
1663935912968249359,0.017015744260826048,2.8946348280566442e-05,0.0
1663935912968286810,0.01872158018167216,3.341222648108642e-05,0.0
1663935913012112974,0.020683289578412534,3.923275251119363e-05,0.0
1663935913012176610,0.02281558126426949,4.5931566445021433e-05,0.0
1663935913026114052,0.025331682541064847,5.471445243606044e-05,0.0
1663935913045795011,0.02767719767959893,6.372062829791849e-05,0.0
1663935913088199738,0.029937418191419006,7.318827321153614e-05,0.0
1663935913088247311,0.03253880212205544,8.45390239202385e-05,0.0
1663935913132164848,0.03518283169089903,9.607585250941138e-05,0.0
1663935913132197141,0.038295960861805305,0.00011020288153689048,0.0
1663935913180030670,0.04128115080769741,0.00012427036187277117,0.0
1663935913180051006,0.04409575366961321,0.00013851646877895878,0.0
1663935913224172105,0.047123581300172135,0.00015437028206048798,0.0
1663935913224221806,0.05036463010745664,0.00017247190160400618,0.0
1663935913268153058,0.05390418945176228,0.0001934763161262925,0.0
1663935913268194506,0.057443748796067916,0.00021448073064857882,0.0
1663935913268337940,0.06102595343367844,0.0002357382104060734,0.0
1663935913316197668,0.06469345603139512,0.0002562216219947914,0.0
1663935913316224430,0.06853154014528466,0.0002776577504015893,0.0
1663935913332351220,0.07266814588177364,0.0003000391596849946,0.0
1663935913346789311,0.07663416993840741,0.00032149762425568216,0.0
1663935913388093127,0.08068548094751304,0.0003441246486850799,0.0
1663935913388126295,0.08486472395622367,0.0003681956265983859,0.0
1663935913432140047,0.08921453930191264,0.0003947674669868477,0.0
1663935913432194202,0.093905500988273,0.0004258795592360358,0.0
1663935913476100420,0.09846852200442432,0.00045693953775315045,0.0
1663935913476131005,0.10294624199600147,0.0004889819769812542,0.0
1663935913520171546,0.10763718081886683,0.0005233689704430651,0.0
1663935913520203867,0.1124134032549818,0.000559214790582727,0.0
1663935913564239478,0.1175307776554387,0.0005985141773641325,0.0
1663935913564305093,0.12252021769588418,0.0006368310794760027,0.0
1663935913608770408,0.12746700624391286,0.0006756838647610369,0.0
1663935913608809813,0.1325843593657813,0.0007176626970032936,0.0
1663935913608967357,0.1380002089149819,0.0007639807853716736,0.0
1663935913656945221,0.14362927239934337,0.0008131048781854839,0.0
1663935913656979187,0.14930097157893144,0.0008635910222301677,0.0
1663935913667547930,0.15475944042147827,0.000913131874218739,0.0
1663935913686489823,0.1603884774129062,0.0009652033309122288,0.0
1663935913728156194,0.16606014938054806,0.0010186591626466822,0.0
1663935913728182744,0.1722435408840137,0.0010780172832489927,0.0
1663935913772174273,0.17846955522471358,0.00113995806292023,0.0
1663935913772212985,0.18465289257399287,0.001204712187269526,0.0
1663935913820153523,0.19100680474670056,0.0012712526322905269,0.0
1663935913820202378,0.19740337221928164,0.0013371232468561635,0.0
1663935913868023734,0.2042690088622745,0.0014090226538922784,0.0
1663935913868039548,0.2110920017994103,0.0014804754807604672,0.0
1663935913868067019,0.21791500710349676,0.0015507374696304796,0.0
1663935913912248366,0.22478069226862693,0.0016178437409478652,0.0
1663935913912308380,0.2319022653407787,0.0016849649732760888,0.0
1663935913927180715,0.23936500377638392,0.0017539991014682153,0.0
1663935913946652033,0.24657188842005903,0.001819408507609376,0.0
1663935913992122882,0.2536508621958469,0.0018811857758449253,0.0
1663935913992635910,0.26102835803845875,0.0019442804946459467,0.0
1663935914036141806,0.26832057568552337,0.002005373063592327,0.0
1663935914036199611,0.27514371318134795,0.002061344839915336,0.0
1663935914080051995,0.28205214968167824,0.0021168105146623377,0.0
1663935914080067363,0.28913117467282273,0.0021724101901564384,0.0
1663935914124130931,0.2954852563065828,0.0022200979330208102,0.0
1663935914124162761,0.30196728086181496,0.0022676145058044034,0.0
1663935914168152167,0.3085346035161281,0.0023146100833389555,0.0
1663935914168182779,0.31514457112274197,0.0023619108269613944,0.0
1663935914168240632,0.3217118854747535,0.0024100526178079296,0.0
1663935914212644823,0.3283644721953475,0.0024611418206237565,0.0
1663935914212704931,0.3348891066678817,0.0025135260689959243,0.0
1663935914228314005,0.34158431033565956,0.002568448374512877,0.0
1663935914246654679,0.348236849939402,0.0026253430342409656,0.0
1663935914288065575,0.35493201363259996,0.0026849394599177726,0.0
1663935914288090102,0.36132864657740443,0.002744111569796738,0.0
1663935914332071545,0.3674267797374372,0.00279945799037772,0.0
1663935914332132007,0.3736528457609672,0.0028559655246771843,0.0
1663935914376184961,0.37992154604687556,0.0029139541923585708,0.0
1663935914376216834,0.38636080202634665,0.00297576851105477,0.0
1663935914424102649,0.39211778991540225,0.003027013845235464,0.0
1663935914424126899,0.3978747953417179,0.0030762496084616947,0.0
1663935914468407992,0.4036318007680335,0.0031254853716879256,0.0
1663935914468496996,0.4095167483428576,0.0031747881466271098,0.0
1663935914468523491,0.4155722998413065,0.0032223493148208584,0.0
1663935914512040630,0.4213720060223037,0.0032648641431009154,0.0
1663935914512061568,0.42712907458290283,0.00330606156496562,0.0
1663935914527651851,0.43267292522155965,0.003344765572516466,0.0
1663935914550068540,0.43804621474582933,0.003379465244596553,0.0
1663935914592110194,0.44346216699555,0.0034116045294680032,0.0
1663935914592159553,0.44896342089212504,0.00344232964685108,0.0
1663935914636099319,0.4542514426582487,0.0034727868025781206,0.0
1663935914636124696,0.4594541629736806,0.0035045688077486336,0.0
1663935914680024979,0.4647848012536355,0.003539923458031802,0.0
1663935914680040875,0.4702007168775541,0.0035777342961776284,0.0
1663935914724140561,0.47514751868638744,0.0036148603241794213,0.0
1663935914724166587,0.4800089899352762,0.003656437190903794,0.0
1663935914772175552,0.4848704463749231,0.00369971102865638,0.0
1663935914772210972,0.48968924319334245,0.0037442873514318673,0.0
1663935914772255683,0.4945933284510259,0.0037896526356724076,0.0
1663935914816074104,0.49958271012741634,0.003834936070693211,0.0
1663935914816104076,0.504486810921797,0.0038785895035138023,0.0
1663935914827630294,0.5093056230067102,0.003921483746198383,0.0
1663935914847134306,0.513825938378484,0.003960142938064905,0.0
1663935914888024195,0.5184742073817926,0.003997462435271221,0.0
1663935914888052551,0.5231651401315484,0.004032668151479818,0.0
1663935914936018885,0.527685499360855,0.004065804708815745,0.0
1663935914936051763,0.5321205630515331,0.0040990901132311455,0.0
1663935914984179088,0.5366835612717501,0.004133335673543144,0.0
1663935914984223637,0.5415024408817332,0.004167819441474341,0.0
1663935915032014657,0.5463639885465487,0.0041992143828801344,0.0
1663935915032064245,0.5511402404453883,0.004230892149533853,0.0
1663935915032072552,0.5554900255800633,0.004262019090498297,0.0
1663935915080141984,0.5597971431951573,0.0042958478087206115,0.0
1663935915080163094,0.5640615979595226,0.004331574457227267,0.0
1663935915086808185,0.5683686710305947,0.004370665285749499,0.0
1663935915106970117,0.5727609885225275,0.004415129837745424,0.0
1663935915148244509,0.5771958917126386,0.004465444377010614,0.0
1663935915148280846,0.5815454542419981,0.0045193462089342575,0.0
1663935915192167624,0.5858949680769511,0.004577043729209774,0.0
1663935915192200546,0.5903723770767555,0.004638782609601809,0.0
1663935915240091944,0.5948923834531652,0.004704265054771435,0.0
1663935915240114099,0.5993697018847894,0.004772255515271002,0.0
1663935915284051433,0.6038469717590265,0.004843371716879479,0.0
1663935915284078415,0.6083241908937093,0.004917613624935696,0.0
1663935915328152557,0.6128439830842825,0.004996506891084201,0.0
1663935915328233987,0.6173636755153942,0.005080922064846164,0.0
1663935915328271093,0.6218833079121803,0.005168492558344364,0.0
1663935915374386795,0.626445531440694,0.005259277975562734,0.0
1663935915374408504,0.6310077390546769,0.005350859649612166,0.0
1663935915388136688,0.635527340608243,0.005440007787069302,0.0
1663935915406685328,0.6400895955488984,0.0055292006823533585,0.0
1663935915452064818,0.6449929868259408,0.005623350604646945,0.0
1663935915452099412,0.6499390653354592,0.00571572947404683,0.0
1663935915496224432,0.6548426134667414,0.005801321225057001,0.0
1663935915496250470,0.6595756460102908,0.005881457672737706,0.0
1663935915544130921,0.6644366267850893,0.005962063172913027,0.0
1663935915544176497,0.6692550085518855,0.006039438719225626,0.0
1663935915587992611,0.6742439937690974,0.006116941007121818,0.0
1663935915588011796,0.6791903646078442,0.006192054277768958,0.0
1663935915588017814,0.6843073267701275,0.006267971509109813,0.0
1663935915632184570,0.6893816475810585,0.006343256096856161,0.0
1663935915632274040,0.6947544578514558,0.006422969189764059,0.0
1663935915648167135,0.7000846404914599,0.006501119347904461,0.0
1663935915667555492,0.705500106053704,0.006580519908575109,0.0
1663935915712041861,0.710915571615948,0.006659920469245757,0.0
1663935915712069575,0.7163736645890502,0.0067408988493426695,0.0
1663935915756081665,0.7223008124270283,0.00682883630897916,0.0
1663935915756157073,0.7281426926004727,0.006914488882301041,0.0
1663935915804956406,0.7338139923303366,0.006998630480370489,0.0
1663935915805005926,0.7394852772883426,0.007083761905684897,0.0
1663935915848077884,0.7453697684477774,0.007172093760522404,0.0
1663935915848112175,0.7512969315434619,0.00725899673637453,0.0
1663935915848132088,0.7573093928554786,0.0073461007436284665,0.0
1663935915892328952,0.7631939588583406,0.0074292973782066445,0.0
1663935915892491963,0.7694196591222381,0.007517317006093703,0.0
1663935915907454540,0.7757733003152398,0.007606036338245411,0.0
1663935915927666359,0.7823401980562469,0.007694294421832823,0.0
1663935915968228172,0.7889071111011758,0.007781406364209584,0.0
1663935915968294459,0.795474039249987,0.007867372162722111,0.0
1663935916012191098,0.802211536961105,0.007955570839118081,0.0
1663935916012238717,0.8089063922816463,0.00804321129604319,0.0
1663935916056063540,0.8159850128365697,0.008137111181981776,0.0
1663935916056095399,0.8232768278606749,0.008235112041030137,0.0
1663935916100091939,0.8303980741122865,0.008330820482322981,0.0
1663935916100120207,0.8376471949365167,0.008432043881422246,0.0
1663935916144138861,0.8449815262491622,0.00853957849902344,0.0
1663935916144187990,0.8527421908437142,0.008658783123857915,0.0
1663935916188355053,0.8602469058988793,0.00878060707080836,0.0
1663935916188419808,0.8679220938073378,0.008910558067047342,0.0
1663935916188443688,0.8757251073777494,0.009048122477440001,0.0
1663935916236288322,0.8835706366755984,0.009193285176217564,0.0
1663935916236327352,0.8917144749341517,0.009352498662191908,0.0
1663935916247396177,0.9000287492733424,0.009520850961048892,0.0
1663935916270244421,0.9080870839072206,0.009689649008713433,0.0
1663935916308672170,0.9162306014894486,0.009864497238712687,0.0
1663935916308762094,0.9246297758026395,0.010052167816106941,0.0
1663935916352185176,0.9334125295945402,0.01025454374388693,0.0
1663935916352219042,0.9421098718992867,0.010461026797035177,0.0
1663935916396170291,0.9509776011877376,0.010677749432741515,0.0
1663935916396205441,0.959631899035984,0.010899835772253444,0.0
1663935916440090323,0.9683713021996184,0.011130211464559314,0.0
1663935916440120078,0.9776220638511489,0.011382145470605606,0.0
1663935916488131172,0.9865741536136722,0.011635327316817524,0.0
1663935916488206731,0.9957817866078511,0.011903778206865914,0.0
1663935916488286239,1.0050743375163338,0.012186067953804091,0.0
1663935916535293836,1.0144517861407165,0.012482404448019166,0.0
1663935916535311720,1.0242552083398782,0.012800766002784543,0.0
1663935916548649771,1.0339301966800962,0.013131861551408391,0.0
1663935916568086334,1.0435195347298845,0.013471755795931418,0.0
1663935916608044353,1.0534494529846812,0.013834133952024088,0.0
1663935916608066758,1.0631659061989942,0.014198910996999825,0.0
1663935916652080127,1.0733081153330337,0.014590308144411437,0.0
1663935916652103736,1.083620143902899,0.015004481996045444,0.0
1663935916696126904,1.0939315091683142,0.015434853426651195,0.0
1663935916696177049,1.1043265142967897,0.015905069850021974,0.0
1663935916740019732,1.1145072663355282,0.016392305476740324,0.0
1663935916740038464,1.124942258741398,0.016919093480498214,0.0
1663935916796654248,1.1354610083223236,0.01747772169942839,0.0
1663935916796700712,1.146063212387398,0.01807233316764544,0.0
1663935916832182856,1.1569613832138055,0.01871980381772947,0.0
1663935916832233654,1.1677295418746654,0.01939727893681198,0.0
1663935916832254992,1.178835816965074,0.020133009974757667,0.0
1663935916876097658,1.189895134522756,0.020929632077194112,0.0
1663935916876134845,1.2007385491633595,0.021754469308879407,0.0
1663935916888158364,1.2116635850719994,0.02262963869067228,0.0
1663935916906855774,1.2225848592454258,0.023550562944207525,0.0
1663935916948128224,1.2338844986873772,0.024551077921515976,0.0
1663935916948159614,1.2451802131391239,0.02559497291744297,0.0
1663935916992125062,1.2564718360626952,0.026682232541359173,0.0
1663935916992174095,1.2677590034801682,0.027814810762877104,0.0
1663935917036095172,1.2790816582982125,0.029018857588635285,0.0
1663935917036127566,1.29056894255874,0.03028706557781002,0.0
1663935917084044786,1.3020508138000126,0.03160338012411351,0.0
1663935917084068788,1.3134000271290447,0.03295267409458976,0.0
1663935917132133672,1.3248281416994645,0.03435991960316007,0.0
1663935917132182240,1.3361233489316162,0.035798854789313383,0.0
1663935917132231336,1.3478355106386724,0.0373387105899928,0.0
1663935917176063944,1.3594546665834606,0.03893033697143413,0.0
1663935917176085659,1.3709834509237777,0.04055265389201851,0.0
1663935917188449784,1.3819999943406367,0.04214212477520053,0.0
1663935917207811247,1.3929257000838395,0.04376328734279572,0.0
1663935917248051049,1.4038872603306682,0.04543281079902196,0.0
1663935917292119098,1.4150530036805113,0.047177326606988944,0.0
1663935917292153483,1.4261695460351675,0.04895989824005094,0.0
1663935917292277514,1.437235807866435,0.050785953439907085,0.0
1663935917336095988,1.448078261740013,0.05265682165253217,0.0
1663935917336164364,1.4589954215459702,0.05459556696508263,0.0
1663935917348494834,1.470071137932001,0.05661635445664935,0.0
1663935917369958190,1.4808846448202573,0.058647861938131,0.0
1663935917412152036,1.4919378461591837,0.06078837956501911,0.0
1663935917412193916,1.502979688310686,0.06298674201265324,0.0
1663935917456043871,1.5142187734859933,0.06528561906861871,0.0
1663935917456065081,1.525612610427392,0.06767837068739946,0.0
1663935917500113604,1.536819359200397,0.07013003404826372,0.0
1663935917500175429,1.547970631364185,0.07263490261483,0.0
1663935917544117810,1.5590264032183536,0.07517513694388232,0.0
1663935917544157994,1.5699879440256959,0.07774412481439395,0.0
1663935917588377505,1.580895326610794,0.08035671618186555,0.0
1663935917588425137,1.591997404913459,0.08307132384562385,0.0
1663935917632067175,1.603128429726409,0.08584660003183454,0.0
1663935917632115392,1.6142821134774823,0.08870622961223039,0.0
1663935917632137332,1.6252168969361938,0.09156064210342729,0.0
1663935917679996686,1.6360984101113356,0.09444988881651381,0.0
1663935917680025029,1.6470099247139658,0.09739199843979417,0.0
1663935917687579023,1.658073534388283,0.10042488687668215,0.0
1663935917708546955,1.6691659632297655,0.10351360262156376,0.0
1663935917752284362,1.6801217111658162,0.10661583215029329,0.0
1663935917752333172,1.6912266288226592,0.10981690306808181,0.0
1663935917796117729,1.7022703119583822,0.11307561529130415,0.0
1663935917796167151,1.7132599710882819,0.11636639992492402,0.0
1663935917840101089,1.724318526485461,0.11972413781128317,0.0
1663935917840149233,1.7351999031686902,0.1230779240842703,0.0
1663935917884150703,1.7461491361915322,0.12650081285075976,0.0
1663935917884198312,1.75704449127249,0.12995283762855153,0.0
1663935917928276783,1.768092636739634,0.133487251147498,0.0
1663935917928325655,1.7792519851213047,0.13709377344798487,0.0
1663935917972246120,1.790070076747691,0.14064639704897472,0.0
1663935917972283207,1.8007567657616323,0.14418896017038374,0.0
1663935917972323594,1.8113538728200862,0.14773058985657903,0.0
1663935918020582196,1.8218204372713294,0.1512590799933944,0.0
1663935918020607359,1.8324379698107054,0.15487358290339132,0.0
1663935918028699532,1.8432463806401789,0.15858888810592378,0.0
1663935918048811658,1.8541262728034982,0.1623585152851785,0.0
1663935918092184474,1.8647923577259478,0.16609372510336884,0.0
1663935918092217143,1.8755705921567054,0.169895685119239,0.0
1663935918136713150,1.886620096258798,0.1738258910305422,0.0
1663935918136750566,1.8975776157176796,0.17776004251016128,0.0
1663935918180129863,1.9086830894744418,0.18178674592325053,0.0
1663935918180148074,1.9196557198975763,0.18580433013445244,0.0
1663935918228177060,1.9297750248886065,0.18954757471381656,0.0
1663935918228245283,1.9400023719357913,0.19336735454788034,0.0
1663935918272281764,1.950210254418961,0.19723885048796314,0.0
1663935918272432261,1.9605645391202555,0.20120519640584317,0.0
1663935918272452641,1.970826760002681,0.2051732912169572,0.0
1663935918316145637,1.9808374168117047,0.2090823227808392,0.0
1663935918316205529,1.9907550266868197,0.21299497304084095,0.0
1663935918330101893,2.0008194791721534,0.2170001051223097,0.0
1663935918348812104,2.0111087440937325,0.22113219163995512,0.0
1663935918392252694,2.0215438106646073,0.2253588287442348,0.0
1663935918392286453,2.0317228677331447,0.2295356398562128,0.0
1663935918440063333,2.041653771188425,0.23364306411934663,0.0
1663935918440092634,2.0514543645374856,0.23773068737032735,0.0
1663935918484299458,2.0613214084060503,0.24188043726815345,0.0
1663935918484398111,2.071413905579382,0.24615405773073454,0.0
1663935918528165310,2.081416726370463,0.25042062236148277,0.0
1663935918528214484,2.0912501362709244,0.2546494553740515,0.0
1663935918572049539,2.101140951116063,0.25896037119109305,0.0
1663935918572081134,2.1110931971929574,0.26334361149385654,0.0
1663935918572109334,2.121263101957855,0.26786729181157753,0.0
1663935918616267470,2.1314179497406465,0.27242467187608366,0.0
1663935918616302314,2.141558430003135,0.27701393179355455,0.0
1663935918628940992,2.151606048190285,0.2816013692942607,0.0
1663935918649171942,2.161869982995422,0.2863309361110738,0.0
1663935918692075324,2.1723880310605534,0.29122217952003115,0.0
1663935918692096069,2.1822253654069494,0.2958575706021348,0.0
1663935918736133099,2.1919301114295022,0.30047402835166753,0.0
1663935918736181203,2.2014640981247044,0.30505218355273195,0.0
1663935918784118651,2.2110979968894466,0.3097176924756031,0.0
1663935918784154854,2.2210629511495394,0.31458007853699305,0.0
1663935918828163560,2.2309377394827496,0.3194326561246237,0.0
1663935918828210898,2.2404931647686537,0.324161468374817,0.0
1663935918876087364,2.250150693471902,0.3289723261806931,0.0
1663935918876110046,2.2599775825690602,0.3339211850937999,0.0
1663935918876118359,2.269903839783087,0.33895706279932586,0.0
1663935918919991794,2.280043861136846,0.34413704425030767,0.0
1663935918920004650,2.2898271896631965,0.34917146942257615,0.0
1663935918928015924,2.2998975209294272,0.35439366339889444,0.0
1663935918948203250,2.309989193046143,0.3596672195781631,0.0
1663935918996228870,2.3202142452121373,0.3650537174560676,0.0
1663935918996260837,2.3304881184619943,0.3705302408972874,0.0
1663935919040050288,2.3406320259516336,0.37597847762100595,0.0
1663935919040068542,2.350042585847724,0.3810794913791513,0.0
1663935919088629518,2.359021936367561,0.3859914690894951,0.0
1663935919088728790,2.3683183759898947,0.3911233794729611,0.0
1663935919132387226,2.37785397670379,0.396439549582113,0.0
1663935919132562179,2.387218580993462,0.40171192703572234,0.0
1663935919132643496,2.3964136378401677,0.4069375692866984,0.0
1663935919180006421,2.4054666699334573,0.41215381142346086,0.0
1663935919180019545,2.414720821178253,0.41753337122488887,0.0
1663935919188893532,2.4241381810376463,0.4230562942628253,0.0
1663935919208854029,2.433313096670585,0.428486647918024,0.0
1663935919252000554,2.442464230652416,0.4339569828747377,0.0
1663935919252019633,2.451699961501338,0.4395349295550756,0.0
1663935919300092109,2.4608709488370217,0.44513731911705756,0.0
1663935919300136768,2.4700114902418115,0.45078924625236255,0.0
1663935919344234573,2.4791073600552256,0.45651278797518563,0.0
1663935919344328124,2.487957285096972,0.4621464700076331,0.0
1663935919392189758,2.496634171461446,0.46773405591060585,0.0
1663935919392277155,2.5052111903323446,0.4733189469635507,0.0
1663935919392299244,2.5137637589492194,0.4789412090384328,0.0
1663935919440210434,2.522222606756493,0.484550620025246,0.0
1663935919440256934,2.530802657244614,0.490285792806112,0.0
1663935919449412356,2.539173933627786,0.4959493123962321,0.0
1663935919469232272,2.547557633428311,0.5016704290267747,0.0
1663935919512125230,2.555773832271575,0.5073341731043881,0.0
1663935919512168966,2.5638562921979835,0.5129662860521077,0.0
1663935919556047618,2.5721183169766113,0.5187880271137212,0.0
1663935919556071348,2.580313994879899,0.5246296320380891,0.0
1663935919604145126,2.588371124044751,0.5304448933474247,0.0
1663935919604193785,2.5966325132293164,0.5364868888394912,0.0
1663935919648082891,2.604698806843359,0.5425058913913178,0.0
1663935919648123916,2.61269415941593,0.5485483429594314,0.0
1663935919692016519,2.620750815874904,0.5547215013526421,0.0
1663935919692035727,2.628664244172131,0.5608708538630583,0.0
1663935919692048235,2.6366696132268426,0.5671795127481214,0.0
1663935919740170753,2.6445319110179204,0.5734626455520062,0.0
1663935919740220108,2.6523545757860094,0.5797950542811502,0.0
1663935919749512449,2.6602703417910316,0.5862832673894527,0.0
1663935919769420758,2.6680241662615924,0.5927664709579726,0.0
1663935919816118058,2.6757685018715884,0.5993271770027015,0.0
1663935919816140159,2.683471462754435,0.6059364123202652,0.0
1663935919864113561,2.691166101789729,0.6126205458278149,0.0
1663935919864140060,2.6990747418517325,0.619578244484906,0.0
1663935919912138532,2.7068451941106475,0.6264990325034603,0.0
1663935919912219945,2.7147645044631434,0.6336371233709764,0.0
1663935919912255008,2.722586036080583,0.6408193192046342,0.0
1663935919960182220,2.72983020184534,0.6475580852848637,0.0
1663935919960227697,2.7369077170456952,0.6542252663943896,0.0
1663935919969178192,2.7440060980088603,0.6609944191180578,0.0
1663935919988507273,2.751305992594538,0.6680463080056953,0.0
1663935920032164387,2.758530950001088,0.6751141020678249,0.0
1663935920032209321,2.765590168524718,0.6821071005885306,0.0
1663935920080089555,2.77248367083576,0.6890247078576012,0.0
1663935920080128305,2.7794247351635937,0.6961349976176484,0.0
1663935920128428824,2.786436837674463,0.7034140182116705,0.0
1663935920128520641,2.793400510027236,0.7107393844000841,0.0
1663935920172147430,2.800196208048377,0.7179887349144697,0.0
1663935920172208143,2.806826589730092,0.7251589303927127,0.0
1663935920172273607,2.8134955074036188,0.7324674489139352,0.0
1663935920216056917,2.820287021470941,0.7400101894317417,0.0
1663935920216114884,2.8271969531487025,0.7477902973560903,0.0
1663935920230743443,2.83388645689837,0.7554802681111326,0.0
1663935920249873384,2.840412382527057,0.763086132848397,0.0
1663935920296186181,2.846887720993725,0.7707351115681218,0.0
1663935920296253416,2.853448878246386,0.7785905222060747,0.0
1663935920340246107,2.860039153951674,0.7865880094113585,0.0
1663935920340375970,2.8666031453642975,0.7946621193834141,0.0
1663935920384099673,2.8731120264162198,0.8027807216373597,0.0
1663935920384143566,2.879462200088258,0.8108619556176947,0.0
1663935920428173892,2.8858645841021815,0.8191188346315668,0.0
1663935920428213381,2.8921616863901365,0.8273491467912251,0.0
1663935920472667361,2.898558197894201,0.835825285913136,0.0
1663935920472695862,2.9049477794130785,0.8444131975878277,0.0
1663935920472701148,2.9111748999988127,0.8529090275910665,0.0
1663935920516048608,2.9174159594999702,0.8615529268266592,0.0
1663935920516081359,2.9236938700261916,0.870380277858781,0.0
1663935920533035922,2.9298059455211107,0.8791678550028578,0.0
1663935920549541572,2.93582627638225,0.8879669137033374,0.0
1663935920592023279,2.941734300249156,0.896739123307388,0.0
1663935920592052735,2.947511733099065,0.9054447445819587,0.0
1663935920636116285,2.9532764531772213,0.9142608752895713,0.0
1663935920636220227,2.959147466012613,0.9233639239605502,0.0
1663935920684102909,2.965100131497448,0.9327185423515588,0.0
1663935920684162934,2.9709064572377795,0.9419638615456941,0.0
1663935920728285276,2.9765871524016965,0.951186875655745,0.0
1663935920728353294,2.982211401739854,0.9604444188612492,0.0
1663935920776104176,2.9878244690966613,0.9698083293932988,0.0
1663935920776133793,2.9933785908583705,0.9792073228000624,0.0
1663935920776156498,2.998891706249584,0.9886798034537803,0.0
1663935920820205791,3.0043011098064536,0.9981136971719518,0.0
1663935920820247824,3.009604251994362,1.007509914305312,0.0
1663935920829596420,3.014786494166225,1.0169246975522936,0.0
1663935920850213202,3.0199061816141706,1.0263736434168238,0.0
1663935920892173560,3.0249680535735375,1.03585368718162,0.0
1663935920892232806,3.0299553709539415,1.045324993546943,0.0
1663935920936235824,3.034850395604451,1.0547483171382521,0.0
1663935920936253721,3.0398694469555543,1.0645395416482237,0.0
1663935920984165176,3.044879125604794,1.07443126705116,0.0
1663935920984193773,3.0499393413713447,1.0845362844363386,0.0
1663935921028114570,3.0549871632409444,1.0947902949580535,0.0
1663935921028168330,3.0599155235142494,1.1049128608662793,0.0
1663935921076197201,3.064821723566875,1.1150935465505751,0.0
1663935921076234017,3.0697071628346326,1.125331484082079,0.0
1663935921076246047,3.0746643961048625,1.1358185921434374,0.0
1663935921124327692,3.079384238351341,1.145898956011492,0.0
1663935921124373949,3.084049160506731,1.1559578631539156,0.0
1663935921130453190,3.0887163277051837,1.1661096792074184,0.0
1663935921153893551,3.093309127038355,1.1762485568982304,0.0
1663935921196121260,3.097885747405396,1.1864415135281028,0.0
1663935921196151801,3.102378285996212,1.1965319204112594,0.0
1663935921240171210,3.1068046560616125,1.2065583644018287,0.0
1663935921240223055,3.111302108817732,1.2168330686417355,0.0
1663935921285029473,3.1158503193727665,1.2273182495249495,0.0
1663935921285075182,3.120395570634925,1.2378976083675202,0.0
1663935921328058101,3.124892767656123,1.2484974839096459,0.0
1663935921328087656,3.12931989851828,1.2590343596200253,0.0
1663935921372109137,3.1334481129931806,1.268956638731434,0.0
1663935921372182150,3.137554428810152,1.2789341325998218,0.0
1663935921372202922,3.1416437351183513,1.2889646789826101,0.0
1663935921420201790,3.1457671918009873,1.2991654661510645,0.0
1663935921420233625,3.1498427233703903,1.3093395692308794,0.0
1663935921431349681,3.1539055751176566,1.319564645736677,0.0
1663935921448946445,3.157849406814595,1.3296074742739294,0.0
1663935921496534255,3.161856246054151,1.3399004064784077,0.0
1663935921496593130,3.1659111233371706,1.3504034082288368,0.0
1663935921544113467,3.1698927244316577,1.3607975171020592,0.0
1663935921544156753,3.173847100199108,1.3712020141506351,0.0
1663935921592020678,3.1777236931525383,1.3814991487493036,0.0
1663935921592048829,3.181623863364365,1.3919696067699088,0.0
1663935921592056813,3.185550162562962,1.402612306443442,0.0
1663935921636429752,3.1893934285043146,1.4131945738022786,0.0
1663935921636476370,3.193183471871127,1.423750718922007,0.0
1663935921650146327,3.196881378434236,1.434158634232392,0.0
1663935921670214507,3.200560720688793,1.4446183451361203,0.0
1663935921716127929,3.2042632841358247,1.4552506590644507,0.0
1663935921716218346,3.2079853926563415,1.4660116139035297,0.0
1663935921760165023,3.2116830757850017,1.4767809862328358,0.0
1663935921760207881,3.215278296655683,1.4873600318293672,0.0
1663935921804110139,3.218876766333668,1.4980280256204457,0.0
1663935921804125342,3.222398701523411,1.5085417825196228,0.0
1663935921848100332,3.2259157566979755,1.5191021314458228,0.0
1663935921848142515,3.2295235132584716,1.5299918497110698,0.0
1663935921895810387,3.2331294165896103,1.540927095648977,0.0
1663935921895941812,3.236634654622382,1.551626085408925,0.0
1663935921896230042,3.2402287923366075,1.5626549462420873,0.0
1663935921936138140,3.2437547216450717,1.5735714334888151,0.0
1663935921936163550,3.247296847362662,1.5846171087776721,0.0
1663935921949646650,3.25081583132019,1.5956701784459926,0.0
1663935921969960727,3.2542859534731288,1.6066492674245787,0.0
1663935922012352503,3.2577349909061373,1.6176349983215985,0.0
1663935922012389948,3.2612264112768905,1.628830892354774,0.0
1663935922056035404,3.264734184318814,1.6401556787212614,0.0
1663935922056057759,3.2682202088804866,1.651487178653558,0.0
1663935922104374991,3.2716248732442472,1.6626651866096716,0.0
1663935922104450587,3.2750080711119254,1.6738497104477674,0.0
1663935922148154393,3.278431135248925,1.6852449242441594,0.0
1663935922148190943,3.281769408422118,1.6964429389573994,0.0
1663935922192129639,3.2851345967878762,1.7078109099823091,0.0
1663935922192182870,3.2884539010978346,1.7191034904573852,0.0
1663935922192224898,3.2914510283674456,1.7293794919681114,0.0
1663935922236177801,3.294103916155428,1.7386008323649815,0.0
1663935922236237502,3.296801099503113,1.7480756440626797,0.0
1663935922251310666,3.2997164112855537,1.7584194699857432,0.0
1663935922272043091,3.3025570102155317,1.7686070803565974,0.0
1663935922312178835,3.3053124525866,1.7785970289455597,0.0
1663935922312232658,3.3079916568243557,1.7884309994195144,0.0
1663935922360856814,3.3107046770206043,1.7985208999901945,0.0
1663935922360889954,3.3134935922066844,1.8090319394065264,0.0
1663935922404156407,3.3162633137302966,1.8196803006208786,0.0
1663935922404193418,3.319029504078117,1.8304617122865026,0.0
1663935922448163254,3.321719233297566,1.8411305599560366,0.0
1663935922448215858,3.3243763726865843,1.8518515125408097,0.0
1663935922492339053,3.326982226876256,1.8625411560246612,0.0
1663935922492389818,3.329537075626979,1.8731992552413521,0.0
1663935922492432559,3.3321156282669877,1.8841585500102946,0.0
1663935922536166422,3.3346386589605004,1.8950869965893231,0.0
1663935922536202910,3.3370575278651535,1.905864208069095,0.0
1663935922550084903,3.3393597376916198,1.9163178585718434,0.0
1663935922569659077,3.341315377844507,1.925363052514996,0.0
1663935922612114953,3.3430872439497064,1.9337061870475427,0.0
1663935922612163991,3.3449765274193193,1.9427654734349067,0.0
1663935922656003465,3.3469968278758637,1.9526250814622133,0.0
1663935922656022160,3.3489271384157653,1.9621983549703181,0.0
1663935922700235531,3.3507068734126597,1.971236336745952,0.0
1663935922700269983,3.3524419899738493,1.9801961287403849,0.0
1663935922744070831,3.354207891699519,1.9894974010581623,0.0
1663935922744098264,3.356005463833274,1.9991398683419292,0.0
1663935922788099696,3.357812873852566,2.008997360555209,0.0
1663935922788161371,3.3595515103332425,2.0186506286071504,0.0
1663935922832130909,3.361269564955431,2.0283942005510784,0.0
1663935922832165378,3.362917303888352,2.0379335915198253,0.0
1663935922832178062,3.364396957261293,2.046766181064204,0.0
1663935922876137984,3.365833499668404,2.055519462582963,0.0
1663935922876181202,3.3671680194536044,2.063814063618088,0.0
1663935922890948358,3.368429981114074,2.0718179366971943,0.0
1663935922911228250,3.369648638629771,2.0796990833478675,0.0
1663935922956135149,3.3708411546207766,2.0875842278792747,0.0
1663935922956185353,3.3720330469525184,2.095685054971118,0.0
1663935923004182504,3.3732076523769234,2.1039176610215016,0.0
1663935923004229568,3.3743090094824977,2.112117358839869,0.0
1663935923058375763,3.375359917202722,2.120366667492564,0.0
1663935923058452878,3.3763198525023856,2.1283694029044664,0.0
1663935923058467398,3.377213549795531,2.136336893772008,0.0
1663935923096155172,3.378102112896637,2.144862569795444,0.0
1663935923096211737,3.378927351545613,2.1534802942491846,0.0
1663935923111317733,3.3796912017458833,2.162317721720209,0.0
1663935923132832719,3.3803131952757424,2.1710807602476896,0.0
1663935923180193392,3.3808321798738863,2.1797650594942644,0.0
1663935923180262443,3.3812649786173483,2.188710264769225,0.0
1663935923224104319,3.381594710262754,2.1977025367638614,0.0
1663935923224130003,3.3818098851844347,2.206570303742484,0.0
1663935923268055254,3.3819136104032785,2.215440074456153,0.0
1663935923268081747,3.3819104842850307,2.2243957431855614,0.0
1663935923312175517,3.3818063421895905,2.2334361047268714,0.0
1663935923312223346,3.3816014521002593,2.240725699404591,0.0
1663935923312236550,3.381326423762456,2.2477569198392007,0.0
1663935923360069869,3.3809548837127834,2.2551680241811063,0.0
1663935923360101858,3.380492850597207,2.2627876707704737,0.0
1663935923370395486,3.3799610475546245,2.270317263753597,0.0
1663935923390154733,3.3793805317117287,2.277501027809703,0.0
1663935923432056880,3.378730105105509,2.2845931539726916,0.0
1663935923432113221,3.377966845522682,2.2920170791796384,0.0
1663935923476338356,3.3770545696048133,2.299724859491855,0.0
1663935923476360724,3.376009907091384,2.307845985468925,0.0
1663935923520153063,3.374885023407094,2.3158702716175963,0.0
1663935923520203312,3.373708589196074,2.323585318428483,0.0
1663935923568427532,3.3723852480675327,2.3316224957173763,0.0
1663935923568472572,3.370953175035311,2.339727640225019,0.0
1663935923616074466,3.369445038190088,2.3477321997863987,0.0
1663935923616109501,3.3678691098617937,2.3553756541527906,0.0
1663935923616140949,3.3662754340589855,2.3626665682316053,0.0
1663935923660140602,3.3645499504443768,2.3701464146863986,0.0
1663935923660189643,3.3628276436751734,2.377276466501806,0.0
1663935923670420940,3.3610120575014553,2.384515311541929,0.0
1663935923690300546,3.3591516271989765,2.391698716630377,0.0
1663935923732138726,3.357204333975424,2.398991564775588,0.0
1663935923732177682,3.3551145348342652,2.406599273794589,0.0
1663935923776500416,3.352986977094574,2.4141078983564723,0.0
1663935923776539499,3.35074268383118,2.421893633983041,0.0
1663935923824175776,3.3484843936004616,2.4295864703136787,0.0
1663935923824208033,3.3462971677677036,2.4369000557478735,0.0
1663935923868141255,3.343926563393789,2.4446928527693523,0.0
1663935923868190808,3.341459031972589,2.4526789591320757,0.0
1663935923912451495,3.338942512067764,2.460694473897679,0.0
1663935923912504287,3.3364141796356095,2.4686167864007533,0.0
1663935923912526381,3.333867631877546,2.4763987592494794,0.0
1663935923956787759,3.331324803207004,2.484047240942255,0.0
1663935923956882228,3.3286668426494015,2.4919270090833923,0.0
1663935923973154792,3.325808844474562,2.500279295210987,0.0
1663935923991132901,3.3228849949625503,2.5086990984833224,0.0
1663935924032490082,3.3200250107778784,2.516824990224734,0.0
1663935924032532146,3.317163874286003,2.524859994972572,0.0
1663935924076180025,3.314211476273795,2.5329981482990873,0.0
1663935924076258178,3.311141126249395,2.541365640984557,0.0
1663935924120031431,3.3080401284541328,2.549721824071798,0.0
1663935924120050764,3.3049998417205244,2.5578275535371704,0.0
1663935924164131824,3.301899620362255,2.566001834431896,0.0
1663935924164156924,3.2987098358184053,2.5743245297691972,0.0
1663935924208151096,3.295537222190641,2.5825167360015997,0.0
1663935924208180447,3.292367111274036,2.590618389857054,0.0
1663935924256067477,3.289167563184449,2.5986625856285888,0.0
1663935924256113953,3.2858257577480092,2.6069713971313555,0.0
1663935924256127527,3.282421404905053,2.6153469188520777,0.0
1663935924300364073,3.278889159338905,2.623946595075541,0.0
1663935924300415516,3.275307565195273,2.6325720306390106,0.0
1663935924311635775,3.2717243998498615,2.641104380138666,0.0
1663935924334477044,3.26795698252695,2.6499755540191665,0.0
1663935924376249762,3.2640330056752003,2.6591044641480863,0.0
1663935924376298020,3.2600672528846353,2.668168773868934,0.0
1663935924421127874,3.2561106627898098,2.6770973269019267,0.0
1663935924421164117,3.2521089321005556,2.686005739551334,0.0
1663935924464072817,3.248026820375634,2.694971408437877,0.0
1663935924464096144,3.243738572509721,2.70426480345937,0.0
1663935924512136777,3.239401723545845,2.713535617978577,0.0
1663935924512198048,3.234978220494277,2.7228598924253027,0.0
1663935924512222121,3.2306053923808724,2.7318773897501334,0.0
1663935924556673612,3.2262199131223777,2.7407937884709326,0.0
1663935924556721316,3.221649858867936,2.749951892253729,0.0
1663935924571308164,3.2169275733827387,2.7592721171387713,0.0
1663935924591984997,3.2121094290303542,2.7686391680745137,0.0
1663935924636170863,3.207174941015422,2.7780900223069396,0.0
1663935924636239689,3.202305834267103,2.787286164681833,0.0
1663935924680056014,3.1973467251510344,2.7965309893563295,0.0
1663935924680065654,3.192266157250166,2.805806992652685,0.0
1663935924724042513,3.187130634213433,2.815052684108088,0.0
1663935924724074734,3.1818291320555496,2.8244498266712497,0.0
1663935924768288687,3.1765486164461145,2.8336626681837327,0.0
1663935924768348597,3.1711625973398294,2.842913061532419,0.0
1663935924812140946,3.1656453580261474,2.8522347758154845,0.0
1663935924812170693,3.159948334922644,2.8616974996208047,0.0
1663935924812432183,3.1540880382463743,2.87126063463905,0.0
1663935924856231916,3.1480869583637405,2.880786500258096,0.0
1663935924856267041,3.1419815935332855,2.890296583341111,0.0
1663935924871495027,3.1356967151136153,2.8998935711261518,0.0
1663935924890457326,3.1293657617876525,2.9093577811233824,0.0
1663935924932042825,3.122863804457622,2.9188607645199003,0.0
1663935924932063019,3.116313222096087,2.928226398942159,0.0
1663935924976211174,3.1096202147330567,2.9375958063404126,0.0
1663935924976253843,3.1027652738974107,2.9469004201059468,0.0
1663935925020440988,3.0956965001122003,2.9563117214007573,0.0
1663935925020472507,3.088489121505629,2.965724954191981,0.0
1663935925064203035,3.081352405348048,2.9748693994825492,0.0
1663935925064238255,3.0741345766419137,2.9839499581633238,0.0
1663935925108219358,3.066680039714957,2.99316869653497,0.0
1663935925108280832,3.0590434100673867,3.002459067903874,0.0
1663935925156090597,3.0512487801135766,3.011784647765512,0.0
1663935925156110666,3.043484286648541,3.0208564475728465,0.0
1663935925156125332,3.0357094367945714,3.0298066971620172,0.0
1663935925200250383,3.02801477301533,3.0385437979329133,0.0
1663935925200558557,3.0202967730193584,3.047203247872041,0.0
1663935925213884260,3.0123877683381504,3.055977843742607,0.0
1663935925231124084,3.0044026811838243,3.064741041851633,0.0
1663935925272138484,2.9963702976725974,3.0734609084268047,0.0
1663935925316176949,2.9881470808449038,3.0822946717597777,0.0
1663935925316229361,2.9798840397032254,3.0910325927732245,0.0
1663935925316279045,2.971585988969028,3.099737273500224,0.0
1663935925364063843,2.963198537221696,3.1084744651111778,0.0
1663935925364085395,2.954835392892586,3.1171166251118247,0.0
1663935925371496557,2.946141386850709,3.126031927903483,0.0
1663935925392023811,2.9375013515818944,3.1348210227019817,0.0
1663935925432094699,2.9286459953944552,3.1437571144734453,0.0
1663935925432125936,2.9198918033715513,3.1524929909327692,0.0
1663935925477952250,2.9110481170780895,3.1612598362984627,0.0
1663935925478002563,2.90221035396817,3.169972012532485,0.0
1663935925524094374,2.893442659550106,3.178572974695049,0.0
1663935925524150936,2.884653975211507,3.187152487683959,0.0
1663935925569582394,2.875786184091657,3.19577302688642,0.0
1663935925569629362,2.867053561523855,3.2042266650949625,0.0
1663935925612392735,2.858056116732137,3.212897206192076,0.0
1663935925612448155,2.849145758658656,3.2214121293171374,0.0
1663935925612479873,2.8401234084101596,3.229994993694291,0.0
1663935925660136438,2.8311435376437215,3.238498718554875,0.0
1663935925660190551,2.8222079292616438,3.2469251008374775,0.0
1663935925671424805,2.8132294969044223,3.255368213369604,0.0
1663935925691146042,2.8042407560425877,3.263800350378817,0.0
1663935925732166027,2.795335135691054,3.2721340825085052,0.0
1663935925776200052,2.78616994753902,3.280689735024726,0.0
1663935925776259867,2.7770195805357663,3.2891987349308556,0.0
1663935925776281466,2.767893046767068,3.2976707327054045,0.0
1663935925820169362,2.7588172842239196,3.306072039136361,0.0
1663935925820208008,2.749732728831201,3.314463836846213,0.0
1663935925830777663,2.7404198961789663,3.323048447523714,0.0
1663935925851158147,2.731038319587165,3.331684319556346,0.0
1663935925892388086,2.7214937329735966,3.340457942924908,0.0
1663935925892459905,2.711968342311508,3.3491894142514633,0.0
1663935925936173625,2.702433813298579,3.3579109058265018,0.0
1663935925936206133,2.6928871160841386,3.3666190761904566,0.0
1663935925980027247,2.6833567921573906,3.3752818863677523,0.0
1663935925980045110,2.6737211145700748,3.384018985273349,0.0
1663935926024232390,2.664044670432742,3.3927746020589162,0.0
1663935926024266797,2.6543876728715525,3.401488130503586,0.0
1663935926068353416,2.6445917097629255,3.410302265582612,0.0
1663935926075517583,2.634843881779788,3.4190423513948747,0.0
1663935926116097937,2.6254350360941583,3.4274577857331927,0.0
1663935926116125328,2.6162690598715135,3.435632985756209,0.0
1663935926116144383,2.6071249635637628,3.443768634121412,0.0
1663935926160188814,2.5976824120585054,3.4521462312297184,0.0
1663935926160253339,2.588257203137949,3.4604790882522716,0.0
1663935926171409179,2.5789397365061966,3.468676215010221,0.0
1663935926193029415,2.569595138453143,3.4768423988647874,0.0
1663935926236291761,2.5601742307016204,3.4849857926327723,0.0
1663935926236343527,2.5511429370536423,3.4927320175582106,0.0
1663935926284019652,2.5423742560532117,3.500194750038256,0.0
1663935926284038212,2.5335730963143845,3.5076191510112427,0.0
1663935926328122721,2.5244411814477643,3.5152464963174612,0.0
1663935926328150087,2.51537462259653,3.522752338407812,0.0
1663935926374881978,2.507001899471218,3.529624877551856,0.0
1663935926374957031,2.4991062577805083,3.5360026859636475,0.0
1663935926416037095,2.4911406849569326,3.5423615192074536,0.0
1663935926416052864,2.4828083994141594,3.5489443234328055,0.0
1663935926416067788,2.474510094925667,3.5554323355204542,0.0
1663935926460064813,2.4668219845192976,3.5613851066178466,0.0
1663935926460100548,2.4597470214944,3.5668060734421365,0.0
1663935926472964999,2.4528173760813026,3.57206596059548,0.0
1663935926492672846,2.4453516714341395,3.5776774852894113,0.0
1663935926540069005,2.437922244711588,3.5831950645096007,0.0
1663935926540090615,2.4303372774104566,3.5887892283598237,0.0
1663935926588139012,2.422904875386723,3.59423091664504,0.0
1663935926588173742,2.415484259037937,3.5996163758612245,0.0
1663935926632272302,2.4080065301820692,3.6049956083709778,0.0
1663935926632333119,2.4004734872471256,3.6103708596225124,0.0
1663935926632349079,2.3926761950295345,3.615889607379184,0.0
1663935926680082726,2.384679335987063,3.6214953107156327,0.0
1663935926680106692,2.37663966445842,3.627039437892472,0.0
1663935926692186960,2.368886335857554,3.632322453473344,0.0
1663935926712336621,2.3613485990610705,3.6373914225520507,0.0
1663935926756329036,2.3554842717997255,3.641280299916858,0.0
1663935926756359525,2.3498428735483174,3.644964900327058,0.0
1663935926804301213,2.343674444462978,3.648934089427715,0.0
1663935926804376797,2.3375518570162632,3.65281660431605,0.0
1663935926852497517,2.3325209633789847,3.6559517157495476,0.0
1663935926852604218,2.3276589438068758,3.6589545602397084,0.0
1663935926896015264,2.3223842385893225,3.6621818406334032,0.0
1663935926896035585,2.316840769967515,3.6655417298872863,0.0
1663935926896043855,2.311212512665562,3.668926202545349,0.0
1663935926940303527,2.3056126030631585,3.672275024958462,0.0
1663935926940346301,2.299711294758425,3.67578454007181,0.0
1663935926952272062,2.2936888229596444,3.679340547302852,0.0
1663935926971745680,2.2874280777361324,3.682996100359106,0.0
1663935927012136329,2.2812696842709386,3.686573179923455,0.0
1663935927012164527,2.275177040752893,3.6900936055154365,0.0
1663935927056143072,2.269815356117346,3.693174220996238,0.0
1663935927056173148,2.2644821260175645,3.6962187095551564,0.0
1663935927100146714,2.2598090544148253,3.6988712265060055,0.0
1663935927100235205,2.255129054561235,3.7015115003079555,0.0
1663935927144178630,2.2505156512007316,3.704096188155768,0.0
1663935927144210113,2.2462582202901897,3.7064435086242127,0.0
1663935927188413908,2.2420252062389676,3.7087466329951306,0.0
1663935927188509834,2.2377789974273266,3.7110253388896464,0.0
1663935927232347823,2.233406253129768,3.713338633895909,0.0
1663935927232379213,2.2288287094561987,3.715720536962333,0.0
1663935927232965468,2.2244229142049297,3.717970246872905,0.0
1663935927276156919,2.220075090523966,3.7201455768660026,0.0
1663935927276195644,2.2158921527260675,3.722173094769969,0.0
1663935927292698998,2.211614608118855,3.7242005638922615,0.0
1663935927312579866,2.2073952185751944,3.726151089296054,0.0
1663935927356215469,2.20319420058115,3.7280391016431214,0.0
1663935927356261187,2.1990114469611535,3.7298630253450646,0.0
1663935927400057693,2.195357950006441,3.731406322881319,0.0
1663935927400084667,2.191646650943049,3.732921631647247,0.0
1663935927444176802,2.187836194637286,3.734418770407508,0.0
1663935927444215700,2.185195184896318,3.7353920431185084,0.0
1663935927488753070,2.182298471782563,3.736410432340394,0.0
1663935927488786510,2.1793857804852084,3.7373821796722475,0.0
1663935927532139479,2.17621247289131,3.738379676018068,0.0
1663935927532164463,2.173019459083288,3.7393121688422735,0.0
1663935927532174370,2.1696406940670445,3.7402137149939456,0.0
1663935927576271235,2.1663243908970875,3.741014787909854,0.0
1663935927576312587,2.1626977032684414,3.7417975804992447,0.0
1663935927593285264,2.1590435269511077,3.7424399377484603,0.0
1663935927613763855,2.155331126003755,3.742989461623658,0.0
1663935927656582204,2.1515626421325416,3.7434414946483674,0.0
1663935927656613853,2.1478682985398074,3.7437842085415873,0.0
1663935927700992586,2.143953397748966,3.7440428634100873,0.0
1663935927701047472,2.1402886906927296,3.7441874907462975,0.0
1663935927748115556,2.1364935266602707,3.744237834661048,0.0
1663935927748165716,2.132443396639674,3.7441374369967644,0.0
1663935927792309481,2.1284820494894943,3.7439436947988223,0.0
1663935927792331972,2.124356229503565,3.74364433316076,0.0
1663935927836831387,2.120111116059639,3.743237070740535,0.0
1663935927836933932,2.1158763349667162,3.7427336028411036,0.0
1663935927836946932,2.111485066725589,3.7421109784816475,0.0
1663935927884133469,2.1070246437275646,3.7413765587977452,0.0
1663935927884169846,2.1024973190597773,3.740530110830408,0.0
1663935927893017517,2.0980418401402336,3.739544802191652,0.0
1663935927913187944,2.0938580265623945,3.7385210295223943,0.0
1663935927960169146,2.0898628749014594,3.737448289501345,0.0
1663935927960220273,2.0856072633142984,3.7361990225652026,0.0
1663935928008414566,2.081503683213652,3.7348901922133204,0.0
1663935928008524196,2.0774313427033406,3.733487177851132,0.0
1663935928052365692,2.0733492573962877,3.731984453940948,0.0
1663935928052409184,2.0690972539164028,3.730328376671268,0.0
1663935928096207128,2.0649306010808193,3.728575165405865,0.0
1663935928096253272,2.060913150215623,3.726799068958018,0.0
1663935928096271619,2.056848600655216,3.7249201224681263,0.0
1663935928140215639,2.0528905814989735,3.7230152564872387,0.0
1663935928140270231,2.0489598863713523,3.721054627542227,0.0
1663935928152463815,2.045056597366984,3.7190399898589943,0.0
1663935928173419657,2.04129257381709,3.717035251086342,0.0
1663935928220267804,2.0376017534377153,3.714985183422485,0.0
1663935928220317738,2.033894069225334,3.712878069611608,0.0
1663935928264140682,2.030537277804003,3.710930639888458,0.0
