%time,field.linear.x,field.linear.y,field.linear.z,field.angular.x,field.angular.y,field.angular.z
1663935912427442754,0.6022599935531616,0.0,0.0,0.0,0.0,0.036403484642505646
1663935912535946385,0.6004896759986877,0.0,0.0,0.0,0.0,0.035591211169958115
1663935912621251413,0.6013907790184021,0.0,0.0,0.0,0.0,-0.061273638159036636
1663935912669415942,0.5991364121437073,0.0,0.0,0.0,0.0,-0.06143398955464363
1663935912832139331,0.5708648562431334,0.0,0.0,0.0,0.0,-0.06646088510751724
1663935913012112966,0.5479432344436646,0.0,0.0,0.0,0.0,-0.05965385213494301
1663935913143678184,0.5351368188858031,0.0,0.0,0.0,0.0,-0.056141868233680725
1663935913181378215,0.5340706706047058,0.0,0.0,0.0,0.0,-0.05641762912273407
1663935913315554364,0.522985577583313,0.0,0.0,0.0,0.0,-0.05784182250499725
1663935913521509388,0.4923897087574005,0.0,0.0,0.0,0.0,0.04438893124461174
1663935913623422199,0.4814780652523041,0.0,0.0,0.0,0.0,-0.06089777126908302
1663935913661255544,0.48076727986335754,0.0,0.0,0.0,0.0,-0.06097456440329552
1663935913774001833,0.4620815813541412,0.0,0.0,0.0,0.0,-0.061582401394844055
1663935913952289989,0.44030052423477173,0.0,0.0,0.0,0.0,-0.06309090554714203
1663935914029354918,0.4077573418617248,0.0,0.0,0.0,0.0,0.047352273017168045
1663935914205475336,0.38964536786079407,0.0,0.0,0.0,0.0,-0.06523235887289047
1663935914294526296,0.3649148046970367,0.0,0.0,0.0,0.0,-0.06709504127502441
1663935914457641534,0.3349824547767639,0.0,0.0,0.0,0.0,0.051560625433921814
1663935914594759786,0.2991919815540313,0.0,0.0,0.0,0.0,-0.06870920211076736
1663935914762097747,0.28461953997612,0.0,0.0,0.0,0.0,0.059532180428504944
1663935914970758822,0.2652070820331573,0.0,0.0,0.0,0.0,0.06657268106937408
1663935915055146693,0.2701963782310486,0.0,0.0,0.0,0.0,0.06905266642570496
1663935915101909213,0.2710493206977844,0.0,0.0,0.0,0.0,0.07028486579656601
1663935915208861746,0.273600310087204,0.0,0.0,0.0,0.0,-0.05480995401740074
1663935915358589803,0.2905845046043396,0.0,0.0,0.0,0.0,-0.04985787346959114
1663935915489346287,0.3150828182697296,0.0,0.0,0.0,0.0,-0.045176900923252106
1663935915610350817,0.3448936641216278,0.0,0.0,0.0,0.0,-0.03720799461007118
1663935915746699091,0.39530932903289795,0.0,0.0,0.0,0.0,-0.02187025547027588
1663935915849587008,0.4388814866542815,0.0,0.0,0.0,0.0,-0.007058571092784405
1663935915958033991,0.4777103364467621,0.0,0.0,0.0,0.0,0.007611794862896204
1663935916168733471,0.5793533325195312,0.0,0.0,0.0,0.0,0.13255779445171356
1663935916286666204,0.6096057295799254,0.0,0.0,0.0,0.0,0.17453292519943245
1663935916301446336,0.6088238358497619,0.0,0.0,0.0,0.0,0.17453292519943245
1663935916420435538,0.5908511877059937,0.0,0.0,0.0,0.0,0.06539205461740494
1663935916514062517,0.6239475607872009,0.0,0.0,0.0,0.0,0.3490658503988654
1663935916681700732,0.6436612606048584,0.0,0.0,0.0,0.0,0.3490658503988654
1663935916771734892,0.6531362533569336,0.0,0.0,0.0,0.0,0.3490658503988654
1663935916895608378,0.652557909488678,0.0,0.0,0.0,0.0,0.3490658503988654
1663935917030247888,0.7064161896705626,0.0,0.0,0.0,0.0,0.5235987755982984
1663935917119028768,0.6500504016876221,0.0,0.0,0.0,0.0,0.5235987755982984
1663935917233627179,0.6624158620834351,0.0,0.0,0.0,0.0,0.5235987755982984
1663935917369327389,0.6609328985214233,0.0,0.0,0.0,0.0,0.3490658503988654
1663935917453232390,0.6542951464653015,0.0,0.0,0.0,0.0,0.3490658503988654
1663935917573643999,0.6493635177612304,0.0,0.0,0.0,0.0,0.3490658503988654
1663935917717373396,0.640527069568634,0.0,0.0,0.0,0.0,0.17740315198898315
1663935917835518446,0.6309530735015869,0.0,0.0,0.0,0.0,0.18044216930866241
1663935917967628746,0.6984001994132996,0.0,0.0,0.0,0.0,0.2612447440624237
1663935918102419256,0.6211104989051818,0.0,0.0,0.0,0.0,0.19074152410030365
1663935918218058361,0.6090310215950012,0.0,0.0,0.0,0.0,0.1950235366821289
1663935918350233539,0.5978782176971436,0.0,0.0,0.0,0.0,0.19771923124790192
1663935918451493142,0.6761143803596495,0.0,0.0,0.0,0.0,0.27648499608039856
1663935918602638304,0.6056476831436157,0.0,0.0,0.0,0.0,0.20950283110141754
1663935918734974167,0.6076582670211792,0.0,0.0,0.0,0.0,0.2142922580242157
1663935918808986304,0.6775786876678467,0.0,0.0,0.0,0.0,0.5235987755982984
1663935918943130568,0.5925638675689696,0.0,0.0,0.0,0.0,0.3490658503988654
1663935919107597182,0.5836061835289001,0.0,0.0,0.0,0.0,0.5235987755982984
1663935919198177156,0.5719400644302367,0.0,0.0,0.0,0.0,0.23684172332286835
1663935919323936784,0.5597460269927977,0.0,0.0,0.0,0.0,0.5235987755982984
1663935919451240368,0.5537980794906616,0.0,0.0,0.0,0.0,0.5235987755982984
1663935919550613000,0.5545068979263306,0.0,0.0,0.0,0.0,0.5235987755982984
1663935919753276743,0.6358594298362732,0.0,0.0,0.0,0.0,0.5235987755982984
1663935919863309532,0.5405259728431702,0.0,0.0,0.0,0.0,0.5235987755982984
1663935919877855323,0.5398151874542236,0.0,0.0,0.0,0.0,0.5235987755982984
1663935920100539473,0.5579365491867065,0.0,0.0,0.0,0.0,0.5235987755982984
1663935920191299121,0.5679464340209961,0.0,0.0,0.0,0.0,0.5235987755982984
1663935920235358153,0.5683018565177917,0.0,0.0,0.0,0.0,0.5235987755982984
1663935920359532223,0.5770053863525391,0.0,0.0,0.0,0.0,0.5235987755982984
1663935920575445766,0.5892377495765686,0.0,0.0,0.0,0.0,0.5235987755982984
1663935920704761296,0.5940752625465393,0.0,0.0,0.0,0.0,0.3490658503988654
1663935920743577850,0.5935776829719543,0.0,0.0,0.0,0.0,0.3490658503988654
1663935920874764436,0.6791468262672423,0.0,0.0,0.0,0.0,0.3490658503988654
1663935920997479920,0.6054221987724304,0.0,0.0,0.0,0.0,0.24903227388858795
1663935921136093517,0.6831697821617125,0.0,0.0,0.0,0.0,0.31224325299263
1663935921253532919,0.5993247628211975,0.0,0.0,0.0,0.0,0.2388482391834259
1663935921479659304,0.6041277050971985,0.0,0.0,0.0,0.0,0.23607094585895538
1663935921594114524,0.6052332520484923,0.0,0.0,0.0,0.0,0.2379322499036789
1663935921646503523,0.6050910949707031,0.0,0.0,0.0,0.0,0.2389724850654602
1663935921753136309,0.6752057671546936,0.0,0.0,0.0,0.0,0.31411537528038025
1663935921861393720,0.6613792777061461,0.0,0.0,0.0,0.0,0.3490658503988654
1663935922118614034,0.5399170517921447,0.0,0.0,0.0,0.0,0.2691851258277893
1663935922198381131,0.6213832497596741,0.0,0.0,0.0,0.0,0.3490658503988654
1663935922251542213,0.6233733296394348,0.0,0.0,0.0,0.0,0.3490658503988654
1663935922342872227,0.6139181852340698,0.0,0.0,0.0,0.0,0.35046088695526123
1663935922501650701,0.4838910698890685,0.0,0.0,0.0,0.0,0.3490658503988654
1663935922637601538,0.5639046430587769,0.0,0.0,0.0,0.0,0.37248674035072327
1663935922758970751,0.43588149547576904,0.0,0.0,0.0,0.0,0.6981317007977313
1663935922936490870,0.42034271359443665,0.0,0.0,0.0,0.0,1.2217304763960302
1663935923022998759,0.522856593132019,0.0,0.0,0.0,0.0,0.8726646259971643
1663935923182702743,0.395374447107315,0.0,0.0,0.0,0.0,0.8726646259971643
1663935923315800823,0.3902644217014313,0.0,0.0,0.0,0.0,0.8726646259971643
1663935923391678448,0.5069353580474854,0.0,0.0,0.0,0.0,0.8726646259971643
1663935923524761820,0.39688426256179804,0.0,0.0,0.0,0.0,0.44109487533569336
1663935923656754913,0.5245915055274963,0.0,0.0,0.0,0.0,0.5001416802406311
1663935923743028967,0.43551725149154663,0.0,0.0,0.0,0.0,0.46256473660469055
1663935923914023588,0.45936119556427,0.0,0.0,0.0,0.0,0.47291532158851624
1663935924035634350,0.47433757781982416,0.0,0.0,0.0,0.0,0.4831549823284149
1663935924165562650,0.6025384068489075,0.0,0.0,0.0,0.0,0.6981317007977313
1663935924304945193,0.6283554434776305,0.0,0.0,0.0,0.0,0.6981317007977313
1663935924426218151,0.6513116359710693,0.0,0.0,0.0,0.0,0.6981317007977313
1663935924555324440,0.5792275667190552,0.0,0.0,0.0,0.0,0.6981317007977313
1663935924633693260,0.602073073387146,0.0,0.0,0.0,0.0,0.8726646259971643
1663935924763431292,0.715208888053894,0.0,0.0,0.0,0.0,0.8726646259971643
1663935924853720057,0.7348570227622986,0.0,0.0,0.0,0.0,0.8726646259971643
1663935924991501207,0.7504116296768188,0.0,0.0,0.0,0.0,0.8726646259971643
1663935925109292701,0.6815584301948546,0.0,0.0,0.0,0.0,0.6981317007977313
1663935925198486931,0.7008771896362305,0.0,0.0,0.0,0.0,0.6981317007977313
1663935925318815282,0.7148732542991638,0.0,0.0,0.0,0.0,0.5564482808113098
1663935925433177623,0.8117812275886536,0.0,0.0,0.0,0.0,0.603946328163147
1663935925571507208,0.7430628538131714,0.0,0.0,0.0,0.0,0.5692523121833801
1663935925779424916,0.7714642286300659,0.0,0.0,0.0,0.0,0.3490658503988654
1663935925874043454,0.7859735488891602,0.0,0.0,0.0,0.0,0.5900874733924866
1663935925894439817,0.7853338718414307,0.0,0.0,0.0,0.0,0.5899827480316162
1663935926025600849,0.6948487162590027,0.0,0.0,0.0,0.0,0.5225823521614075
1663935926163553048,0.6188186407089232,0.0,0.0,0.0,0.0,0.4710952043533325
1663935926239187882,0.5450154542922974,0.0,0.0,0.0,0.0,0.4312755763530731
1663935926378451934,0.4683629274368285,0.0,0.0,0.0,0.0,0.3782864809036255
1663935926476494420,0.5210595726966858,0.0,0.0,0.0,0.0,0.6981317007977313
1663935926640647403,0.35799136757850647,0.0,0.0,0.0,0.0,0.3006942570209503
1663935926715698491,0.313144713640213,0.0,0.0,0.0,0.0,0.2728568911552429
1663935926855320282,0.40853407979011536,0.0,0.0,0.0,0.0,0.30299773812294006
1663935926953119386,0.241047203540802,0.0,0.0,0.0,0.0,0.6981317007977313
1663935927145598638,0.20887066423892975,0.0,0.0,0.0,0.0,1.3962634015954631
1663935927313928098,0.15081615746021268,0.0,0.0,0.0,0.0,1.5707963267948961
1663935927421687133,0.2831665277481079,0.0,0.0,0.0,0.0,1.3962634015954631
1663935927447833799,0.2860806882381439,0.0,0.0,0.0,0.0,1.3962634015954631
1663935927584345000,0.26591962575912476,0.0,0.0,0.0,0.0,1.5707963267948961
1663935927841509730,0.24931398034095764,0.0,0.0,0.0,0.0,0.8726646259971643
1663935927962366775,0.20959849655628204,0.0,0.0,0.0,0.0,-2.6179938779914944
1663935928178106982,0.007147480268031357,0.0,0.0,0.0,0.0,2.617993877991493
1663935928222227716,0.007218556478619574,0.0,0.0,0.0,0.0,2.617993877991493
1663935928313777753,0.0,0.0,0.0,0.0,0.0,1.0519561200575247
1663935928441520613,0.0,0.0,0.0,0.0,0.0,1.0694624840973121
1663935928581960474,0.0,0.0,0.0,0.0,0.0,1.0699202434610973
1663935928753199665,0.0,0.0,0.0,0.0,0.0,1.078084701868936
1663935928845914405,0.0,0.0,0.0,0.0,0.0,1.02389080862057
1663935945972631170,0.34973013401031494,0.0,0.0,0.0,0.0,-0.1298421025276184
1663935946043653593,0.3122133910655975,0.0,0.0,0.0,0.0,-2.4434609527920617
1663935946307532830,0.26258930563926697,0.0,0.0,0.0,0.0,-2.4434609527920617
1663935946389274878,0.2474364638328552,0.0,0.0,0.0,0.0,-2.6179938779914944
1663935946435116386,0.24658353626728055,0.0,0.0,0.0,0.0,-2.6179938779914944
1663935946562617607,0.23189933598041534,0.0,0.0,0.0,0.0,-2.6179938779914944
1663935946647720927,0.2334204614162445,0.0,0.0,0.0,0.0,-2.4434609527920617
1663935946769541630,0.22463601827621454,0.0,0.0,0.0,0.0,-2.268928027592629
1663935946904429849,0.2171154022216797,0.0,0.0,0.0,0.0,-2.094395102393196
1663935946994095750,0.2035945355892181,0.0,0.0,0.0,0.0,-0.14157961308956146
1663935947111179907,0.06926420331001282,0.0,0.0,0.0,0.0,-2.6179938779914944
1663935947243961751,0.15696825087070462,0.0,0.0,0.0,0.0,-2.4434609527920617
1663935947339262299,0.12783120572566986,0.0,0.0,0.0,0.0,-2.4434609527920617
1663935947454965445,0.01620192639529705,0.0,0.0,0.0,0.0,-2.268928027592629
1663935947547055045,0.05720143392682074,0.0,0.0,0.0,0.0,-2.268928027592629
1663935947711531520,0.0211771409958601,0.0,0.0,0.0,0.0,-2.094395102393196
1663935947806629536,0.0,0.0,0.0,0.0,0.0,-4.996003610813204e-16
1663935947937385907,0.0,0.0,0.0,0.0,0.0,-4.996003610813204e-16
1663935948051239156,0.0,0.0,0.0,0.0,0.0,0.27907753317264195
1663935948181778106,0.0,0.0,0.0,0.0,0.0,0.5346548679313305
1663935948282211241,0.0,0.0,0.0,0.0,0.0,0.7527675875648364
1663935948393444882,0.0,0.0,0.0,0.0,0.0,0.9416681652138983
1663935948484650782,0.0,0.0,0.0,0.0,0.0,1.0833751165262597
1663935948649660508,0.0,0.0,0.0,0.0,0.0,1.2096257930914887
1663935948738590616,0.0,0.0,0.0,0.0,0.0,1.2245047740567399
1663935948877930486,0.0,0.0,0.0,0.0,0.0,1.2742505420942545
1663935948946545589,0.0,0.0,0.0,0.0,0.0,1.2286634551234468
1663935949083858161,0.0,0.0,0.0,0.0,0.0,1.3021768158458178
1663935949183998205,0.0,0.0,0.0,0.0,0.0,1.2904908831305137
1663935949289321024,0.0,0.0,0.0,0.0,0.0,1.2917825428337513
1663935949467618126,0.0,0.0,0.0,0.0,0.0,1.3127345339420777
1663935949543409035,0.0,0.0,0.0,0.0,0.0,1.2074975995454242
1663935949674930543,0.16595254838466642,0.0,0.0,0.0,0.0,2.617993877991493
1663935949806514875,0.1534486562013626,0.0,0.0,0.0,0.0,2.617993877991493
1663935949937754180,0.0,0.0,0.0,0.0,0.0,1.005928721334139
1663935950145353683,0.0,0.0,0.0,0.0,0.0,0.778720304416892
1663935950260150358,0.0,0.0,0.0,0.0,0.0,0.5626458337360836
1663935950282113730,0.0,0.0,0.0,0.0,0.0,0.532878164807631
1663935950496707437,0.0,0.0,0.0,0.0,0.0,0.3859619358408932
1663935950629720150,0.0,0.0,0.0,0.0,0.0,-4.996003610813204e-16
1663935950757736213,0.0,0.0,0.0,0.0,0.0,-4.996003610813204e-16
1663935950923416380,0.0,0.0,0.0,0.0,0.0,-0.25621502686634223
1663935951036241625,0.0,0.0,0.0,0.0,0.0,-0.3538409001209417
1663935951061213579,0.0,0.0,0.0,0.0,0.0,-0.34501293156341256
1663935951166524315,0.07530928403139114,0.0,0.0,0.0,0.0,1.919862177193762
1663935951328798586,0.10973415523767471,0.0,0.0,0.0,0.0,-2.268928027592629
1663935951414716997,0.13619062304496765,0.0,0.0,0.0,0.0,-2.6179938779914944
1663935951533740516,0.15520860254764554,0.0,0.0,0.0,0.0,-2.268928027592629
1663935951669731023,0.16828632354736328,0.0,0.0,0.0,0.0,-2.4434609527920617
1663935951843113533,0.17920765280723572,0.0,0.0,0.0,0.0,-2.268928027592629
1663935951930687944,0.1853451132774353,0.0,0.0,0.0,0.0,-2.268928027592629
1663935952094848975,0.18596269190311432,0.0,0.0,0.0,0.0,-2.094395102393196
1663935952265854239,0.16620485484600067,0.0,0.0,0.0,0.0,-2.4434609527920617
1663935952500670845,0.0349322147667408,0.0,0.0,0.0,0.0,-2.4434609527920617
1663935952528864095,0.12496446073055267,0.0,0.0,0.0,0.0,-2.4434609527920617
1663935952621088090,0.0,0.0,0.0,0.0,0.0,-0.37531183210773805
1663935952653453626,0.0,0.0,0.0,0.0,0.0,-0.39911967716526003
1663935952790992192,0.09245160967111586,0.0,0.0,0.0,0.0,-1.9198621771937632
1663935952914036924,0.09495122730731964,0.0,0.0,0.0,0.0,-0.08915700018405914
1663935953058879262,0.0023615614045411344,0.0,0.0,0.0,0.0,-1.7453292519943302
1663935953184341302,0.10029055178165436,0.0,0.0,0.0,0.0,-0.09262337535619736
1663935953269720239,0.10298810154199599,0.0,0.0,0.0,0.0,-0.09573747962713242
1663935953393849589,0.1053963452577591,0.0,0.0,0.0,0.0,-0.0968422070145607
1663935953533378152,0.011583994142711163,0.0,0.0,0.0,0.0,-1.7453292519943302
1663935953653670404,0.11097946017980576,0.0,0.0,0.0,0.0,-0.09193401038646698
1663935953793983492,0.11351482570171356,0.0,0.0,0.0,0.0,-0.09435433894395828
1663935954813066766,0.2291440069675445,0.0,0.0,0.0,0.0,0.1354106068611145
1663935954867413271,0.04207756370306015,0.0,0.0,0.0,0.0,1.3962634015954631
1663935955022518487,0.02930829115211963,0.0,0.0,0.0,0.0,1.3962634015954631
1663935955153685511,0.02005384489893913,0.0,0.0,0.0,0.0,1.3962634015954631
1663935955280857054,0.015787659212946892,0.0,0.0,0.0,0.0,1.3962634015954631
1663935955370787631,0.006786233279854058,0.0,0.0,0.0,0.0,1.3962634015954631
1663935955492118670,0.00308960978873074,0.0,0.0,0.0,0.0,1.2217304763960302
1663935955577373703,0.0,0.0,0.0,0.0,0.0,1.186501856247204
1663935955787888416,0.0,0.0,0.0,0.0,0.0,1.2119711195999034
1663935955889675638,0.17967867851257324,0.0,0.0,0.0,0.0,-0.17453292519943345
1663935955918926124,0.17967867851257324,0.0,0.0,0.0,0.0,-0.17453292519943345
1663935956052639231,0.0,0.0,0.0,0.0,0.0,1.1673843838962215
1663935956127293409,0.0,0.0,0.0,0.0,0.0,1.1476985667141197
1663935956391886606,0.0,0.0,0.0,0.0,0.0,1.292447876513654
1663935956472047261,0.147614449262619,0.0,0.0,0.0,0.0,-1.9198621771937632
1663935956516421155,0.14775660634040833,0.0,0.0,0.0,0.0,-1.9198621771937632
1663935956654221623,0.1429748833179474,0.0,0.0,0.0,0.0,-1.5707963267948972
1663935956725924695,0.0,0.0,0.0,0.0,0.0,1.281098525688347
1663935956867464949,0.1422889232635498,0.0,0.0,0.0,0.0,-1.7453292519943302
1663935956966087329,0.0,0.0,0.0,0.0,0.0,1.4497641863766546
1663935957117314373,0.0,0.0,0.0,0.0,0.0,1.5048852595291538
1663935957255055015,0.0,0.0,0.0,0.0,0.0,1.5582571424280491
1663935957385101937,0.14402887225151062,0.0,0.0,0.0,0.0,-1.7453292519943302
1663935957473277719,0.0,0.0,0.0,0.0,0.0,1.5707963267948966
1663935957734364624,0.1476016193628311,0.0,0.0,0.0,0.0,-1.9198621771937632
1663935957787625667,0.14931018650531766,0.0,0.0,0.0,0.0,-2.094395102393196
1663935957902115145,0.0,0.0,0.0,0.0,0.0,1.5707963267948966
1663935958039291618,0.16165579855442047,0.0,0.0,0.0,0.0,2.617993877991493
1663935958256871820,0.0,0.0,0.0,0.0,0.0,1.5707963267948966
1663935958376457100,0.2120246887207031,0.0,0.0,0.0,0.0,2.617993877991493
1663935958421495452,0.21323299407958982,0.0,0.0,0.0,0.0,2.617993877991493
1663935958510229449,0.0517936423420906,0.0,0.0,0.0,0.0,2.4434609527920603
1663935958723806237,0.2920249402523041,0.0,0.0,0.0,0.0,2.617993877991493
1663935958836183990,0.14846581220626828,0.0,0.0,0.0,0.0,1.745329251994329
1663935958850864483,0.14739964902400968,0.0,0.0,0.0,0.0,1.745329251994329
1663935958979055057,0.3174997270107269,0.0,0.0,0.0,0.0,0.3110175132751465
1663935959122598236,0.18119575083255768,0.0,0.0,0.0,0.0,0.5235987755982984
1663935959291161344,0.3440660834312439,0.0,0.0,0.0,0.0,0.31991568207740784
1663935959412869815,0.21591110527515409,0.0,0.0,0.0,0.0,0.26235756278038025
1663935959554892718,0.233267679810524,0.0,0.0,0.0,0.0,0.2763619124889374
1663935959765762647,0.19200199416705538,0.0,0.0,0.0,0.0,0.29815730452537537
1663935960714989735,0.5571268200874329,0.0,0.0,0.0,0.0,-0.6981317007977323
1663935960849910414,0.506839394569397,0.0,0.0,0.0,0.0,-0.8726646259971653
1663935961027037623,0.5892945528030394,0.0,0.0,0.0,0.0,-0.6981317007977323
1663935961113312988,0.5833497643470764,0.0,0.0,0.0,0.0,-0.6981317007977323
1663935961283685900,0.5789744853973389,0.0,0.0,0.0,0.0,-0.6981317007977323
1663935961373303823,0.4622029662132263,0.0,0.0,0.0,0.0,-0.8726646259971653
1663935961494874250,0.5651648044586182,0.0,0.0,0.0,0.0,-0.6981317007977323
1663935961636152374,0.4436497986316681,0.0,0.0,0.0,0.0,-0.8726646259971653
1663935961759218991,0.5463058948516846,0.0,0.0,0.0,0.0,-0.6981317007977323
1663935961895274111,0.5442759394645691,0.0,0.0,0.0,0.0,-0.6981317007977323
1663935962018615110,0.4355663061141967,0.0,0.0,0.0,0.0,-0.8726646259971653
1663935962149969752,0.5445807576179504,0.0,0.0,0.0,0.0,-0.6981317007977323
1663935962318604748,0.5393332242965698,0.0,0.0,0.0,0.0,-0.5235987755982994
1663935962439706446,0.5426656007766724,0.0,0.0,0.0,0.0,-0.5235987755982994
1663935962454250922,0.5420258641242981,0.0,0.0,0.0,0.0,-0.5235987755982994
1663935962578231086,0.5537987947463988,0.0,0.0,0.0,0.0,-0.4904061257839203
1663935962715641866,0.563197910785675,0.0,0.0,0.0,0.0,-0.4985310435295105
1663935962790229991,0.47250476479530334,0.0,0.0,0.0,0.0,-0.46558085083961487
1663935962923001389,0.597732126712799,0.0,0.0,0.0,0.0,-0.5148165822029114
1663935963055387553,0.6035488843917846,0.0,0.0,0.0,0.0,-0.5247350931167603
1663935963178734990,0.6127991080284119,0.0,0.0,0.0,0.0,-0.5359141826629639
1663935963314279768,0.6231963634490966,0.0,0.0,0.0,0.0,-0.546750009059906
1663935963435177582,0.6299715042114258,0.0,0.0,0.0,0.0,-0.554581344127655
1663935963526001123,0.6328660845756531,0.0,0.0,0.0,0.0,-0.5627956986427307
1663935963615036529,0.6336176991462708,0.0,0.0,0.0,0.0,-0.6981317007977323
1663935963735682775,0.6345251202583313,0.0,0.0,0.0,0.0,-0.5849702954292297
1663935963870942497,0.632855713367462,0.0,0.0,0.0,0.0,-0.5962011218070984
1663935963957397446,0.6285054683685303,0.0,0.0,0.0,0.0,-0.6981317007977323
1663935964078169621,0.5319005846977234,0.0,0.0,0.0,0.0,-0.5845238566398621
1663935964215250991,0.6267232298851012,0.0,0.0,0.0,0.0,-0.8726646259971653
1663935964337518325,0.6254224181175232,0.0,0.0,0.0,0.0,-0.8726646259971653
1663935964471460018,0.6260074973106384,0.0,0.0,0.0,0.0,-0.8726646259971653
1663935964610780577,0.6337087154388428,0.0,0.0,0.0,0.0,-0.8726646259971653
1663935964723334397,0.547134757041931,0.0,0.0,0.0,0.0,-0.8726646259971653
1663935964862875774,0.56103515625,0.0,0.0,0.0,0.0,-0.6981317007977323
1663935964983594462,0.6592865586280822,0.0,0.0,0.0,0.0,-0.8726646259971653
1663935965119391464,0.6699422001838684,0.0,0.0,0.0,0.0,-0.8726646259971653
1663935965326767800,0.701341986656189,0.0,0.0,0.0,0.0,-0.8726646259971653
1663935965431630813,0.7219759821891785,0.0,0.0,0.0,0.0,-0.8726646259971653
1663935965472737566,0.721336305141449,0.0,0.0,0.0,0.0,-0.8726646259971653
1663935965579134467,0.7413341403007507,0.0,0.0,0.0,0.0,-0.8726646259971653
1663935965670638920,0.7599124908447265,0.0,0.0,0.0,0.0,-0.8726646259971653
1663935965770519756,0.777276575565338,0.0,0.0,0.0,0.0,-0.8726646259971653
1663935965921434643,0.7885377407073975,0.0,0.0,0.0,0.0,-0.8726646259971653
1663935966015086966,0.7946819067001343,0.0,0.0,0.0,0.0,-1.0471975511965983
1663935966102635059,0.7957649827003478,0.0,0.0,0.0,0.0,-1.0471975511965983
1663935966217477876,0.7857542037963866,0.0,0.0,0.0,0.0,-1.2217304763960313
1663935966473499251,0.7446242570877074,0.0,0.0,0.0,0.0,-1.5707963267948972
1663935966585107018,0.719845712184906,0.0,0.0,0.0,0.0,-1.5707963267948972
1663935966611009737,0.7209118604660034,0.0,0.0,0.0,0.0,-1.5707963267948972
1663935966731053206,0.693541944026947,0.0,0.0,0.0,0.0,-1.5707963267948972
1663935966866296511,0.6634448170661926,0.0,0.0,0.0,0.0,-1.7453292519943302
1663935966951226333,0.6417213082313538,0.0,0.0,0.0,0.0,-1.7453292519943302
1663935967070295482,0.5396261811256409,0.0,0.0,0.0,0.0,-1.5707963267948972
1663935967253169700,0.5380290746688842,0.0,0.0,0.0,0.0,-1.5707963267948972
1663935967338323583,0.5416852235794067,0.0,0.0,0.0,0.0,-1.3962634015954642
1663935967506447183,0.5410694479942321,0.0,0.0,0.0,0.0,-0.8726646259971653
1663935967641463403,0.6365987658500671,0.0,0.0,0.0,0.0,-1.0471975511965983
1663935967759497021,0.6463850736618042,0.0,0.0,0.0,0.0,-0.8726646259971653
1663935967940225007,0.6580785512924193,0.0,0.0,0.0,0.0,-0.8726646259971653
1663935968062543239,0.5789197683334351,0.0,0.0,0.0,0.0,-0.8726646259971653
1663935968158928228,0.6828416585922241,0.0,0.0,0.0,0.0,-0.6560327410697937
1663935968317809390,0.6014842987060546,0.0,0.0,0.0,0.0,-0.5881925821304321
1663935968453867256,0.6085789203643798,0.0,0.0,0.0,0.0,-0.55046546459198
1663935968538388211,0.7063954472541808,0.0,0.0,0.0,0.0,-0.5510218143463135
1663935968804366327,0.7242289185523987,0.0,0.0,0.0,0.0,-0.48910215497016907
1663935968894225849,0.6468191146850585,0.0,0.0,0.0,0.0,-0.4090147912502289
1663935968914358216,0.6458240747451782,0.0,0.0,0.0,0.0,-0.40800249576568604
1663935969050103939,0.7447673678398131,0.0,0.0,0.0,0.0,-0.43409407138824463
1663935969154149307,0.7754284739494324,0.0,0.0,0.0,0.0,-1.0471975511965983
1663935969304547475,0.7289534211158751,0.0,0.0,0.0,0.0,-1.0471975511965983
1663935969438542548,0.8341786265373229,0.0,0.0,0.0,0.0,-0.8726646259971653
1663935969526202518,0.8546200394630432,0.0,0.0,0.0,0.0,-0.8726646259971653
1663935969686394757,0.8730037808418273,0.0,0.0,0.0,0.0,-1.2217304763960313
1663935969775550842,0.8926871418952941,0.0,0.0,0.0,0.0,-0.8726646259971653
1663935969897296453,0.9037072062492371,0.0,0.0,0.0,0.0,-1.0471975511965983
1663935970043050550,0.8499611616134644,0.0,0.0,0.0,0.0,-1.0471975511965983
1663935970119058280,0.8588943481445311,0.0,0.0,0.0,0.0,-1.0471975511965983
1663935970255490364,0.9286317229270934,0.0,0.0,0.0,0.0,-1.0471975511965983
1663935970422941795,0.9313428401947021,0.0,0.0,0.0,0.0,-1.2217304763960313
1663935970528033088,0.8671880960464476,0.0,0.0,0.0,0.0,-1.2217304763960313
1663935970638605755,0.9359778165817261,0.0,0.0,0.0,0.0,-2.4434609527920617
1663935970769787382,0.931096076965332,0.0,0.0,0.0,0.0,-2.268928027592629
1663935970860633627,0.8541567325592041,0.0,0.0,0.0,0.0,-2.094395102393196
1663935970977766659,0.8507219552993774,0.0,0.0,0.0,0.0,-2.094395102393196
1663935971109519034,0.9233583807945251,0.0,0.0,0.0,0.0,-2.094395102393196
1663935971213376429,0.8524208664894103,0.0,0.0,0.0,0.0,-2.094395102393196
1663935971370378435,0.862026810646057,0.0,0.0,0.0,0.0,-2.268928027592629
1663935971542036641,0.8715165853500366,0.0,0.0,0.0,0.0,-2.094395102393196
1663935971663939679,0.8835829496383667,0.0,0.0,0.0,0.0,-2.094395102393196
1663935971793893198,0.8927704691886902,0.0,0.0,0.0,0.0,-2.094395102393196
1663935971883309506,0.9635761380195618,0.0,0.0,0.0,0.0,-2.094395102393196
1663935972133471990,0.9416677951812744,0.0,0.0,0.0,0.0,-1.9198621771937632
1663935972227793028,0.9218416810035704,0.0,0.0,0.0,0.0,-1.9198621771937632
1663935972234289597,0.9214152693748473,0.0,0.0,0.0,0.0,-1.9198621771937632
1663935972392223786,0.8956078886985779,0.0,0.0,0.0,0.0,-1.9198621771937632
1663935972557601450,0.8304902911186217,0.0,0.0,0.0,0.0,-1.9198621771937632
1663935972675709029,0.7908249497413634,0.0,0.0,0.0,0.0,-1.9198621771937632
1663935972739838687,0.7914646863937378,0.0,0.0,0.0,0.0,-1.9198621771937632
1663935972906704798,0.7524951100349426,0.0,0.0,0.0,0.0,-2.094395102393196
1663935973040900774,0.66896653175354,0.0,0.0,0.0,0.0,-1.7453292519943302
1663935973220008453,0.6282518506050109,0.0,0.0,0.0,0.0,-1.7453292519943302
1663935973242450172,0.6288204789161682,0.0,0.0,0.0,0.0,-1.7453292519943302
1663935973377282117,0.5911954641342162,0.0,0.0,0.0,0.0,-1.5707963267948972
1663935973466143586,0.5577963590621948,0.0,0.0,0.0,0.0,-1.5707963267948972
1663935973587162371,0.49758416414260864,0.0,0.0,0.0,0.0,-1.5707963267948972
1663935973765420250,0.3545694053173065,0.0,0.0,0.0,0.0,-1.3962634015954642
1663935973800118107,0.35620418190956116,0.0,0.0,0.0,0.0,-1.3962634015954642
1663935973887453986,0.4214573204517364,0.0,0.0,0.0,0.0,-1.5707963267948972
1663935974011824894,0.39280542731285095,0.0,0.0,0.0,0.0,-1.3962634015954642
1663935974016955423,0.392165720462799,0.0,0.0,0.0,0.0,-1.3962634015954642
1663935974186738465,0.3627022206783294,0.0,0.0,0.0,0.0,-1.2217304763960313
1663935974313285307,0.32859659194946284,0.0,0.0,0.0,0.0,-1.2217304763960313
1663935974407433201,0.29106780886650085,0.0,0.0,0.0,0.0,-1.0471975511965983
1663935974609615779,0.21719510853290558,0.0,0.0,0.0,0.0,-0.3490658503988664
1663935974696255460,0.17023597657680511,0.0,0.0,0.0,0.0,-0.11508429050445557
1663935974816270570,0.12557066977024076,0.0,0.0,0.0,0.0,-0.10692095011472702
1663935974864156206,0.12628144025802612,0.0,0.0,0.0,0.0,-0.09881912916898727
1663935974995702986,0.0765020027756691,0.0,0.0,0.0,0.0,-0.08895338326692581
1663935975202171266,0.0,0.0,0.0,0.0,0.0,-4.996003610813204e-16
1663935975275571979,0.0,0.0,0.0,0.0,0.0,-4.996003610813204e-16
1663935975293617652,0.0,0.0,0.0,0.0,0.0,-4.996003610813204e-16
1663935975414817962,0.0,0.0,0.0,0.0,0.0,-4.996003610813204e-16
1663935975599220186,0.0,0.0,0.0,0.0,0.0,0.29840386627638715
1663935975675674205,0.0,0.0,0.0,0.0,0.0,0.37052527401717
1663935975804657308,0.0,0.0,0.0,0.0,0.0,0.4513548140394892
1663935975940817164,0.0,0.0,0.0,0.0,0.0,0.5093140424792246
1663935976057297183,0.0,0.0,0.0,0.0,0.0,0.4895267299244428
1663935976195965563,0.06709644943475723,0.0,0.0,0.0,0.0,0.08534707874059677
1663935976323971208,0.0,0.0,0.0,0.0,0.0,0.5204694975680634
1663935976402658352,0.07436192780733109,0.0,0.0,0.0,0.0,0.08607590943574905
1663935976533839202,0.0,0.0,0.0,0.0,0.0,0.5163437733076557
1663935976638797643,0.0,0.0,0.0,0.0,0.0,0.5270872717663436
1663935976795659007,0.0,0.0,0.0,0.0,0.0,0.5432544875892651
1663935976881315672,0.0,0.0,0.0,0.0,0.0,0.4721609082270794
1663935977007096096,0.03095688484609127,0.0,0.0,0.0,0.0,-0.05851888284087181
1663935977146946384,0.14605338871479034,0.0,0.0,0.0,0.0,0.09439985454082489
1663935977257796019,0.18254828453063962,0.0,0.0,0.0,0.0,0.09765993803739548
1663935977390197444,0.1518162190914154,0.0,0.0,0.0,0.0,-0.03232797607779503
1663935977481279451,0.19637157022953033,0.0,0.0,0.0,0.0,-0.02264171838760376
1663935977603153496,0.24100340902805328,0.0,0.0,0.0,0.0,-0.013415911234915257
1663935977716910371,0.2882435917854309,0.0,0.0,0.0,0.0,-0.004367852583527565
1663935977858241979,0.33008071780204773,0.0,0.0,0.0,0.0,0.003997476305812597
1663935977936436559,0.36973953247070307,0.0,0.0,0.0,0.0,0.011145170778036118
1663935978070142367,0.4059298634529113,0.0,0.0,0.0,0.0,0.016300585120916367
1663935978205228933,0.4380987584590911,0.0,0.0,0.0,0.0,0.020940978080034256
1663935978321825543,0.46170231699943537,0.0,0.0,0.0,0.0,0.025146573781967163
1663935978461537973,0.4791702330112457,0.0,0.0,0.0,0.0,0.027617301791906357
1663935978579570832,0.49963948130607605,0.0,0.0,0.0,0.0,0.0307939313352108
1663935978670252723,0.5145710706710815,0.0,0.0,0.0,0.0,0.17453292519943245
1663935978885454470,0.5243620872497559,0.0,0.0,0.0,0.0,0.17453292519943245
1663935978988019923,0.5190751552581787,0.0,0.0,0.0,0.0,0.17453292519943245
1663935979022260394,0.5188619494438171,0.0,0.0,0.0,0.0,0.17453292519943245
1663935979140558122,0.5066992044448853,0.0,0.0,0.0,0.0,0.3490658503988654
1663935979243331263,0.48474714159965515,0.0,0.0,0.0,0.0,0.17453292519943245
1663935979350760657,0.4583299458026885,0.0,0.0,0.0,0.0,0.17453292519943245
1663935979600186943,0.3005064725875854,0.0,0.0,0.0,0.0,0.17453292519943245
1663935979704306078,0.23472638428211212,0.0,0.0,0.0,0.0,0.17453292519943245
1663935979720290206,0.24069683253765106,0.0,0.0,0.0,0.0,0.17453292519943245
1663935979814956266,0.18386346101760864,0.0,0.0,0.0,0.0,0.17453292519943245
1663935979938438297,0.12848973274230954,0.0,0.0,0.0,0.0,0.5235987755982984
1663935980032224462,0.07707446068525314,0.0,0.0,0.0,0.0,-0.06278730928897858
1663935980122663562,0.030592521652579308,0.0,0.0,0.0,0.0,-0.0739721804857254
1663935980329813092,0.0,0.0,0.0,0.0,0.0,-4.996003610813204e-16
1663935980530964232,0.0,0.0,0.0,0.0,0.0,-4.996003610813204e-16
1663935980544461495,0.0,0.0,0.0,0.0,0.0,-4.996003610813204e-16
1663935980678522294,0.0,0.0,0.0,0.0,0.0,-4.996003610813204e-16
1663935980718662120,0.0,0.0,0.0,0.0,0.0,-4.996003610813204e-16
1663935980881417911,0.0,0.0,0.0,0.0,0.0,-4.996003610813204e-16
1663935980992272607,0.0,0.0,0.0,0.0,0.0,-4.996003610813204e-16
1663935981017010530,0.0,0.0,0.0,0.0,0.0,-4.996003610813204e-16
1663935981118373390,0.0,0.0,0.0,0.0,0.0,-4.996003610813204e-16
1663935981372427455,0.0,0.0,0.0,0.0,0.0,-4.996003610813204e-16
1663935981561360394,0.0,0.0,0.0,0.0,0.0,-4.996003610813204e-16
1663935981581195972,0.0,0.0,0.0,0.0,0.0,-4.996003610813204e-16
1663935981686074703,0.0,0.0,0.0,0.0,0.0,-4.996003610813204e-16
1663935981701331308,0.0,0.0,0.0,0.0,0.0,-4.996003610813204e-16
1663935981834506499,0.0,0.0,0.0,0.0,0.0,-4.996003610813204e-16
1663935981937299831,0.0,0.0,0.0,0.0,0.0,-4.996003610813204e-16
1663935982053460725,0.0,0.0,0.0,0.0,0.0,-4.996003610813204e-16
1663935982265445473,0.0,0.0,0.0,0.0,0.0,-4.996003610813204e-16
1663935982387452210,0.0,0.0,0.0,0.0,0.0,-4.996003610813204e-16
1663935982401525458,0.0,0.0,0.0,0.0,0.0,-4.996003610813204e-16
1663935982565796562,0.0,0.0,0.0,0.0,0.0,-4.996003610813204e-16
1663935982703575340,0.0,0.0,0.0,0.0,0.0,-4.996003610813204e-16
1663935982910646424,0.0,0.0,0.0,0.0,0.0,-0.4543036146640649
1663935982997130447,0.0,0.0,0.0,0.0,0.0,-0.4937050288673289
1663935983041808609,0.0,0.0,0.0,0.0,0.0,-0.48779174418756494
1663935983119584530,0.0,0.0,0.0,0.0,0.0,-0.5484587491088201
1663935983380986763,0.0,0.0,0.0,0.0,0.0,-0.6939413616776068
1663935983464321157,0.0,0.0,0.0,0.0,0.0,-0.7218111507259883
1663935983502058936,0.0,0.0,0.0,0.0,0.0,-0.7123753504007047
1663935983639133640,0.0,0.0,0.0,0.0,0.0,-0.7923290988122075
1663935983759858761,0.0,0.0,0.0,0.0,0.0,-0.8431380696867911
1663935983898065494,0.0,0.0,0.0,0.0,0.0,-0.9025747963272038
1663935983988949107,0.0,0.0,0.0,0.0,0.0,-0.9499657841540842
