%time,field.linear.x,field.linear.y,field.linear.z,field.angular.x,field.angular.y,field.angular.z
1663935912429665693,0.015,0.0,0.0,0.0,0.0,0.000906671994624834
1663935912479809700,0.03,0.0,0.0,0.0,0.0,0.001813343989249668
1663935912529803324,0.045,0.0,0.0,0.0,0.0,0.002720015983874502
1663935912584291268,0.06,0.0,0.0,0.0,0.0,0.0036076435116135035
1663935912629675717,0.075,0.0,0.0,0.0,0.0,0.0018100155083728496
1663935912679649660,0.09,0.0,0.0,0.0,0.0,6.669740349363358e-08
1663935912729693520,0.105,0.0,0.0,0.0,0.0,-0.0018098821135658619
1663935912779548138,0.12,0.0,0.0,0.0,0.0,-0.0036198309245352176
1663935912834456578,0.135,0.0,0.0,0.0,0.0,-0.005710514639826646
1663935912879825082,0.15000000000000002,0.0,0.0,0.0,0.0,-0.007801198355118076
1663935912929576482,0.16500000000000004,0.0,0.0,0.0,0.0,-0.009891882070409506
1663935912979433491,0.18000000000000005,0.0,0.0,0.0,0.0,-0.011982565785700935
1663935913029571789,0.19500000000000006,0.0,0.0,0.0,0.0,-0.013925988651784684
1663935913079578664,0.21000000000000008,0.0,0.0,0.0,0.0,-0.015869411517868432
1663935913129511580,0.2250000000000001,0.0,0.0,0.0,0.0,-0.017812834383952182
1663935913179482347,0.2400000000000001,0.0,0.0,0.0,0.0,-0.019666646871651774
1663935913229662199,0.2550000000000001,0.0,0.0,0.0,0.0,-0.02154124637738505
1663935913279595825,0.27000000000000013,0.0,0.0,0.0,0.0,-0.023415845883118326
1663935913329548950,0.28500000000000014,0.0,0.0,0.0,0.0,-0.025457028049552802
1663935913379624267,0.30000000000000016,0.0,0.0,0.0,0.0,-0.02749821021598728
1663935913429779942,0.31500000000000017,0.0,0.0,0.0,0.0,-0.029539392382421755
1663935913479606250,0.3300000000000002,0.0,0.0,0.0,0.0,-0.03158057454885623
1663935913530260718,0.3450000000000002,0.0,0.0,0.0,0.0,-0.024563242012073237
1663935913580457365,0.3600000000000002,0.0,0.0,0.0,0.0,-0.017545909475290243
1663935913629660314,0.3750000000000002,0.0,0.0,0.0,0.0,-0.022898957579540972
1663935913679716715,0.39000000000000024,0.0,0.0,0.0,0.0,-0.028298870511916437
1663935913729762372,0.40500000000000025,0.0,0.0,0.0,0.0,-0.0336987834442919
1663935913779887408,0.42000000000000026,0.0,0.0,0.0,0.0,-0.04102609042030896
1663935913829522354,0.4350000000000003,0.0,0.0,0.0,0.0,-0.04835339739632603
1663935913879518791,0.4500000000000003,0.0,0.0,0.0,0.0,-0.0556807043723431
1663935913929686165,0.4620815813541412,0.0,0.0,0.0,0.0,-0.061582401394844055
1663935913979657747,0.44030052423477173,0.0,0.0,0.0,0.0,-0.06309090554714203
1663935914029530837,0.4077573418617248,0.0,0.0,0.0,0.0,0.047352273017168045
1663935914079806245,0.4077573418617248,0.0,0.0,0.0,0.0,0.047352273017168045
1663935914132295490,0.4077573418617248,0.0,0.0,0.0,0.0,0.047352273017168045
1663935914179587541,0.4077573418617248,0.0,0.0,0.0,0.0,0.047352273017168045
1663935914229938848,0.38964536786079407,0.0,0.0,0.0,0.0,-0.06523235887289047
1663935914279338175,0.38964536786079407,0.0,0.0,0.0,0.0,-0.06523235887289047
1663935914329672077,0.3649148046970367,0.0,0.0,0.0,0.0,-0.06709504127502441
1663935914379491347,0.3649148046970367,0.0,0.0,0.0,0.0,-0.06709504127502441
1663935914429642721,0.3649148046970367,0.0,0.0,0.0,0.0,-0.06709504127502441
1663935914479708119,0.3349824547767639,0.0,0.0,0.0,0.0,0.051560625433921814
1663935914529571845,0.3349824547767639,0.0,0.0,0.0,0.0,0.051560625433921814
1663935914579563485,0.3349824547767639,0.0,0.0,0.0,0.0,0.051560625433921814
1663935914629560321,0.2991919815540313,0.0,0.0,0.0,0.0,-0.06870920211076736
1663935914679498711,0.2991919815540313,0.0,0.0,0.0,0.0,-0.06870920211076736
1663935914730041905,0.2991919815540313,0.0,0.0,0.0,0.0,-0.06870920211076736
1663935914779635007,0.28461953997612,0.0,0.0,0.0,0.0,0.059532180428504944
1663935914829372414,0.28461953997612,0.0,0.0,0.0,0.0,0.059532180428504944
1663935914879508069,0.28461953997612,0.0,0.0,0.0,0.0,0.059532180428504944
1663935914929755437,0.28461953997612,0.0,0.0,0.0,0.0,0.059532180428504944
1663935914979667086,0.2652070820331573,0.0,0.0,0.0,0.0,0.06657268106937408
1663935915029535350,0.2652070820331573,0.0,0.0,0.0,0.0,0.06657268106937408
1663935915080102368,0.2701963782310486,0.0,0.0,0.0,0.0,0.06905266642570496
1663935915129641277,0.2710493206977844,0.0,0.0,0.0,0.0,0.07028486579656601
1663935915179618629,0.2710493206977844,0.0,0.0,0.0,0.0,0.07028486579656601
1663935915230207761,0.273600310087204,0.0,0.0,0.0,0.0,-0.05480995401740074
1663935915279551346,0.273600310087204,0.0,0.0,0.0,0.0,-0.05480995401740074
1663935915329552725,0.273600310087204,0.0,0.0,0.0,0.0,-0.05480995401740074
1663935915379639203,0.288600310087204,0.0,0.0,0.0,0.0,-0.050436404942571164
1663935915429721402,0.2905845046043396,0.0,0.0,0.0,0.0,-0.04985787346959114
1663935915479521903,0.2905845046043396,0.0,0.0,0.0,0.0,-0.04985787346959114
1663935915529773075,0.3055845046043396,0.0,0.0,0.0,0.0,-0.04699177463707104
1663935915579317686,0.3150828182697296,0.0,0.0,0.0,0.0,-0.045176900923252106
1663935915629831768,0.3300828182697296,0.0,0.0,0.0,0.0,-0.04116716583248806
1663935915679594599,0.3448936641216278,0.0,0.0,0.0,0.0,-0.03720799461007118
1663935915729555601,0.3448936641216278,0.0,0.0,0.0,0.0,-0.03720799461007118
1663935915780118484,0.3598936641216278,0.0,0.0,0.0,0.0,-0.032644609648237635
1663935915829520842,0.37489366412162783,0.0,0.0,0.0,0.0,-0.02808122468640408
1663935915879654263,0.38989366412162785,0.0,0.0,0.0,0.0,-0.02315310256217687
1663935915929559195,0.40489366412162786,0.0,0.0,0.0,0.0,-0.018224980437949654
1663935915979734652,0.4198936641216279,0.0,0.0,0.0,0.0,-0.012902687930785521
1663935916029614672,0.4348936641216279,0.0,0.0,0.0,0.0,-0.007580395423621385
1663935916079578770,0.4498936641216279,0.0,0.0,0.0,0.0,-0.0022581029164572474
1663935916129619686,0.4648936641216279,0.0,0.0,0.0,0.0,0.0030641895907068933
1663935916179558074,0.4798936641216279,0.0,0.0,0.0,0.0,0.020034394904971817
1663935916229622280,0.49489366412162794,0.0,0.0,0.0,0.0,0.03700460021923674
1663935916279547366,0.509893664121628,0.0,0.0,0.0,0.0,0.05397480553350167
1663935916330467229,0.524893664121628,0.0,0.0,0.0,0.0,0.07225408033308936
1663935916379335528,0.539893664121628,0.0,0.0,0.0,0.0,0.09053335513267707
1663935916429950447,0.554893664121628,0.0,0.0,0.0,0.0,0.08313269118352107
1663935916479651274,0.569893664121628,0.0,0.0,0.0,0.0,0.07573202723436506
1663935916530050456,0.584893664121628,0.0,0.0,0.0,0.0,0.15158238401500418
1663935916579531797,0.599893664121628,0.0,0.0,0.0,0.0,0.22743274079564332
1663935916630081597,0.614893664121628,0.0,0.0,0.0,0.0,0.30328309757628247
1663935916679778570,0.6239475607872009,0.0,0.0,0.0,0.0,0.3490658503988654
1663935916729652910,0.6389475607872009,0.0,0.0,0.0,0.0,0.3490658503988654
1663935916780479254,0.6531362533569336,0.0,0.0,0.0,0.0,0.3490658503988654
1663935916829787400,0.6531362533569336,0.0,0.0,0.0,0.0,0.3490658503988654
1663935916880209462,0.6531362533569336,0.0,0.0,0.0,0.0,0.3490658503988654
1663935916929527305,0.652557909488678,0.0,0.0,0.0,0.0,0.3490658503988654
1663935916979505477,0.652557909488678,0.0,0.0,0.0,0.0,0.3490658503988654
1663935917029561082,0.652557909488678,0.0,0.0,0.0,0.0,0.3490658503988654
1663935917079564360,0.667557909488678,0.0,0.0,0.0,0.0,0.3976747898070729
1663935917129664864,0.6500504016876221,0.0,0.0,0.0,0.0,0.5235987755982984
1663935917179813862,0.6500504016876221,0.0,0.0,0.0,0.0,0.5235987755982984
1663935917229528560,0.6500504016876221,0.0,0.0,0.0,0.0,0.5235987755982984
1663935917279539032,0.6624158620834351,0.0,0.0,0.0,0.0,0.5235987755982984
1663935917329860537,0.6624158620834351,0.0,0.0,0.0,0.0,0.5235987755982984
1663935917379665856,0.6609328985214233,0.0,0.0,0.0,0.0,0.3490658503988654
1663935917429560985,0.6609328985214233,0.0,0.0,0.0,0.0,0.3490658503988654
1663935917484139530,0.6542951464653015,0.0,0.0,0.0,0.0,0.3490658503988654
1663935917530022308,0.6542951464653015,0.0,0.0,0.0,0.0,0.3490658503988654
1663935917579482379,0.6493635177612304,0.0,0.0,0.0,0.0,0.3490658503988654
1663935917629661711,0.6493635177612304,0.0,0.0,0.0,0.0,0.3490658503988654
1663935917679371529,0.6493635177612304,0.0,0.0,0.0,0.0,0.3490658503988654
1663935917729524863,0.640527069568634,0.0,0.0,0.0,0.0,0.17740315198898315
1663935917779560095,0.640527069568634,0.0,0.0,0.0,0.0,0.17740315198898315
1663935917829587231,0.640527069568634,0.0,0.0,0.0,0.0,0.17740315198898315
1663935917880479250,0.6309530735015869,0.0,0.0,0.0,0.0,0.18044216930866241
1663935917929565012,0.6309530735015869,0.0,0.0,0.0,0.0,0.18044216930866241
1663935917979615219,0.6459530735015869,0.0,0.0,0.0,0.0,0.1984123734489094
1663935918041435272,0.6609530735015869,0.0,0.0,0.0,0.0,0.2163825775891564
1663935918079523414,0.675953073501587,0.0,0.0,0.0,0.0,0.23435278172940344
1663935918130014917,0.6211104989051818,0.0,0.0,0.0,0.0,0.19074152410030365
1663935918179544665,0.6211104989051818,0.0,0.0,0.0,0.0,0.19074152410030365
1663935918229481078,0.6090310215950012,0.0,0.0,0.0,0.0,0.1950235366821289
1663935918279779623,0.6090310215950012,0.0,0.0,0.0,0.0,0.1950235366821289
1663935918330184036,0.6090310215950012,0.0,0.0,0.0,0.0,0.1950235366821289
1663935918379942321,0.5978782176971436,0.0,0.0,0.0,0.0,0.19771923124790192
1663935918429591750,0.5978782176971436,0.0,0.0,0.0,0.0,0.19771923124790192
1663935918480520002,0.6128782176971436,0.0,0.0,0.0,0.0,0.21282077038631964
1663935918536712033,0.6278782176971436,0.0,0.0,0.0,0.0,0.22792230952473735
1663935918579600146,0.6428782176971436,0.0,0.0,0.0,0.0,0.2430238486631551
1663935918629539875,0.6056476831436157,0.0,0.0,0.0,0.0,0.20950283110141754
1663935918679429036,0.6056476831436157,0.0,0.0,0.0,0.0,0.20950283110141754
1663935918732429434,0.6056476831436157,0.0,0.0,0.0,0.0,0.20950283110141754
1663935918779590876,0.6076582670211792,0.0,0.0,0.0,0.0,0.2142922580242157
1663935918829775317,0.6226582670211792,0.0,0.0,0.0,0.0,0.28064766207787206
1663935918879543097,0.6376582670211792,0.0,0.0,0.0,0.0,0.3470030661315285
1663935918929474284,0.6526582670211792,0.0,0.0,0.0,0.0,0.4133584701851849
1663935918980440410,0.5925638675689696,0.0,0.0,0.0,0.0,0.3490658503988654
1663935919029563011,0.5925638675689696,0.0,0.0,0.0,0.0,0.3490658503988654
1663935919079793924,0.5925638675689696,0.0,0.0,0.0,0.0,0.3490658503988654
1663935919129752633,0.5836061835289001,0.0,0.0,0.0,0.0,0.5235987755982984
1663935919179303587,0.5836061835289001,0.0,0.0,0.0,0.0,0.5235987755982984
1663935919230637999,0.5719400644302367,0.0,0.0,0.0,0.0,0.23684172332286835
1663935919279601758,0.5719400644302367,0.0,0.0,0.0,0.0,0.23684172332286835
1663935919330609667,0.5644983763021897,0.0,0.0,0.0,0.0,0.4118417233228684
1663935919379552471,0.5597460269927977,0.0,0.0,0.0,0.0,0.5235987755982984
1663935919429453356,0.5597460269927977,0.0,0.0,0.0,0.0,0.5235987755982984
1663935919479970559,0.5537980794906616,0.0,0.0,0.0,0.0,0.5235987755982984
1663935919529564244,0.5537980794906616,0.0,0.0,0.0,0.0,0.5235987755982984
1663935919579703878,0.5545068979263306,0.0,0.0,0.0,0.0,0.5235987755982984
1663935919629776883,0.5545068979263306,0.0,0.0,0.0,0.0,0.5235987755982984
1663935919679787383,0.5545068979263306,0.0,0.0,0.0,0.0,0.5235987755982984
1663935919729663174,0.5545068979263306,0.0,0.0,0.0,0.0,0.5235987755982984
1663935919780209236,0.5695068979263306,0.0,0.0,0.0,0.0,0.5235987755982984
1663935919830908319,0.5845068979263306,0.0,0.0,0.0,0.0,0.5235987755982984
1663935919879544226,0.5398151874542236,0.0,0.0,0.0,0.0,0.5235987755982984
1663935919929868128,0.5398151874542236,0.0,0.0,0.0,0.0,0.5235987755982984
1663935919979490489,0.5398151874542236,0.0,0.0,0.0,0.0,0.5235987755982984
1663935920031261831,0.5398151874542236,0.0,0.0,0.0,0.0,0.5235987755982984
1663935920079537447,0.5398151874542236,0.0,0.0,0.0,0.0,0.5235987755982984
1663935920131207289,0.5548151874542236,0.0,0.0,0.0,0.0,0.5235987755982984
1663935920179716669,0.5579365491867065,0.0,0.0,0.0,0.0,0.5235987755982984
1663935920232760171,0.5679464340209961,0.0,0.0,0.0,0.0,0.5235987755982984
1663935920279445049,0.5683018565177917,0.0,0.0,0.0,0.0,0.5235987755982984
1663935920329576396,0.5683018565177917,0.0,0.0,0.0,0.0,0.5235987755982984
1663935920379628954,0.5770053863525391,0.0,0.0,0.0,0.0,0.5235987755982984
1663935920429554614,0.5770053863525391,0.0,0.0,0.0,0.0,0.5235987755982984
1663935920479444469,0.5770053863525391,0.0,0.0,0.0,0.0,0.5235987755982984
1663935920529602395,0.5770053863525391,0.0,0.0,0.0,0.0,0.5235987755982984
1663935920580277290,0.5892377495765686,0.0,0.0,0.0,0.0,0.5235987755982984
1663935920629692761,0.5892377495765686,0.0,0.0,0.0,0.0,0.5235987755982984
1663935920679658519,0.5892377495765686,0.0,0.0,0.0,0.0,0.5235987755982984
1663935920729736093,0.5940752625465393,0.0,0.0,0.0,0.0,0.3490658503988654
1663935920779641179,0.5935776829719543,0.0,0.0,0.0,0.0,0.3490658503988654
1663935920830138176,0.5935776829719543,0.0,0.0,0.0,0.0,0.3490658503988654
1663935920879693476,0.6085776829719544,0.0,0.0,0.0,0.0,0.3490658503988654
1663935920929434059,0.6235776829719544,0.0,0.0,0.0,0.0,0.3490658503988654
1663935920979842146,0.6385776829719544,0.0,0.0,0.0,0.0,0.3490658503988654
1663935921029566338,0.6054221987724304,0.0,0.0,0.0,0.0,0.24903227388858795
1663935921079525215,0.6054221987724304,0.0,0.0,0.0,0.0,0.24903227388858795
1663935921129632256,0.6054221987724304,0.0,0.0,0.0,0.0,0.24903227388858795
1663935921179543210,0.6204221987724304,0.0,0.0,0.0,0.0,0.2612276971445517
1663935921230232681,0.6354221987724304,0.0,0.0,0.0,0.0,0.2734231204005154
1663935921279598326,0.5993247628211975,0.0,0.0,0.0,0.0,0.2388482391834259
1663935921329442244,0.5993247628211975,0.0,0.0,0.0,0.0,0.2388482391834259
1663935921379524292,0.5993247628211975,0.0,0.0,0.0,0.0,0.2388482391834259
1663935921429548334,0.5993247628211975,0.0,0.0,0.0,0.0,0.2388482391834259
1663935921479694149,0.5993247628211975,0.0,0.0,0.0,0.0,0.2388482391834259
1663935921529482411,0.6041277050971985,0.0,0.0,0.0,0.0,0.23607094585895538
1663935921579555361,0.6041277050971985,0.0,0.0,0.0,0.0,0.23607094585895538
1663935921630027885,0.6052332520484923,0.0,0.0,0.0,0.0,0.2379322499036789
1663935921679668540,0.6050910949707031,0.0,0.0,0.0,0.0,0.2389724850654602
1663935921729365094,0.6050910949707031,0.0,0.0,0.0,0.0,0.2389724850654602
1663935921781182105,0.6200910949707031,0.0,0.0,0.0,0.0,0.2550481981525302
1663935921829784615,0.6350910949707032,0.0,0.0,0.0,0.0,0.2711239112396002
1663935921879659746,0.6500910949707032,0.0,0.0,0.0,0.0,0.3155974718183123
1663935921930051667,0.6613792777061461,0.0,0.0,0.0,0.0,0.3490658503988654
1663935921979646342,0.6613792777061461,0.0,0.0,0.0,0.0,0.3490658503988654
1663935922029610524,0.6613792777061461,0.0,0.0,0.0,0.0,0.3490658503988654
1663935922079503233,0.6613792777061461,0.0,0.0,0.0,0.0,0.3490658503988654
1663935922129720139,0.5399170517921447,0.0,0.0,0.0,0.0,0.2691851258277893
1663935922179546168,0.5399170517921447,0.0,0.0,0.0,0.0,0.2691851258277893
1663935922229640730,0.5549170517921447,0.0,0.0,0.0,0.0,0.28389319983222144
1663935922280563235,0.5699170517921447,0.0,0.0,0.0,0.0,0.2981736981187399
1663935922329521432,0.5849170517921447,0.0,0.0,0.0,0.0,0.3124541964052584
1663935922380139962,0.5999170517921447,0.0,0.0,0.0,0.0,0.33211206113636177
1663935922429443478,0.6139181852340698,0.0,0.0,0.0,0.0,0.35046088695526123
1663935922480402510,0.6139181852340698,0.0,0.0,0.0,0.0,0.35046088695526123
1663935922529758754,0.4838910698890685,0.0,0.0,0.0,0.0,0.3490658503988654
1663935922579595824,0.4838910698890685,0.0,0.0,0.0,0.0,0.3490658503988654
1663935922629564564,0.4838910698890685,0.0,0.0,0.0,0.0,0.3490658503988654
1663935922679797678,0.4988910698890685,0.0,0.0,0.0,0.0,0.3534565223231492
1663935922729661839,0.5138910698890685,0.0,0.0,0.0,0.0,0.35784719424743305
1663935922780116210,0.47377265350648334,0.0,0.0,0.0,0.0,0.5328471942474331
1663935922829478132,0.43588149547576904,0.0,0.0,0.0,0.0,0.6981317007977313
1663935922879490324,0.43588149547576904,0.0,0.0,0.0,0.0,0.6981317007977313
1663935922929388615,0.43588149547576904,0.0,0.0,0.0,0.0,0.6981317007977313
1663935922979497334,0.4306880401890833,0.0,0.0,0.0,0.0,0.8731317007977314
1663935923029980929,0.4456880401890833,0.0,0.0,0.0,0.0,0.8730556865631058
1663935923084761886,0.4606880401890833,0.0,0.0,0.0,0.0,0.8729796723284803
1663935923129423433,0.47568804018908334,0.0,0.0,0.0,0.0,0.8729036580938546
1663935923179459696,0.49068804018908335,0.0,0.0,0.0,0.0,0.8728276438592291
1663935923230676926,0.395374447107315,0.0,0.0,0.0,0.0,0.8726646259971643
1663935923280008378,0.395374447107315,0.0,0.0,0.0,0.0,0.8726646259971643
1663935923329503314,0.3902644217014313,0.0,0.0,0.0,0.0,0.8726646259971643
1663935923379482816,0.3902644217014313,0.0,0.0,0.0,0.0,0.8726646259971643
1663935923429474798,0.4052644217014313,0.0,0.0,0.0,0.0,0.8726646259971643
1663935923479597532,0.4202644217014313,0.0,0.0,0.0,0.0,0.8726646259971643
1663935923530212508,0.39688426256179804,0.0,0.0,0.0,0.0,0.44109487533569336
1663935923579639807,0.39688426256179804,0.0,0.0,0.0,0.0,0.44109487533569336
1663935923629813062,0.39688426256179804,0.0,0.0,0.0,0.0,0.44109487533569336
1663935923679769520,0.41188426256179805,0.0,0.0,0.0,0.0,0.448030285207567
1663935923729482806,0.42688426256179807,0.0,0.0,0.0,0.0,0.4549656950794406
1663935923779645507,0.43551725149154663,0.0,0.0,0.0,0.0,0.46256473660469055
1663935923829603236,0.43551725149154663,0.0,0.0,0.0,0.0,0.46256473660469055
1663935923879670432,0.43551725149154663,0.0,0.0,0.0,0.0,0.46256473660469055
1663935923929815280,0.45051725149154664,0.0,0.0,0.0,0.0,0.4690761918523564
1663935923979600313,0.45936119556427,0.0,0.0,0.0,0.0,0.47291532158851624
1663935924029587344,0.45936119556427,0.0,0.0,0.0,0.0,0.47291532158851624
1663935924079675655,0.47433757781982416,0.0,0.0,0.0,0.0,0.4831549823284149
1663935924129302504,0.47433757781982416,0.0,0.0,0.0,0.0,0.4831549823284149
1663935924180788706,0.4893375778198242,0.0,0.0,0.0,0.0,0.5083081018632988
1663935924229576582,0.5043375778198241,0.0,0.0,0.0,0.0,0.5334612213981826
1663935924279568671,0.5193375778198241,0.0,0.0,0.0,0.0,0.5586143409330665
1663935924329966049,0.5343375778198242,0.0,0.0,0.0,0.0,0.5778108312086961
1663935924379546552,0.5493375778198242,0.0,0.0,0.0,0.0,0.5970073214843257
1663935924430101296,0.5643375778198242,0.0,0.0,0.0,0.0,0.6118823369265013
1663935924479680084,0.5793375778198242,0.0,0.0,0.0,0.0,0.6267573523686769
1663935924530705036,0.5943375778198242,0.0,0.0,0.0,0.0,0.6416323678108525
1663935924579862381,0.5792275667190552,0.0,0.0,0.0,0.0,0.6981317007977313
1663935924629595340,0.5792275667190552,0.0,0.0,0.0,0.0,0.6981317007977313
1663935924679389760,0.5942275667190552,0.0,0.0,0.0,0.0,0.8127272716479128
1663935924729260659,0.602073073387146,0.0,0.0,0.0,0.0,0.8726646259971643
1663935924779886983,0.617073073387146,0.0,0.0,0.0,0.0,0.8726646259971643
1663935924829634973,0.632073073387146,0.0,0.0,0.0,0.0,0.8726646259971643
1663935924880356966,0.647073073387146,0.0,0.0,0.0,0.0,0.8726646259971643
1663935924929456328,0.662073073387146,0.0,0.0,0.0,0.0,0.8726646259971643
1663935924980889055,0.6770730733871461,0.0,0.0,0.0,0.0,0.8726646259971643
1663935925029353894,0.6920730733871461,0.0,0.0,0.0,0.0,0.8726646259971643
1663935925079485816,0.7070730733871461,0.0,0.0,0.0,0.0,0.8726646259971643
1663935925131808334,0.6815584301948546,0.0,0.0,0.0,0.0,0.6981317007977313
1663935925179569710,0.6815584301948546,0.0,0.0,0.0,0.0,0.6981317007977313
1663935925229590261,0.6965584301948546,0.0,0.0,0.0,0.0,0.6981317007977313
1663935925279674505,0.7008771896362305,0.0,0.0,0.0,0.0,0.6981317007977313
1663935925329672819,0.7148732542991638,0.0,0.0,0.0,0.0,0.5564482808113098
1663935925379403478,0.7148732542991638,0.0,0.0,0.0,0.0,0.5564482808113098
1663935925429518724,0.7148732542991638,0.0,0.0,0.0,0.0,0.5564482808113098
1663935925480066551,0.7298732542991638,0.0,0.0,0.0,0.0,0.5638003147677854
1663935925529527814,0.7448732542991638,0.0,0.0,0.0,0.0,0.5711523487242609
1663935925579559759,0.7430628538131714,0.0,0.0,0.0,0.0,0.5692523121833801
1663935925629762520,0.7430628538131714,0.0,0.0,0.0,0.0,0.5692523121833801
1663935925679593377,0.7430628538131714,0.0,0.0,0.0,0.0,0.5692523121833801
1663935925729576772,0.7430628538131714,0.0,0.0,0.0,0.0,0.5692523121833801
1663935925779998946,0.7580628538131714,0.0,0.0,0.0,0.0,0.45296227523759625
1663935925829498676,0.7714642286300659,0.0,0.0,0.0,0.0,0.3490658503988654
1663935925879586485,0.7819990968871297,0.0,0.0,0.0,0.0,0.5240658503988654
1663935925929615958,0.7853338718414307,0.0,0.0,0.0,0.0,0.5899827480316162
1663935925979410330,0.7853338718414307,0.0,0.0,0.0,0.0,0.5899827480316162
1663935926030379214,0.6948487162590027,0.0,0.0,0.0,0.0,0.5225823521614075
1663935926079619440,0.6948487162590027,0.0,0.0,0.0,0.0,0.5225823521614075
1663935926129845929,0.6948487162590027,0.0,0.0,0.0,0.0,0.5225823521614075
1663935926179867142,0.6188186407089232,0.0,0.0,0.0,0.0,0.4710952043533325
1663935926229414497,0.6188186407089232,0.0,0.0,0.0,0.0,0.4710952043533325
1663935926279779937,0.5450154542922974,0.0,0.0,0.0,0.0,0.4312755763530731
1663935926329491118,0.5450154542922974,0.0,0.0,0.0,0.0,0.4312755763530731
1663935926379468288,0.4683629274368285,0.0,0.0,0.0,0.0,0.3782864809036255
1663935926429642945,0.4683629274368285,0.0,0.0,0.0,0.0,0.3782864809036255
1663935926479661269,0.4833629274368285,0.0,0.0,0.0,0.0,0.46932981534651674
1663935926529933102,0.49836292743682853,0.0,0.0,0.0,0.0,0.560373149789408
1663935926579658622,0.5133629274368285,0.0,0.0,0.0,0.0,0.6514164842322994
1663935926629760642,0.5210595726966858,0.0,0.0,0.0,0.0,0.6981317007977313
1663935926679578322,0.37105957269668577,0.0,0.0,0.0,0.0,0.33254469673821935
1663935926731376144,0.313144713640213,0.0,0.0,0.0,0.0,0.2728568911552429
1663935926779582081,0.313144713640213,0.0,0.0,0.0,0.0,0.2728568911552429
1663935926829471002,0.313144713640213,0.0,0.0,0.0,0.0,0.2728568911552429
1663935926879779805,0.328144713640213,0.0,0.0,0.0,0.0,0.2775965463470488
1663935926929413922,0.34314471364021304,0.0,0.0,0.0,0.0,0.2823362015388547
1663935926979550544,0.3001739159782768,0.0,0.0,0.0,0.0,0.4573362015388547
1663935927029527024,0.25720311831634063,0.0,0.0,0.0,0.0,0.6323362015388547
1663935927079461693,0.241047203540802,0.0,0.0,0.0,0.0,0.6981317007977313
1663935927129538393,0.241047203540802,0.0,0.0,0.0,0.0,0.6981317007977313
1663935927179682239,0.2329815414724653,0.0,0.0,0.0,0.0,0.8731317007977314
1663935927229609504,0.2249158794041286,0.0,0.0,0.0,0.0,1.0481317007977313
1663935927279700599,0.21685021733579193,0.0,0.0,0.0,0.0,1.2231317007977314
1663935927329969757,0.1836114014939967,0.0,0.0,0.0,0.0,1.3981317007977314
1663935927380598879,0.15081615746021268,0.0,0.0,0.0,0.0,1.5707963267948961
1663935927429519440,0.16581615746021267,0.0,0.0,0.0,0.0,1.551015544373988
1663935927479691541,0.18081615746021268,0.0,0.0,0.0,0.0,1.5317140751322866
1663935927529529916,0.1958161574602127,0.0,0.0,0.0,0.0,1.5124126058905853
1663935927579628654,0.2108161574602127,0.0,0.0,0.0,0.0,1.493111136648884
1663935927629734981,0.22581615746021272,0.0,0.0,0.0,0.0,1.5142582239042464
1663935927679420857,0.24081615746021273,0.0,0.0,0.0,0.0,1.5354053111596087
1663935927729361669,0.25581615746021275,0.0,0.0,0.0,0.0,1.556552398414971
1663935927779670365,0.26591962575912476,0.0,0.0,0.0,0.0,1.5707963267948961
1663935927829560985,0.26591962575912476,0.0,0.0,0.0,0.0,1.5707963267948961
1663935927879499591,0.24931398034095764,0.0,0.0,0.0,0.0,0.8726646259971643
1663935927929908245,0.24931398034095764,0.0,0.0,0.0,0.0,0.8726646259971643
1663935927981604209,0.24732289193904824,0.0,0.0,0.0,0.0,0.6976646259971643
1663935928029577865,0.24533180353713885,0.0,0.0,0.0,0.0,0.5226646259971642
1663935928079710077,0.24334071513522945,0.0,0.0,0.0,0.0,0.3476646259971642
1663935928129528925,0.24134962673332006,0.0,0.0,0.0,0.0,0.17266462599716417
1663935928179844029,0.22458894896446777,0.0,0.0,0.0,0.0,0.3476646259971642
1663935928229786218,0.20783374984451278,0.0,0.0,0.0,0.0,0.5226646259971642
1663935928279477615,0.1910785507245578,0.0,0.0,0.0,0.0,0.6976646259971643
1663935928329733892,0.09669653213988164,0.0,0.0,0.0,0.0,0.8726646259971643
1663935928379803647,0.002314513555205483,0.0,0.0,0.0,0.0,1.0476646259971643
1663935928429377741,0.0,0.0,0.0,0.0,0.0,1.0519561200575247
1663935928479479529,0.0,0.0,0.0,0.0,0.0,1.0694624840973121
1663935928529501565,0.0,0.0,0.0,0.0,0.0,1.0694624840973121
1663935928579529587,0.0,0.0,0.0,0.0,0.0,1.0694624840973121
1663935928629642778,0.0,0.0,0.0,0.0,0.0,1.0699202434610973
1663935928679542372,0.0,0.0,0.0,0.0,0.0,1.0699202434610973
1663935928730173358,0.0,0.0,0.0,0.0,0.0,1.0699202434610973
1663935928779871418,0.0,0.0,0.0,0.0,0.0,1.078084701868936
1663935928829525609,0.0,0.0,0.0,0.0,0.0,1.078084701868936
1663935928879544271,0.0,0.0,0.0,0.0,0.0,1.02389080862057
1663935928929584725,0.0,0.0,0.0,0.0,0.0,1.02389080862057
1663935928979565277,0.0,0.0,0.0,0.0,0.0,1.02389080862057
1663935929029676243,0.0,0.0,0.0,0.0,0.0,1.02389080862057
1663935929079638414,0.0,0.0,0.0,0.0,0.0,1.02389080862057
1663935929129507953,0.0,0.0,0.0,0.0,0.0,1.02389080862057
1663935929179595220,0.0,0.0,0.0,0.0,0.0,1.02389080862057
1663935929229568975,0.0,0.0,0.0,0.0,0.0,0.0
1663935945979594387,0.015,0.0,0.0,0.0,0.0,-0.005568955455971182
1663935946029375038,0.03,0.0,0.0,0.0,0.0,-0.011137910911942365
1663935946079430182,0.045,0.0,0.0,0.0,0.0,-0.14041896837856438
1663935946129546760,0.06,0.0,0.0,0.0,0.0,-0.2697000258451864
1663935946179503495,0.075,0.0,0.0,0.0,0.0,-0.3989810833118084
1663935946229491465,0.09,0.0,0.0,0.0,0.0,-0.5282621407784305
1663935946279445518,0.105,0.0,0.0,0.0,0.0,-0.6575431982450526
1663935946329676327,0.12,0.0,0.0,0.0,0.0,-0.8275342151451873
1663935946379575860,0.135,0.0,0.0,0.0,0.0,-0.9975252320453221
1663935946430971131,0.14714240165644232,0.0,0.0,0.0,0.0,-1.172525232045322
1663935946479452313,0.1591815410772117,0.0,0.0,0.0,0.0,-1.3475252320453222
1663935946529471383,0.17122068049798106,0.0,0.0,0.0,0.0,-1.5225252320453222
1663935946585934590,0.1809140338848819,0.0,0.0,0.0,0.0,-1.6975252320453222
1663935946629518036,0.19060738727178272,0.0,0.0,0.0,0.0,-1.8725252320453223
1663935946679337699,0.2037302095143313,0.0,0.0,0.0,0.0,-2.0475252320453223
1663935946729596711,0.21685303175687987,0.0,0.0,0.0,0.0,-2.222525232045322
1663935946779843233,0.22463601827621454,0.0,0.0,0.0,0.0,-2.268928027592629
1663935946829661051,0.22463601827621454,0.0,0.0,0.0,0.0,-2.268928027592629
1663935946879452444,0.22463601827621454,0.0,0.0,0.0,0.0,-2.268928027592629
1663935946929506077,0.2171154022216797,0.0,0.0,0.0,0.0,-2.094395102393196
1663935946979498606,0.2171154022216797,0.0,0.0,0.0,0.0,-2.094395102393196
1663935947029536264,0.20499878560510146,0.0,0.0,0.0,0.0,-0.34439510239319615
1663935947079681095,0.2035945355892181,0.0,0.0,0.0,0.0,-0.14157961308956146
1663935947130117272,0.1941018555953917,0.0,0.0,0.0,0.0,-0.3165796130895615
1663935947179572369,0.18460917560156528,0.0,0.0,0.0,0.0,-0.49157961308956155
1663935947230141103,0.17511649560773887,0.0,0.0,0.0,0.0,-0.6665796130895616
1663935947284805253,0.17332912649196397,0.0,0.0,0.0,0.0,-0.8415796130895616
1663935947329659407,0.17154175737618907,0.0,0.0,0.0,0.0,-1.0165796130895617
1663935947379583589,0.1661808725387465,0.0,0.0,0.0,0.0,-1.1915796130895617
1663935947429547916,0.16081998770130393,0.0,0.0,0.0,0.0,-1.3665796130895618
1663935947479478246,0.13277299352279842,0.0,0.0,0.0,0.0,-1.5415796130895618
1663935947529638759,0.1047259993442929,0.0,0.0,0.0,0.0,-1.7165796130895619
1663935947579732580,0.08966883844786844,0.0,0.0,0.0,0.0,-1.891579613089562
1663935947629576273,0.07461167755144399,0.0,0.0,0.0,0.0,-2.0665796130895617
1663935947679600975,0.05955451665501954,0.0,0.0,0.0,0.0,-2.2415796130895616
1663935947730284881,0.0211771409958601,0.0,0.0,0.0,0.0,-2.094395102393196
1663935947779515268,0.0211771409958601,0.0,0.0,0.0,0.0,-2.094395102393196
1663935947829518292,0.0034822959781230234,0.0,0.0,0.0,0.0,-0.34439510239319615
1663935947879768758,0.0,0.0,0.0,0.0,0.0,-4.996003610813204e-16
1663935947929748731,0.0,0.0,0.0,0.0,0.0,-4.996003610813204e-16
1663935947979398355,0.0,0.0,0.0,0.0,0.0,-4.996003610813204e-16
1663935948029489755,0.0,0.0,0.0,0.0,0.0,-4.996003610813204e-16
1663935948079666037,0.0,0.0,0.0,0.0,0.0,0.17499999999999952
1663935948129686915,0.0,0.0,0.0,0.0,0.0,0.27907753317264195
1663935948179965178,0.0,0.0,0.0,0.0,0.0,0.27907753317264195
1663935948229849091,0.0,0.0,0.0,0.0,0.0,0.454077533172642
1663935948282072985,0.0,0.0,0.0,0.0,0.0,0.5346548679313305
1663935948331999143,0.0,0.0,0.0,0.0,0.0,0.7096548679313306
1663935948379418603,0.0,0.0,0.0,0.0,0.0,0.7527675875648364
1663935948442513889,0.0,0.0,0.0,0.0,0.0,0.9277675875648365
1663935948479367153,0.0,0.0,0.0,0.0,0.0,0.9416681652138983
1663935948529547159,0.0,0.0,0.0,0.0,0.0,1.0833751165262597
1663935948579510924,0.0,0.0,0.0,0.0,0.0,1.0833751165262597
1663935948630694647,0.0,0.0,0.0,0.0,0.0,1.0833751165262597
1663935948679345771,0.0,0.0,0.0,0.0,0.0,1.2096257930914887
1663935948729751430,0.0,0.0,0.0,0.0,0.0,1.2096257930914887
1663935948779469174,0.0,0.0,0.0,0.0,0.0,1.2245047740567399
1663935948829552949,0.0,0.0,0.0,0.0,0.0,1.2245047740567399
1663935948880096004,0.0,0.0,0.0,0.0,0.0,1.2742505420942545
1663935948929580710,0.0,0.0,0.0,0.0,0.0,1.2742505420942545
1663935948979839572,0.0,0.0,0.0,0.0,0.0,1.2286634551234468
1663935949029653685,0.0,0.0,0.0,0.0,0.0,1.2286634551234468
1663935949079739445,0.0,0.0,0.0,0.0,0.0,1.2286634551234468
1663935949129471722,0.0,0.0,0.0,0.0,0.0,1.3021768158458178
1663935949179484962,0.0,0.0,0.0,0.0,0.0,1.3021768158458178
1663935949229863675,0.0,0.0,0.0,0.0,0.0,1.2904908831305137
1663935949279517525,0.0,0.0,0.0,0.0,0.0,1.2904908831305137
1663935949331183965,0.0,0.0,0.0,0.0,0.0,1.2917825428337513
1663935949379654838,0.0,0.0,0.0,0.0,0.0,1.2917825428337513
1663935949429425200,0.0,0.0,0.0,0.0,0.0,1.2917825428337513
1663935949479365118,0.0,0.0,0.0,0.0,0.0,1.3127345339420777
1663935949529637666,0.0,0.0,0.0,0.0,0.0,1.3127345339420777
1663935949579742369,0.0,0.0,0.0,0.0,0.0,1.2074975995454242
1663935949629476345,0.0,0.0,0.0,0.0,0.0,1.2074975995454242
1663935949679348413,0.015,0.0,0.0,0.0,0.0,1.3349885262147125
1663935949729691686,0.03,0.0,0.0,0.0,0.0,1.4624794528840008
1663935949779332602,0.045,0.0,0.0,0.0,0.0,1.5899703795532891
1663935949829631015,0.06,0.0,0.0,0.0,0.0,1.7321607304225635
1663935949879726161,0.075,0.0,0.0,0.0,0.0,1.8743510812918378
1663935949929549712,0.09,0.0,0.0,0.0,0.0,2.0165414321611124
1663935949979372779,0.0,0.0,0.0,0.0,0.0,1.005928721334139
1663935950029574393,0.0,0.0,0.0,0.0,0.0,1.005928721334139
1663935950079541522,0.0,0.0,0.0,0.0,0.0,1.005928721334139
1663935950129366738,0.0,0.0,0.0,0.0,0.0,1.005928721334139
1663935950179976464,0.0,0.0,0.0,0.0,0.0,0.778720304416892
1663935950229688117,0.0,0.0,0.0,0.0,0.0,0.778720304416892
1663935950280183494,0.0,0.0,0.0,0.0,0.0,0.5626458337360836
1663935950329560319,0.0,0.0,0.0,0.0,0.0,0.532878164807631
1663935950379386270,0.0,0.0,0.0,0.0,0.0,0.532878164807631
1663935950429746845,0.0,0.0,0.0,0.0,0.0,0.532878164807631
1663935950479375717,0.0,0.0,0.0,0.0,0.0,0.532878164807631
1663935950529731997,0.0,0.0,0.0,0.0,0.0,0.3859619358408932
1663935950579739247,0.0,0.0,0.0,0.0,0.0,0.3859619358408932
1663935950630027815,0.0,0.0,0.0,0.0,0.0,0.3859619358408932
1663935950679598997,0.0,0.0,0.0,0.0,0.0,0.2109619358408932
1663935950729618042,0.0,0.0,0.0,0.0,0.0,0.03596193584089319
1663935950786322396,0.0,0.0,0.0,0.0,0.0,-4.996003610813204e-16
1663935950829618908,0.0,0.0,0.0,0.0,0.0,-4.996003610813204e-16
1663935950879313546,0.0,0.0,0.0,0.0,0.0,-4.996003610813204e-16
1663935950929403830,0.0,0.0,0.0,0.0,0.0,-0.17500000000000052
1663935950979581824,0.0,0.0,0.0,0.0,0.0,-0.25621502686634223
1663935951029608254,0.0,0.0,0.0,0.0,0.0,-0.25621502686634223
1663935951080095910,0.0,0.0,0.0,0.0,0.0,-0.34501293156341256
1663935951129732433,0.0,0.0,0.0,0.0,0.0,-0.34501293156341256
1663935951179559409,0.005818918956959773,0.0,0.0,0.0,0.0,-0.17001293156341254
1663935951234812128,0.011637837913919546,0.0,0.0,0.0,0.0,0.004987068436587472
1663935951279420535,0.017456756870879317,0.0,0.0,0.0,0.0,0.1799870684365875
1663935951329637976,0.024050919624979364,0.0,0.0,0.0,0.0,0.004987068436587472
1663935951379511484,0.03064508237907941,0.0,0.0,0.0,0.0,-0.17001293156341254
1663935951430405397,0.038190267583025225,0.0,0.0,0.0,0.0,-0.34501293156341256
1663935951479580108,0.04573545278697105,0.0,0.0,0.0,0.0,-0.5200129315634126
1663935951529569517,0.05328063799091687,0.0,0.0,0.0,0.0,-0.6950129315634126
1663935951579630755,0.06461377396656698,0.0,0.0,0.0,0.0,-0.8700129315634126
1663935951629629414,0.07594690994221709,0.0,0.0,0.0,0.0,-1.0450129315634127
1663935951679594593,0.08750214627249074,0.0,0.0,0.0,0.0,-1.2200129315634127
1663935951729613072,0.0990573826027644,0.0,0.0,0.0,0.0,-1.3950129315634128
1663935951779663822,0.11061261893303805,0.0,0.0,0.0,0.0,-1.5700129315634128
1663935951830785858,0.1221678552633117,0.0,0.0,0.0,0.0,-1.7450129315634129
1663935951879966824,0.1371678552633117,0.0,0.0,0.0,0.0,-1.882789129565984
1663935951929489423,0.15216785526331172,0.0,0.0,0.0,0.0,-2.020565327568555
1663935951980653907,0.16716785526331174,0.0,0.0,0.0,0.0,-2.1328543087367753
1663935952029580419,0.18216785526331175,0.0,0.0,0.0,0.0,-2.2451432899049957
1663935952079832281,0.1853451132774353,0.0,0.0,0.0,0.0,-2.268928027592629
1663935952130810918,0.18596269190311432,0.0,0.0,0.0,0.0,-2.094395102393196
1663935952179408976,0.18596269190311432,0.0,0.0,0.0,0.0,-2.094395102393196
1663935952236412798,0.18596269190311432,0.0,0.0,0.0,0.0,-2.094395102393196
1663935952279488239,0.17605733599091614,0.0,0.0,0.0,0.0,-2.269395102393196
1663935952329603127,0.16620485484600067,0.0,0.0,0.0,0.0,-2.4434609527920617
1663935952379502826,0.16620485484600067,0.0,0.0,0.0,0.0,-2.4434609527920617
1663935952429790982,0.16620485484600067,0.0,0.0,0.0,0.0,-2.4434609527920617
1663935952479671568,0.16620485484600067,0.0,0.0,0.0,0.0,-2.4434609527920617
1663935952529329169,0.12496446073055267,0.0,0.0,0.0,0.0,-2.4434609527920617
1663935952579729409,0.12496446073055267,0.0,0.0,0.0,0.0,-2.4434609527920617
1663935952629575378,0.019223629911686843,0.0,0.0,0.0,0.0,-0.6934609527920617
1663935952681792277,0.0,0.0,0.0,0.0,0.0,-0.39911967716526003
1663935952729794871,0.0,0.0,0.0,0.0,0.0,-0.39911967716526003
1663935952779621464,0.0,0.0,0.0,0.0,0.0,-0.39911967716526003
1663935952829864666,0.010638902833413308,0.0,0.0,0.0,0.0,-0.57411967716526
1663935952879922510,0.021277805666826615,0.0,0.0,0.0,0.0,-0.7491196771652601
1663935952929623296,0.03627780566682662,0.0,0.0,0.0,0.0,-0.614750457787549
1663935952979677503,0.05127780566682662,0.0,0.0,0.0,0.0,-0.48038123840983793
1663935953029700727,0.06627780566682662,0.0,0.0,0.0,0.0,-0.34601201903212686
1663935953079576023,0.05828437681279772,0.0,0.0,0.0,0.0,-0.5210120190321269
1663935953129404222,0.05029094795876882,0.0,0.0,0.0,0.0,-0.696012019032127
1663935953179807007,0.04229751910473991,0.0,0.0,0.0,0.0,-0.871012019032127
1663935953231456222,0.05729751910473991,0.0,0.0,0.0,0.0,-0.6696804259735906
1663935953279585660,0.07229751910473992,0.0,0.0,0.0,0.0,-0.48125769778842786
1663935953329540945,0.08729751910473992,0.0,0.0,0.0,0.0,-0.2928349696032651
1663935953379837816,0.10229751910473991,0.0,0.0,0.0,0.0,-0.10441224141810232
1663935953429606044,0.1053963452577591,0.0,0.0,0.0,0.0,-0.0968422070145607
1663935953479590275,0.1053963452577591,0.0,0.0,0.0,0.0,-0.0968422070145607
1663935953529816191,0.1053963452577591,0.0,0.0,0.0,0.0,-0.0968422070145607
1663935953579818957,0.09543741868012569,0.0,0.0,0.0,0.0,-0.27184220701456074
1663935953629382766,0.08547849210249228,0.0,0.0,0.0,0.0,-0.4468422070145608
1663935953679681412,0.10047849210249228,0.0,0.0,0.0,0.0,-0.2380806049733629
1663935953729603885,0.11097946017980576,0.0,0.0,0.0,0.0,-0.09193401038646698
1663935953779517020,0.11097946017980576,0.0,0.0,0.0,0.0,-0.09193401038646698
1663935953830754489,0.11351482570171356,0.0,0.0,0.0,0.0,-0.09435433894395828
1663935953879392344,0.11351482570171356,0.0,0.0,0.0,0.0,-0.09435433894395828
1663935953930065847,0.11351482570171356,0.0,0.0,0.0,0.0,-0.09435433894395828
1663935953979622575,0.11351482570171356,0.0,0.0,0.0,0.0,-0.09435433894395828
1663935954029531668,0.11351482570171356,0.0,0.0,0.0,0.0,-0.09435433894395828
1663935954079499602,0.11351482570171356,0.0,0.0,0.0,0.0,-0.09435433894395828
1663935954129430437,0.11351482570171356,0.0,0.0,0.0,0.0,-0.09435433894395828
1663935954179977906,0.0,0.0,0.0,0.0,0.0,0.0
1663935954829591023,0.015,0.0,0.0,0.0,0.0,0.008864116193989777
1663935954879560391,0.018415436131397688,0.0,0.0,0.0,0.0,0.1838641161939898
1663935954929723256,0.021830872262795377,0.0,0.0,0.0,0.0,0.35886411619398983
1663935954979547461,0.025246308394193066,0.0,0.0,0.0,0.0,0.5338641161939899
1663935955030096106,0.02607057505891581,0.0,0.0,0.0,0.0,0.7088641161939899
1663935955079560429,0.02689484172363855,0.0,0.0,0.0,0.0,0.88386411619399
1663935955129624298,0.027719108388361294,0.0,0.0,0.0,0.0,1.05886411619399
1663935955180273807,0.023743340896581592,0.0,0.0,0.0,0.0,1.23386411619399
1663935955229350313,0.02005384489893913,0.0,0.0,0.0,0.0,1.3962634015954631
1663935955279761759,0.02005384489893913,0.0,0.0,0.0,0.0,1.3962634015954631
1663935955329681744,0.015787659212946892,0.0,0.0,0.0,0.0,1.3962634015954631
1663935955379527961,0.006786233279854058,0.0,0.0,0.0,0.0,1.3962634015954631
1663935955429497631,0.006786233279854058,0.0,0.0,0.0,0.0,1.3962634015954631
1663935955479579715,0.006786233279854058,0.0,0.0,0.0,0.0,1.3962634015954631
1663935955530095880,0.00308960978873074,0.0,0.0,0.0,0.0,1.2217304763960302
1663935955579791753,0.0,0.0,0.0,0.0,0.0,1.186501856247204
1663935955629319608,0.0,0.0,0.0,0.0,0.0,1.186501856247204
1663935955679440903,0.0,0.0,0.0,0.0,0.0,1.186501856247204
1663935955729392986,0.0,0.0,0.0,0.0,0.0,1.186501856247204
1663935955779435771,0.0,0.0,0.0,0.0,0.0,1.186501856247204
1663935955829335038,0.0,0.0,0.0,0.0,0.0,1.2119711195999034
1663935955879505176,0.0,0.0,0.0,0.0,0.0,1.2119711195999034
1663935955929535466,0.015,0.0,0.0,0.0,0.0,1.0962224907466769
1663935955979683275,0.03,0.0,0.0,0.0,0.0,0.9804738618934503
1663935956030224792,0.045,0.0,0.0,0.0,0.0,0.8647252330402238
1663935956079641225,0.018980631420766624,0.0,0.0,0.0,0.0,1.0397252330402238
1663935956129502492,0.0,0.0,0.0,0.0,0.0,1.1476985667141197
1663935956179755034,0.0,0.0,0.0,0.0,0.0,1.1476985667141197
1663935956229613193,0.0,0.0,0.0,0.0,0.0,1.1476985667141197
1663935956279653412,0.0,0.0,0.0,0.0,0.0,1.1476985667141197
1663935956329632057,0.0,0.0,0.0,0.0,0.0,1.1476985667141197
1663935956380077611,0.0,0.0,0.0,0.0,0.0,1.1476985667141197
1663935956431589822,0.0,0.0,0.0,0.0,0.0,1.292447876513654
1663935956479556159,0.008041729530791799,0.0,0.0,0.0,0.0,1.117447876513654
1663935956529497333,0.016091649693482625,0.0,0.0,0.0,0.0,0.9424478765136539
1663935956579653841,0.024141569856173453,0.0,0.0,0.0,0.0,0.7674478765136539
1663935956629584892,0.032191490018864274,0.0,0.0,0.0,0.0,0.5924478765136538
1663935956679549486,0.04115353591164335,0.0,0.0,0.0,0.0,0.4174478765136538
1663935956729369265,0.03281466788506372,0.0,0.0,0.0,0.0,0.5924478765136538
1663935956779567101,0.024475799858484096,0.0,0.0,0.0,0.0,0.7674478765136539
1663935956829474601,0.01613693183190447,0.0,0.0,0.0,0.0,0.9424478765136539
1663935956879828795,0.024350633134137406,0.0,0.0,0.0,0.0,0.7674478765136539
1663935956929572126,0.03256433443637034,0.0,0.0,0.0,0.0,0.5924478765136538
1663935956979886334,0.02591712796099666,0.0,0.0,0.0,0.0,0.7674478765136539
1663935957043354719,0.019269921485622975,0.0,0.0,0.0,0.0,0.9424478765136539
1663935957080291994,0.01262271501024929,0.0,0.0,0.0,0.0,1.117447876513654
1663935957129832181,0.0069212127194771735,0.0,0.0,0.0,0.0,1.292447876513654
1663935957179683693,0.0012197104287050555,0.0,0.0,0.0,0.0,1.467447876513654
1663935957229539563,0.0,0.0,0.0,0.0,0.0,1.5048852595291538
1663935957279582762,0.0,0.0,0.0,0.0,0.0,1.5582571424280491
1663935957329792819,0.0,0.0,0.0,0.0,0.0,1.5582571424280491
1663935957382905071,0.0,0.0,0.0,0.0,0.0,1.5582571424280491
1663935957429714749,0.007629602993452628,0.0,0.0,0.0,0.0,1.383257142428049
1663935957480256164,0.0005101280508590387,0.0,0.0,0.0,0.0,1.5582571424280491
1663935957529540290,0.0,0.0,0.0,0.0,0.0,1.5707963267948966
1663935957579602218,0.0,0.0,0.0,0.0,0.0,1.5707963267948966
1663935957629571688,0.0,0.0,0.0,0.0,0.0,1.5707963267948966
1663935957679303039,0.0,0.0,0.0,0.0,0.0,1.5707963267948966
1663935957729772813,0.0,0.0,0.0,0.0,0.0,1.5707963267948966
1663935957779696144,0.007399831108938338,0.0,0.0,0.0,0.0,1.3957963267948965
1663935957829493413,0.014515289586854399,0.0,0.0,0.0,0.0,1.2207963267948965
1663935957879419911,0.021630748064770458,0.0,0.0,0.0,0.0,1.0457963267948964
1663935957929410980,0.014420498709846973,0.0,0.0,0.0,0.0,1.2207963267948965
1663935957979672401,0.007210249354923488,0.0,0.0,0.0,0.0,1.3957963267948965
1663935958029537534,8.673617379884035e-19,0.0,0.0,0.0,0.0,1.5707963267948966
1663935958079961610,0.015,0.0,0.0,0.0,0.0,1.6679655184256004
1663935958129514482,0.03,0.0,0.0,0.0,0.0,1.7651347100563042
1663935958179650075,0.045,0.0,0.0,0.0,0.0,1.862303901687008
1663935958229448794,0.06,0.0,0.0,0.0,0.0,1.9594730933177118
1663935958279696952,0.0,0.0,0.0,0.0,0.0,1.5707963267948966
1663935958329547252,0.0,0.0,0.0,0.0,0.0,1.5707963267948966
1663935958379575956,0.015,0.0,0.0,0.0,0.0,1.6448818654306392
1663935958429601592,0.03,0.0,0.0,0.0,0.0,1.7185158245815175
1663935958479591422,0.045,0.0,0.0,0.0,0.0,1.7921497837323959
1663935958529750275,0.04682537543703161,0.0,0.0,0.0,0.0,1.967149783732396
1663935958579588193,0.048650750874063224,0.0,0.0,0.0,0.0,2.1421497837323957
1663935958629433222,0.050476126311094834,0.0,0.0,0.0,0.0,2.3171497837323956
1663935958679721761,0.0517936423420906,0.0,0.0,0.0,0.0,2.4434609527920603
1663935958729681305,0.06679364234209059,0.0,0.0,0.0,0.0,2.454358757952194
1663935958779765251,0.08179364234209059,0.0,0.0,0.0,0.0,2.4652565631123275
1663935958829425757,0.09679364234209059,0.0,0.0,0.0,0.0,2.476154368272461
1663935958879712615,0.11179364234209059,0.0,0.0,0.0,0.0,2.2595323215443854
1663935958929817838,0.1267936423420906,0.0,0.0,0.0,0.0,2.04291027481631
1663935958979483152,0.14179364234209058,0.0,0.0,0.0,0.0,1.9066881324119054
1663935959029353968,0.1567936423420906,0.0,0.0,0.0,0.0,1.7704659900075006
1663935959079606083,0.1717936423420906,0.0,0.0,0.0,0.0,1.6342438476030958
1663935959129535061,0.18119575083255768,0.0,0.0,0.0,0.0,0.5235987755982984
1663935959179475672,0.18119575083255768,0.0,0.0,0.0,0.0,0.5235987755982984
1663935959229504750,0.18119575083255768,0.0,0.0,0.0,0.0,0.5235987755982984
1663935959279876629,0.18119575083255768,0.0,0.0,0.0,0.0,0.5235987755982984
1663935959329642487,0.1961957508325577,0.0,0.0,0.0,0.0,0.5048400099344404
1663935959379613998,0.2111957508325577,0.0,0.0,0.0,0.0,0.4860812442705825
1663935959429693778,0.21591110527515409,0.0,0.0,0.0,0.0,0.26235756278038025
1663935959479690381,0.21591110527515409,0.0,0.0,0.0,0.0,0.26235756278038025
1663935959529546811,0.21591110527515409,0.0,0.0,0.0,0.0,0.26235756278038025
1663935959579657708,0.23091110527515407,0.0,0.0,0.0,0.0,0.2744604835036069
1663935959629540390,0.233267679810524,0.0,0.0,0.0,0.0,0.2763619124889374
1663935959681768368,0.233267679810524,0.0,0.0,0.0,0.0,0.2763619124889374
1663935959729603687,0.233267679810524,0.0,0.0,0.0,0.0,0.2763619124889374
1663935959780307582,0.19200199416705538,0.0,0.0,0.0,0.0,0.29815730452537537
1663935959829412413,0.19200199416705538,0.0,0.0,0.0,0.0,0.29815730452537537
1663935959879754467,0.19200199416705538,0.0,0.0,0.0,0.0,0.29815730452537537
1663935959929629097,0.19200199416705538,0.0,0.0,0.0,0.0,0.29815730452537537
1663935959979553661,0.19200199416705538,0.0,0.0,0.0,0.0,0.29815730452537537
1663935960029738401,0.19200199416705538,0.0,0.0,0.0,0.0,0.29815730452537537
1663935960079462470,0.19200199416705538,0.0,0.0,0.0,0.0,0.29815730452537537
1663935960136448501,0.19200199416705538,0.0,0.0,0.0,0.0,0.29815730452537537
1663935960179427707,0.19200199416705538,0.0,0.0,0.0,0.0,0.29815730452537537
1663935960230756030,0.042001994167055356,0.0,0.0,0.0,0.0,0.0652243296735954
1663935960279806800,0.0,0.0,0.0,0.0,0.0,0.0
1663935960729607988,0.015,0.0,0.0,0.0,0.0,-0.018796394527053215
1663935960779580318,0.03,0.0,0.0,0.0,0.0,-0.03759278905410643
1663935960829342240,0.045,0.0,0.0,0.0,0.0,-0.056389183581159644
1663935960880406180,0.06,0.0,0.0,0.0,0.0,-0.08290084928186517
1663935960929610407,0.075,0.0,0.0,0.0,0.0,-0.10941251498257068
1663935960979459942,0.09,0.0,0.0,0.0,0.0,-0.1359241806832762
1663935961029587754,0.105,0.0,0.0,0.0,0.0,-0.15281423637159353
1663935961085466275,0.12,0.0,0.0,0.0,0.0,-0.16970429205991086
1663935961129525434,0.135,0.0,0.0,0.0,0.0,-0.18681104756293077
1663935961179556572,0.15000000000000002,0.0,0.0,0.0,0.0,-0.20391780306595067
1663935961229347573,0.16500000000000004,0.0,0.0,0.0,0.0,-0.22102455856897057
1663935961280344617,0.18000000000000005,0.0,0.0,0.0,0.0,-0.23813131407199048
1663935961329659402,0.19500000000000006,0.0,0.0,0.0,0.0,-0.2554256676044336
1663935961380173322,0.21000000000000008,0.0,0.0,0.0,0.0,-0.29007567357967673
1663935961431432287,0.2250000000000001,0.0,0.0,0.0,0.0,-0.3247256795549198
1663935961479559856,0.2400000000000001,0.0,0.0,0.0,0.0,-0.35937568553016297
1663935961529693829,0.2550000000000001,0.0,0.0,0.0,0.0,-0.37500265425291174
1663935961579414040,0.27000000000000013,0.0,0.0,0.0,0.0,-0.3906296229756605
1663935961630094570,0.28500000000000014,0.0,0.0,0.0,0.0,-0.4062565916984093
1663935961679478061,0.30000000000000016,0.0,0.0,0.0,0.0,-0.4503544763148531
1663935961729383556,0.31500000000000017,0.0,0.0,0.0,0.0,-0.4944523609312969
1663935961780733803,0.3300000000000002,0.0,0.0,0.0,0.0,-0.507660801208859
1663935961829604243,0.3450000000000002,0.0,0.0,0.0,0.0,-0.5208692414864211
1663935961879534258,0.3600000000000002,0.0,0.0,0.0,0.0,-0.5340776817639832
1663935961930036752,0.3750000000000002,0.0,0.0,0.0,0.0,-0.5474316241867235
1663935961979678401,0.39000000000000024,0.0,0.0,0.0,0.0,-0.5607855666094639
1663935962029505260,0.40500000000000025,0.0,0.0,0.0,0.0,-0.6634532236956283
1663935962079719988,0.42000000000000026,0.0,0.0,0.0,0.0,-0.7661208807817927
1663935962129950530,0.4350000000000003,0.0,0.0,0.0,0.0,-0.8687885378679573
1663935962179600532,0.4500000000000003,0.0,0.0,0.0,0.0,-0.8454281175560425
1663935962229465228,0.4650000000000003,0.0,0.0,0.0,0.0,-0.8220676972441278
1663935962279647630,0.4800000000000003,0.0,0.0,0.0,0.0,-0.798707276932213
1663935962329668275,0.49500000000000033,0.0,0.0,0.0,0.0,-0.7291572470976251
1663935962379538619,0.5100000000000003,0.0,0.0,0.0,0.0,-0.6596072172630372
1663935962429667954,0.5250000000000004,0.0,0.0,0.0,0.0,-0.5900571874284493
1663935962479736813,0.5400000000000004,0.0,0.0,0.0,0.0,-0.5315064924285051
1663935962529652290,0.5420258641242981,0.0,0.0,0.0,0.0,-0.5235987755982994
1663935962579500882,0.5537987947463988,0.0,0.0,0.0,0.0,-0.4904061257839203
1663935962630331213,0.5537987947463988,0.0,0.0,0.0,0.0,-0.4904061257839203
1663935962679581336,0.5537987947463988,0.0,0.0,0.0,0.0,-0.4904061257839203
1663935962729640098,0.563197910785675,0.0,0.0,0.0,0.0,-0.4985310435295105
1663935962779376750,0.563197910785675,0.0,0.0,0.0,0.0,-0.4985310435295105
1663935962830429349,0.47250476479530334,0.0,0.0,0.0,0.0,-0.46558085083961487
1663935962879606241,0.47250476479530334,0.0,0.0,0.0,0.0,-0.46558085083961487
1663935962929570095,0.48750476479530336,0.0,0.0,0.0,0.0,-0.47147841155750353
1663935962979457025,0.5025047647953034,0.0,0.0,0.0,0.0,-0.4773759722753922
1663935963029361497,0.5175047647953034,0.0,0.0,0.0,0.0,-0.48327353299328085
1663935963080024690,0.5325047647953034,0.0,0.0,0.0,0.0,-0.49050149237933544
1663935963129609212,0.5475047647953034,0.0,0.0,0.0,0.0,-0.49772945176539
1663935963179705297,0.5625047647953034,0.0,0.0,0.0,0.0,-0.5065015893672455
1663935963230410163,0.5775047647953034,0.0,0.0,0.0,0.0,-0.515273726969101
1663935963279674646,0.5925047647953035,0.0,0.0,0.0,0.0,-0.5240458645709565
1663935963329470973,0.6075047647953035,0.0,0.0,0.0,0.0,-0.5351421313759491
1663935963379664367,0.6225047647953035,0.0,0.0,0.0,0.0,-0.5462383981809419
1663935963429617413,0.6231963634490966,0.0,0.0,0.0,0.0,-0.546750009059906
1663935963479763813,0.6299715042114258,0.0,0.0,0.0,0.0,-0.554581344127655
1663935963529356605,0.6328660845756531,0.0,0.0,0.0,0.0,-0.5627956986427307
1663935963580016366,0.6328660845756531,0.0,0.0,0.0,0.0,-0.5627956986427307
1663935963629530385,0.6336176991462708,0.0,0.0,0.0,0.0,-0.6981317007977323
1663935963692386510,0.6336176991462708,0.0,0.0,0.0,0.0,-0.6981317007977323
1663935963730870898,0.6336176991462708,0.0,0.0,0.0,0.0,-0.6981317007977323
1663935963779475752,0.6345251202583313,0.0,0.0,0.0,0.0,-0.5849702954292297
1663935963829412642,0.6345251202583313,0.0,0.0,0.0,0.0,-0.5849702954292297
1663935963879390493,0.632855713367462,0.0,0.0,0.0,0.0,-0.5962011218070984
1663935963930292521,0.632855713367462,0.0,0.0,0.0,0.0,-0.5962011218070984
1663935963979867706,0.6285054683685303,0.0,0.0,0.0,0.0,-0.6981317007977323
1663935964029312597,0.6285054683685303,0.0,0.0,0.0,0.0,-0.6981317007977323
1663935964079614866,0.5319005846977234,0.0,0.0,0.0,0.0,-0.5845238566398621
1663935964129687411,0.5319005846977234,0.0,0.0,0.0,0.0,-0.5845238566398621
1663935964179503750,0.5319005846977234,0.0,0.0,0.0,0.0,-0.5845238566398621
1663935964229652807,0.5469005846977234,0.0,0.0,0.0,0.0,-0.6301048624409413
1663935964279416455,0.5619005846977234,0.0,0.0,0.0,0.0,-0.6756858682420206
1663935964329297714,0.5769005846977234,0.0,0.0,0.0,0.0,-0.7212668740430999
1663935964381020308,0.5919005846977234,0.0,0.0,0.0,0.0,-0.768069851574124
1663935964429572835,0.6069005846977235,0.0,0.0,0.0,0.0,-0.814872829105148
1663935964479853385,0.6219005846977235,0.0,0.0,0.0,0.0,-0.8602426369303176
1663935964529496401,0.6260074973106384,0.0,0.0,0.0,0.0,-0.8726646259971653
1663935964580034067,0.6260074973106384,0.0,0.0,0.0,0.0,-0.8726646259971653
1663935964629812513,0.6337087154388428,0.0,0.0,0.0,0.0,-0.8726646259971653
1663935964679795983,0.6337087154388428,0.0,0.0,0.0,0.0,-0.8726646259971653
1663935964729427830,0.547134757041931,0.0,0.0,0.0,0.0,-0.8726646259971653
1663935964779609126,0.547134757041931,0.0,0.0,0.0,0.0,-0.8726646259971653
1663935964829399504,0.547134757041931,0.0,0.0,0.0,0.0,-0.8726646259971653
1663935964879483571,0.56103515625,0.0,0.0,0.0,0.0,-0.6981317007977323
1663935964929811312,0.56103515625,0.0,0.0,0.0,0.0,-0.6981317007977323
1663935964979620313,0.56103515625,0.0,0.0,0.0,0.0,-0.6981317007977323
1663935965029893807,0.57603515625,0.0,0.0,0.0,0.0,-0.7247775685881702
1663935965079808677,0.59103515625,0.0,0.0,0.0,0.0,-0.7514234363786081
1663935965129701867,0.60603515625,0.0,0.0,0.0,0.0,-0.7744710345854618
1663935965179333180,0.62103515625,0.0,0.0,0.0,0.0,-0.7975186327923156
1663935965229721829,0.6360351562500001,0.0,0.0,0.0,0.0,-0.8205662309991695
1663935965279532426,0.6510351562500001,0.0,0.0,0.0,0.0,-0.8436138292060233
1663935965329566774,0.6660351562500001,0.0,0.0,0.0,0.0,-0.852275912433066
1663935965379534895,0.6810351562500001,0.0,0.0,0.0,0.0,-0.8609379956601086
1663935965429453980,0.6960351562500001,0.0,0.0,0.0,0.0,-0.8696000788871514
1663935965480705593,0.7110351562500001,0.0,0.0,0.0,0.0,-0.8714169215470412
1663935965529524346,0.721336305141449,0.0,0.0,0.0,0.0,-0.8726646259971653
1663935965579853647,0.721336305141449,0.0,0.0,0.0,0.0,-0.8726646259971653
1663935965629520894,0.736336305141449,0.0,0.0,0.0,0.0,-0.8726646259971653
1663935965680002679,0.751336305141449,0.0,0.0,0.0,0.0,-0.8726646259971653
1663935965729656202,0.7599124908447265,0.0,0.0,0.0,0.0,-0.8726646259971653
1663935965780228043,0.7749124908447265,0.0,0.0,0.0,0.0,-0.8726646259971653
1663935965829688186,0.777276575565338,0.0,0.0,0.0,0.0,-0.8726646259971653
1663935965879662454,0.777276575565338,0.0,0.0,0.0,0.0,-0.8726646259971653
1663935965929540589,0.7885377407073975,0.0,0.0,0.0,0.0,-0.8726646259971653
1663935965980702136,0.7885377407073975,0.0,0.0,0.0,0.0,-0.8726646259971653
1663935966029643139,0.7946819067001343,0.0,0.0,0.0,0.0,-1.0471975511965983
1663935966079540408,0.7946819067001343,0.0,0.0,0.0,0.0,-1.0471975511965983
1663935966129487436,0.7957649827003478,0.0,0.0,0.0,0.0,-1.0471975511965983
1663935966179584019,0.7957649827003478,0.0,0.0,0.0,0.0,-1.0471975511965983
1663935966229896874,0.7857542037963866,0.0,0.0,0.0,0.0,-1.2217304763960313
1663935966279877884,0.7857542037963866,0.0,0.0,0.0,0.0,-1.2217304763960313
1663935966329580912,0.7857542037963866,0.0,0.0,0.0,0.0,-1.2217304763960313
1663935966379886883,0.7857542037963866,0.0,0.0,0.0,0.0,-1.2217304763960313
1663935966429410542,0.7857542037963866,0.0,0.0,0.0,0.0,-1.2217304763960313
1663935966480685262,0.7651341956638401,0.0,0.0,0.0,0.0,-1.3967304763960313
1663935966529527831,0.7446242570877074,0.0,0.0,0.0,0.0,-1.5707963267948972
1663935966579859189,0.7446242570877074,0.0,0.0,0.0,0.0,-1.5707963267948972
1663935966630536080,0.7209118604660034,0.0,0.0,0.0,0.0,-1.5707963267948972
1663935966679694681,0.7209118604660034,0.0,0.0,0.0,0.0,-1.5707963267948972
1663935966729553048,0.7209118604660034,0.0,0.0,0.0,0.0,-1.5707963267948972
1663935966779599491,0.693541944026947,0.0,0.0,0.0,0.0,-1.5707963267948972
1663935966829382184,0.693541944026947,0.0,0.0,0.0,0.0,-1.5707963267948972
1663935966884343617,0.6634448170661926,0.0,0.0,0.0,0.0,-1.7453292519943302
1663935966929262591,0.6634448170661926,0.0,0.0,0.0,0.0,-1.7453292519943302
1663935966979555136,0.6417213082313538,0.0,0.0,0.0,0.0,-1.7453292519943302
1663935967029538639,0.6417213082313538,0.0,0.0,0.0,0.0,-1.7453292519943302
1663935967079526638,0.5396261811256409,0.0,0.0,0.0,0.0,-1.5707963267948972
1663935967129578124,0.5396261811256409,0.0,0.0,0.0,0.0,-1.5707963267948972
1663935967179688257,0.5396261811256409,0.0,0.0,0.0,0.0,-1.5707963267948972
1663935967231535490,0.5396261811256409,0.0,0.0,0.0,0.0,-1.5707963267948972
1663935967279690179,0.5380290746688842,0.0,0.0,0.0,0.0,-1.5707963267948972
1663935967329332390,0.5380290746688842,0.0,0.0,0.0,0.0,-1.5707963267948972
1663935967379732372,0.5416852235794067,0.0,0.0,0.0,0.0,-1.3962634015954642
1663935967429899735,0.5416852235794067,0.0,0.0,0.0,0.0,-1.3962634015954642
1663935967479603089,0.5416852235794067,0.0,0.0,0.0,0.0,-1.3962634015954642
1663935967529850105,0.5410694479942321,0.0,0.0,0.0,0.0,-0.8726646259971653
1663935967579649499,0.5410694479942321,0.0,0.0,0.0,0.0,-0.8726646259971653
1663935967629598806,0.5410694479942321,0.0,0.0,0.0,0.0,-0.8726646259971653
1663935967680518303,0.5560694479942321,0.0,0.0,0.0,0.0,-0.9000697612661344
1663935967729553741,0.5710694479942321,0.0,0.0,0.0,0.0,-0.9274748965351034
1663935967779623285,0.5860694479942321,0.0,0.0,0.0,0.0,-0.9165587811768126
1663935967829638862,0.6010694479942321,0.0,0.0,0.0,0.0,-0.9056426658185217
1663935967879789615,0.6160694479942321,0.0,0.0,0.0,0.0,-0.8947265504602308
1663935967933159567,0.6310694479942321,0.0,0.0,0.0,0.0,-0.8838104351019398
1663935967979580346,0.6460694479942322,0.0,0.0,0.0,0.0,-0.8776204059578461
1663935968029324541,0.6580785512924193,0.0,0.0,0.0,0.0,-0.8726646259971653
1663935968079668968,0.5789197683334351,0.0,0.0,0.0,0.0,-0.8726646259971653
1663935968129566244,0.5789197683334351,0.0,0.0,0.0,0.0,-0.8726646259971653
1663935968179950597,0.5939197683334351,0.0,0.0,0.0,0.0,-0.841396158248757
1663935968229646310,0.6089197683334351,0.0,0.0,0.0,0.0,-0.8101276905003487
1663935968279420492,0.6239197683334351,0.0,0.0,0.0,0.0,-0.7788592227519404
1663935968329799145,0.6014842987060546,0.0,0.0,0.0,0.0,-0.5881925821304321
1663935968379654555,0.6014842987060546,0.0,0.0,0.0,0.0,-0.5881925821304321
1663935968429576841,0.6014842987060546,0.0,0.0,0.0,0.0,-0.5881925821304321
1663935968479707559,0.6085789203643798,0.0,0.0,0.0,0.0,-0.55046546459198
1663935968529608850,0.6085789203643798,0.0,0.0,0.0,0.0,-0.55046546459198
1663935968583314529,0.6235789203643798,0.0,0.0,0.0,0.0,-0.5505507798917596
1663935968629746932,0.6385789203643798,0.0,0.0,0.0,0.0,-0.5506360951915392
1663935968679576013,0.6535789203643798,0.0,0.0,0.0,0.0,-0.5507214104913188
1663935968729586062,0.6685789203643798,0.0,0.0,0.0,0.0,-0.5508067257910985
1663935968780707862,0.6835789203643798,0.0,0.0,0.0,0.0,-0.550892041090878
1663935968829666772,0.6985789203643799,0.0,0.0,0.0,0.0,-0.5280913440890314
1663935968879632541,0.7135789203643799,0.0,0.0,0.0,0.0,-0.5052906470871846
1663935968930029060,0.6458240747451782,0.0,0.0,0.0,0.0,-0.40800249576568604
1663935968980056220,0.6458240747451782,0.0,0.0,0.0,0.0,-0.40800249576568604
1663935969029582414,0.6458240747451782,0.0,0.0,0.0,0.0,-0.40800249576568604
1663935969081248973,0.6608240747451782,0.0,0.0,0.0,0.0,-0.411958030517941
1663935969129715348,0.6758240747451782,0.0,0.0,0.0,0.0,-0.41591356527019596
1663935969180174780,0.6908240747451783,0.0,0.0,0.0,0.0,-0.510982255654823
1663935969229781005,0.7058240747451783,0.0,0.0,0.0,0.0,-0.6060509460394502
1663935969279457374,0.7208240747451783,0.0,0.0,0.0,0.0,-0.7011196364240774
1663935969329627591,0.7249348126863933,0.0,0.0,0.0,0.0,-0.8761196364240774
1663935969379876018,0.7289534211158751,0.0,0.0,0.0,0.0,-1.0471975511965983
1663935969429533345,0.7289534211158751,0.0,0.0,0.0,0.0,-1.0471975511965983
1663935969479510196,0.7439534211158751,0.0,0.0,0.0,0.0,-1.0223176389407285
1663935969530275819,0.7589534211158752,0.0,0.0,0.0,0.0,-1.0020333361610827
1663935969579649535,0.7739534211158752,0.0,0.0,0.0,0.0,-0.981749033381437
1663935969629487810,0.7889534211158752,0.0,0.0,0.0,0.0,-0.9614647306017914
1663935969679428352,0.8039534211158752,0.0,0.0,0.0,0.0,-0.9411804278221457
1663935969729847253,0.8189534211158752,0.0,0.0,0.0,0.0,-1.0021250882889419
1663935969779497601,0.8339534211158752,0.0,0.0,0.0,0.0,-0.975788333357151
1663935969829907030,0.8489534211158752,0.0,0.0,0.0,0.0,-0.9494515784253601
1663935969879475245,0.8639534211158753,0.0,0.0,0.0,0.0,-0.9231148234935693
1663935969930793798,0.8789534211158753,0.0,0.0,0.0,0.0,-0.9699340360365143
1663935969979641081,0.8939534211158753,0.0,0.0,0.0,0.0,-1.0167532485794595
1663935970029567619,0.9037072062492371,0.0,0.0,0.0,0.0,-1.0471975511965983
1663935970079748584,0.8499611616134644,0.0,0.0,0.0,0.0,-1.0471975511965983
1663935970129584782,0.8588943481445311,0.0,0.0,0.0,0.0,-1.0471975511965983
1663935970182061215,0.8588943481445311,0.0,0.0,0.0,0.0,-1.0471975511965983
1663935970229409368,0.8588943481445311,0.0,0.0,0.0,0.0,-1.0471975511965983
1663935970279543974,0.8738943481445312,0.0,0.0,0.0,0.0,-1.0471975511965983
1663935970329535478,0.8888943481445312,0.0,0.0,0.0,0.0,-1.0471975511965983
1663935970379463336,0.9038943481445312,0.0,0.0,0.0,0.0,-1.0471975511965983
1663935970429451967,0.9188943481445312,0.0,0.0,0.0,0.0,-1.1425759739240204
1663935970479512179,0.9313428401947021,0.0,0.0,0.0,0.0,-1.2217304763960313
1663935970529633897,0.8671880960464476,0.0,0.0,0.0,0.0,-1.2217304763960313
1663935970586340704,0.8671880960464476,0.0,0.0,0.0,0.0,-1.2217304763960313
1663935970630316445,0.8671880960464476,0.0,0.0,0.0,0.0,-1.2217304763960313
1663935970680708549,0.8770414976978373,0.0,0.0,0.0,0.0,-1.3967304763960313
1663935970729493319,0.886894899349227,0.0,0.0,0.0,0.0,-1.5717304763960314
1663935970779631052,0.8979896114140392,0.0,0.0,0.0,0.0,-1.7467304763960314
1663935970829432781,0.9090843234788514,0.0,0.0,0.0,0.0,-1.9217304763960315
1663935970879504614,0.8541567325592041,0.0,0.0,0.0,0.0,-2.094395102393196
1663935970929800087,0.8541567325592041,0.0,0.0,0.0,0.0,-2.094395102393196
1663935970980709791,0.8507219552993774,0.0,0.0,0.0,0.0,-2.094395102393196
1663935971029667123,0.8507219552993774,0.0,0.0,0.0,0.0,-2.094395102393196
1663935971079502741,0.8507219552993774,0.0,0.0,0.0,0.0,-2.094395102393196
1663935971129859492,0.8657219552993775,0.0,0.0,0.0,0.0,-2.094395102393196
1663935971182274375,0.8807219552993775,0.0,0.0,0.0,0.0,-2.094395102393196
1663935971229651117,0.8524208664894103,0.0,0.0,0.0,0.0,-2.094395102393196
1663935971279376944,0.8524208664894103,0.0,0.0,0.0,0.0,-2.094395102393196
1663935971329443089,0.8524208664894103,0.0,0.0,0.0,0.0,-2.094395102393196
1663935971380140253,0.862026810646057,0.0,0.0,0.0,0.0,-2.268928027592629
1663935971432315735,0.862026810646057,0.0,0.0,0.0,0.0,-2.268928027592629
1663935971479515554,0.862026810646057,0.0,0.0,0.0,0.0,-2.268928027592629
1663935971530042010,0.862026810646057,0.0,0.0,0.0,0.0,-2.268928027592629
1663935971579365178,0.8715165853500366,0.0,0.0,0.0,0.0,-2.094395102393196
