%time,field.linear.x,field.linear.y,field.linear.z,field.angular.x,field.angular.y,field.angular.z
1666091256165560197,0.015,0.0,0.0,0.0,0.0,-0.08656162574354477
1666091256214311583,0.03,0.0,0.0,0.0,0.0,-0.17312325148708954
1666091256264548290,0.045,0.0,0.0,0.0,0.0,-0.22758190470217174
1666091256314297431,0.06,0.0,0.0,0.0,0.0,-0.2820405579172539
1666091256364976443,0.075,0.0,0.0,0.0,0.0,-0.3364992111323361
1666091256414424120,0.09,0.0,0.0,0.0,0.0,-0.3905106588714443
1666091256464474404,0.105,0.0,0.0,0.0,0.0,-0.445434252494096
1666091256514332820,0.12,0.0,0.0,0.0,0.0,-0.5003578461167477
1666091256564953437,0.135,0.0,0.0,0.0,0.0,-0.5576755681103724
1666091256614366884,0.15000000000000002,0.0,0.0,0.0,0.0,-0.6149932901039972
1666091256664941097,0.16500000000000004,0.0,0.0,0.0,0.0,-0.6724684801344466
1666091256714646064,0.18000000000000005,0.0,0.0,0.0,0.0,-0.729135305148434
1666091256771979504,0.19500000000000006,0.0,0.0,0.0,0.0,-0.786578253615622
1666091256814295757,0.21000000000000008,0.0,0.0,0.0,0.0,-0.8440212020828098
1666091256864727802,0.06000000000000005,0.0,0.0,0.0,0.0,-0.24114891488080292
1666091256914308337,0.0,0.0,0.0,0.0,0.0,0.0
1666091256964528615,0.015,0.0,0.0,0.0,0.0,-0.05724622451967623
1666091257014308613,0.03,0.0,0.0,0.0,0.0,-0.11449244903935246
1666091257066656421,0.045,0.0,0.0,0.0,0.0,-0.16307536617630866
1666091257114308236,0.0,0.0,0.0,0.0,0.0,0.0
1666091257165321635,0.015,0.0,0.0,0.0,0.0,-0.049582090218382
1666091257214407531,0.03,0.0,0.0,0.0,0.0,-0.099164180436764
1666091257264963076,0.045,0.0,0.0,0.0,0.0,-0.18836257154899372
1666091257314287554,0.06,0.0,0.0,0.0,0.0,-0.23596007180070194
1666091257364563418,0.075,0.0,0.0,0.0,0.0,-0.28355757205241017
1666091257414594066,0.09,0.0,0.0,0.0,0.0,-0.3311778920916014
1666091257464492492,0.105,0.0,0.0,0.0,0.0,-0.3787982121307927
1666091257514398406,0.12,0.0,0.0,0.0,0.0,-0.42661584060227986
1666091257564769998,0.135,0.0,0.0,0.0,0.0,-0.47445876485675587
1666091257614444608,0.15000000000000002,0.0,0.0,0.0,0.0,-0.5223016891112319
1666091257665249984,0.16500000000000004,0.0,0.0,0.0,0.0,-0.5701446133657079
1666091257714530579,0.18000000000000005,0.0,0.0,0.0,0.0,-0.618489157408861
1666091257764360946,0.19500000000000006,0.0,0.0,0.0,0.0,-0.6668337014520141
1666091257814363520,0.2002461206373267,0.0,0.0,0.0,0.0,-0.7668337014520141
1666091257864703466,0.20549224127465332,0.0,0.0,0.0,0.0,-0.8668337014520141
1666091257914424023,0.20890531696362513,0.0,0.0,0.0,0.0,-0.9668337014520141
1666091257964608556,0.21164819598197937,0.0,0.0,0.0,0.0,-1.0471975511965983
1666091258014437478,0.21164819598197937,0.0,0.0,0.0,0.0,-1.0471975511965983
1666091258064639040,0.22664819598197938,0.0,0.0,0.0,0.0,-1.0648603862314618
1666091258114472258,0.2416481959819794,0.0,0.0,0.0,0.0,-1.083384404129326
1666091258171352743,0.09164819598197937,0.0,0.0,0.0,0.0,-0.9923518438289888
1666091258214521305,0.0,0.0,0.0,0.0,0.0,-0.9338186617454778
1666091258264540939,0.0,0.0,0.0,0.0,0.0,-0.9338186617454778
1666091258314696127,0.0,0.0,0.0,0.0,0.0,-0.9096120978664505
1666091258364662835,0.0,0.0,0.0,0.0,0.0,-0.8751108675182638
1666091258414299286,0.0,0.0,0.0,0.0,0.0,-0.8751108675182638
1666091258464606137,0.0,0.0,0.0,0.0,0.0,-0.8378580776036076
1666091258515473778,0.0,0.0,0.0,0.0,0.0,-0.7909634212956905
1666091258565227427,0.0,0.0,0.0,0.0,0.0,-0.7909634212956905
1666091258614612774,0.0,0.0,0.0,0.0,0.0,-0.6981317007977323
1666091258664703143,0.0,0.0,0.0,0.0,0.0,-0.6392261260716641
1666091258714737712,0.0,0.0,0.0,0.0,0.0,-0.6392261260716641
1666091258764419094,0.0,0.0,0.0,0.0,0.0,-0.5884518192149215
1666091258814395303,0.0,0.0,0.0,0.0,0.0,-0.5884518192149215
1666091258865911573,0.0,0.0,0.0,0.0,0.0,-0.4840328698812234
1666091258914662626,0.0,0.0,0.0,0.0,0.0,-0.4840328698812234
1666091258965366532,0.0,0.0,0.0,0.0,0.0,-0.4454766719409416
1666091259014329610,0.0,0.0,0.0,0.0,0.0,-0.4393269506255035
1666091259064362138,0.0,0.0,0.0,0.0,0.0,-0.4393269506255035
1666091259114914179,0.0,0.0,0.0,0.0,0.0,-0.3661923201751446
1666091259164576744,0.0,0.0,0.0,0.0,0.0,-0.3661923201751446
1666091259215004780,0.0,0.0,0.0,0.0,0.0,-0.3661923201751446
1666091259264462180,0.0,0.0,0.0,0.0,0.0,-0.2529227620828406
1666091259314587853,0.0,0.0,0.0,0.0,0.0,0.0
1666091259414501394,0.0,0.0,0.0,0.0,0.0,-0.1
1666091259465399175,0.0,0.0,0.0,0.0,0.0,-0.17453292519943345
1666091259514477345,0.0,0.0,0.0,0.0,0.0,-0.17453292519943345
1666091259565420187,0.0,0.0,0.0,0.0,0.0,-0.17453292519943345
1666091259614348944,0.015,0.0,0.0,0.0,0.0,-0.171624615259363
1666091259664360320,0.03,0.0,0.0,0.0,0.0,-0.16871630531929258
1666091259714254032,0.045,0.0,0.0,0.0,0.0,-0.16582175097393045
1666091259764370215,0.06,0.0,0.0,0.0,0.0,-0.16292719662856833
1666091259815537640,0.075,0.0,0.0,0.0,0.0,-0.15448726221816442
1666091259865240598,0.09,0.0,0.0,0.0,0.0,-0.1460473278077605
1666091259914473890,0.105,0.0,0.0,0.0,0.0,-0.14371900235186302
1666091259964339969,0.12,0.0,0.0,0.0,0.0,-0.13692718601428885
1666091260015155228,0.135,0.0,0.0,0.0,0.0,-0.13483224958156334
1666091260064855191,0.15000000000000002,0.0,0.0,0.0,0.0,-0.126024528451131
1666091260114528968,0.16500000000000004,0.0,0.0,0.0,0.0,-0.11721680732069864
1666091260164519434,0.18000000000000005,0.0,0.0,0.0,0.0,-0.11578459593112503
1666091260215328260,0.19500000000000006,0.0,0.0,0.0,0.0,-0.11435238454155142
1666091260264581216,0.21000000000000008,0.0,0.0,0.0,0.0,-0.11292633896856985
1666091260314408874,0.2250000000000001,0.0,0.0,0.0,0.0,-0.11154574989632783
1666091260364430461,0.2400000000000001,0.0,0.0,0.0,0.0,-0.11016516082408581
1666091260414937077,0.2550000000000001,0.0,0.0,0.0,0.0,-0.09555460142695757
1666091260464408746,0.27000000000000013,0.0,0.0,0.0,0.0,-0.09566401771647111
1666091260514447179,0.28500000000000014,0.0,0.0,0.0,0.0,-0.09577343400598465
1666091260564789954,0.13500000000000012,0.0,0.0,0.0,0.0,-0.13722579779201033
1666091260614598296,0.0,0.0,0.0,0.0,0.0,-0.17453292519943345
1666091260664503218,0.0,0.0,0.0,0.0,0.0,-0.22337881604257626
1666091260717185735,0.0,0.0,0.0,0.0,0.0,-0.23357111316990495
1666091260764602416,0.0,0.0,0.0,0.0,0.0,-0.23357111316990495
1666091260814808706,0.0,0.0,0.0,0.0,0.0,-0.26483246963942314
1666091260864322674,0.0,0.0,0.0,0.0,0.0,-0.2938846712898387
1666091260914476351,0.0,0.0,0.0,0.0,0.0,-0.3168247028358756
1666091260964357833,0.0,0.0,0.0,0.0,0.0,-0.3168247028358756
1666091261014550869,0.0,0.0,0.0,0.0,0.0,-0.36383612925856157
1666091261064519065,0.0,0.0,0.0,0.0,0.0,-0.36383612925856157
1666091261114637362,0.0,0.0,0.0,0.0,0.0,-0.4355381045377338
1666091261164445366,0.0,0.0,0.0,0.0,0.0,-0.4355381045377338
1666091261214378412,0.0,0.0,0.0,0.0,0.0,-0.4715019419398887
1666091261264422699,0.0,0.0,0.0,0.0,0.0,-0.4715019419398887
1666091261315133896,0.0,0.0,0.0,0.0,0.0,-0.4976157356652092
1666091261364534889,0.0,0.0,0.0,0.0,0.0,-0.4976157356652092
1666091261414550025,0.0,0.0,0.0,0.0,0.0,-0.5426895932887301
1666091261467276875,0.015,0.0,0.0,0.0,0.0,-0.5195083642660022
1666091261514409801,0.03,0.0,0.0,0.0,0.0,-0.4963271352432743
1666091261564493997,0.045,0.0,0.0,0.0,0.0,-0.483802467061339
1666091261615822475,0.06,0.0,0.0,0.0,0.0,-0.4712777988794037
1666091261664961391,0.075,0.0,0.0,0.0,0.0,-0.45953683564035164
1666091261714465289,0.09,0.0,0.0,0.0,0.0,-0.448413409874787
1666091261764480502,0.105,0.0,0.0,0.0,0.0,-0.4372899841092224
1666091261814567304,0.12,0.0,0.0,0.0,0.0,-0.42730827126462095
1666091261864337538,0.135,0.0,0.0,0.0,0.0,-0.41732655842001953
1666091261914755351,0.15000000000000002,0.0,0.0,0.0,0.0,-0.4073448455754181
1666091261964326205,0.16500000000000004,0.0,0.0,0.0,0.0,-0.39776183022098144
1666091262014387865,0.18000000000000005,0.0,0.0,0.0,0.0,-0.3881788148665447
1666091262064264501,0.19500000000000006,0.0,0.0,0.0,0.0,-0.36737348845374274
1666091262114649707,0.21000000000000008,0.0,0.0,0.0,0.0,-0.35911270559939845
1666091262164437668,0.2250000000000001,0.0,0.0,0.0,0.0,-0.3510086176724526
1666091262214642650,0.2400000000000001,0.0,0.0,0.0,0.0,-0.3429045297455068
1666091262264591351,0.2550000000000001,0.0,0.0,0.0,0.0,-0.33480044181856095
1666091262314448451,0.27000000000000013,0.0,0.0,0.0,0.0,-0.3268067947202418
1666091262364293053,0.28500000000000014,0.0,0.0,0.0,0.0,-0.31925313222644863
1666091262414493839,0.30000000000000016,0.0,0.0,0.0,0.0,-0.31170967819325124
1666091262464520182,0.31500000000000017,0.0,0.0,0.0,0.0,-0.3045153204717494
1666091262514450958,0.3300000000000002,0.0,0.0,0.0,0.0,-0.29732096275024755
1666091262564515013,0.3450000000000002,0.0,0.0,0.0,0.0,-0.2901266050287457
1666091262614731720,0.3600000000000002,0.0,0.0,0.0,0.0,-0.28503323480216686
1666091262664282635,0.3750000000000002,0.0,0.0,0.0,0.0,-0.279939864575588
1666091262714231835,0.39000000000000024,0.0,0.0,0.0,0.0,-0.27484649434900915
1666091262764647534,0.40500000000000025,0.0,0.0,0.0,0.0,-0.2706319837455866
1666091262814709112,0.42000000000000026,0.0,0.0,0.0,0.0,-0.26802404778939737
1666091262864727133,0.4350000000000003,0.0,0.0,0.0,0.0,-0.2654159213327423
1666091262914742528,0.28500000000000025,0.0,0.0,0.0,0.0,-0.17389318983869326
1666091262964596171,0.13500000000000023,0.0,0.0,0.0,0.0,-0.08237045834464424
1666091263014719256,0.15000000000000024,0.0,0.0,0.0,0.0,-0.08719796218195022
1666091263064517821,0.16500000000000026,0.0,0.0,0.0,0.0,-0.08983611007045074
1666091263114699160,0.18000000000000027,0.0,0.0,0.0,0.0,-0.09247425795895126
1666091263164289566,0.19500000000000028,0.0,0.0,0.0,0.0,-0.09540989822791393
1666091263214413792,0.2100000000000003,0.0,0.0,0.0,0.0,-0.0983455384968766
1666091263264431971,0.2250000000000003,0.0,0.0,0.0,0.0,-0.1036726910283377
1666091263314437843,0.24000000000000032,0.0,0.0,0.0,0.0,-0.1089998435597988
1666091263364726700,0.25500000000000034,0.0,0.0,0.0,0.0,-0.11450060867169148
1666091263414339548,0.27000000000000035,0.0,0.0,0.0,0.0,-0.12000137378358416
1666091263464596356,0.28500000000000036,0.0,0.0,0.0,0.0,-0.12550213889547684
1666091263514421720,0.3000000000000004,0.0,0.0,0.0,0.0,-0.1313801900407212
1666091263564313246,0.3150000000000004,0.0,0.0,0.0,0.0,-0.13725824118596558
1666091263614696611,0.3300000000000004,0.0,0.0,0.0,0.0,-0.14329201445995196
1666091263664386219,0.3450000000000004,0.0,0.0,0.0,0.0,-0.14932578773393837
1666091263715740937,0.36000000000000043,0.0,0.0,0.0,0.0,-0.15326287025396573
1666091263764450407,0.37500000000000044,0.0,0.0,0.0,0.0,-0.1571999527739931
1666091263814463565,0.39000000000000046,0.0,0.0,0.0,0.0,-0.16113703529402046
1666091263864381539,0.40500000000000047,0.0,0.0,0.0,0.0,-0.1684457250855427
1666091263915125766,0.4200000000000005,0.0,0.0,0.0,0.0,-0.1759999851112655
1666091263964579466,0.4350000000000005,0.0,0.0,0.0,0.0,-0.1837426800631294
1666091264014364681,0.4500000000000005,0.0,0.0,0.0,0.0,-0.19148537501499333
1666091264064268982,0.4650000000000005,0.0,0.0,0.0,0.0,-0.19940689937213793
1666091264114493137,0.48000000000000054,0.0,0.0,0.0,0.0,-0.20578811850476036
1666091264164267535,0.49500000000000055,0.0,0.0,0.0,0.0,-0.21429925662973967
1666091264214636862,0.5100000000000006,0.0,0.0,0.0,0.0,-0.22284180992763614
1666091264264819505,0.5250000000000006,0.0,0.0,0.0,0.0,-0.2313843632255326
1666091264314430897,0.5400000000000006,0.0,0.0,0.0,0.0,-0.23833090830957188
1666091264364949260,0.5550000000000006,0.0,0.0,0.0,0.0,-0.2813711438983463
1666091264414293285,0.5700000000000006,0.0,0.0,0.0,0.0,-0.32441137948712073
1666091264464284548,0.5850000000000006,0.0,0.0,0.0,0.0,-0.3674516150758952
1666091264514521196,0.6000000000000006,0.0,0.0,0.0,0.0,-0.41049185066466964
1666091264564393412,0.6150000000000007,0.0,0.0,0.0,0.0,-0.4660028125870462
1666091264614547751,0.6300000000000007,0.0,0.0,0.0,0.0,-0.5415465952960073
1666091264664541912,0.6450000000000007,0.0,0.0,0.0,0.0,-0.6170903780049685
1666091264714585466,0.6437831304259056,0.0,0.0,0.0,0.0,-0.7170903780049684
1666091264764296831,0.6425662608518106,0.0,0.0,0.0,0.0,-0.8170903780049684
1666091264814589368,0.6575662608518106,0.0,0.0,0.0,0.0,-0.8616285927394516
1666091264864903685,0.6725662608518106,0.0,0.0,0.0,0.0,-0.908525337999923
1666091264914447514,0.6875662608518106,0.0,0.0,0.0,0.0,-0.9554220832603945
1666091264964563587,0.7025662608518106,0.0,0.0,0.0,0.0,-1.002318828520866
1666091265014497500,0.7113754153251648,0.0,0.0,0.0,0.0,-1.0471975511965983
1666091265064740692,0.7113754153251648,0.0,0.0,0.0,0.0,-1.0471975511965983
1666091265114539535,0.6129683256149292,0.0,0.0,0.0,0.0,-1.0471975511965983
1666091265164620959,0.6129683256149292,0.0,0.0,0.0,0.0,-1.0471975511965983
1666091265215498099,0.5922226309776306,0.0,0.0,0.0,0.0,-1.0471975511965983
1666091265264557929,0.6072226309776306,0.0,0.0,0.0,0.0,-1.0471975511965983
1666091265314706313,0.6222226309776306,0.0,0.0,0.0,0.0,-1.0471975511965983
1666091265364476636,0.6372226309776307,0.0,0.0,0.0,0.0,-1.0471975511965983
1666091265414728281,0.6522226309776307,0.0,0.0,0.0,0.0,-1.0471975511965983
1666091265464456808,0.6509469151496887,0.0,0.0,0.0,0.0,-1.0471975511965983
1666091265514704585,0.6509469151496887,0.0,0.0,0.0,0.0,-1.0471975511965983
1666091265564484900,0.6509469151496887,0.0,0.0,0.0,0.0,-1.0471975511965983
1666091265614318698,0.6514977216720581,0.0,0.0,0.0,0.0,-1.0471975511965983
1666091265664367874,0.6514977216720581,0.0,0.0,0.0,0.0,-1.0471975511965983
1666091265714782623,0.5643425583839417,0.0,0.0,0.0,0.0,-1.0471975511965983
1666091265764608754,0.5793425583839417,0.0,0.0,0.0,0.0,-1.0471975511965983
1666091265814546981,0.5943425583839417,0.0,0.0,0.0,0.0,-1.0471975511965983
1666091265864491337,0.6093425583839417,0.0,0.0,0.0,0.0,-1.0471975511965983
1666091265914965610,0.6243425583839417,0.0,0.0,0.0,0.0,-1.0471975511965983
1666091265964839055,0.6393425583839417,0.0,0.0,0.0,0.0,-1.0471975511965983
1666091266014898834,0.6543425583839417,0.0,0.0,0.0,0.0,-1.0471975511965983
1666091266064404733,0.6398426294326782,0.0,0.0,0.0,0.0,-0.8726646259971653
1666091266114453206,0.6398426294326782,0.0,0.0,0.0,0.0,-0.8726646259971653
1666091266164351690,0.6548426294326782,0.0,0.0,0.0,0.0,-0.9051811099999318
1666091266214473848,0.6698426294326782,0.0,0.0,0.0,0.0,-0.9376975940026984
1666091266264458728,0.5198426294326782,0.0,0.0,0.0,0.0,-0.8746365274473218
1666091266314394350,0.3698426294326782,0.0,0.0,0.0,0.0,-0.8115754608919452
1666091266364813274,0.21984262943267818,0.0,0.0,0.0,0.0,-0.6514951100412885
1666091266415380075,0.1,0.0,0.0,0.0,0.0,-0.5235987755982994
1666091266464324438,0.1,0.0,0.0,0.0,0.0,-0.5235987755982994
1666091266515103719,0.1,0.0,0.0,0.0,0.0,-0.5235987755982994
1666091266564318718,0.1,0.0,0.0,0.0,0.0,-0.5235987755982994
1666091266614519277,0.1,0.0,0.0,0.0,0.0,-0.5235987755982994
1666091266664514613,0.1,0.0,0.0,0.0,0.0,-0.5235987755982994
1666091266715564317,0.1,0.0,0.0,0.0,0.0,-0.3490658503988664
1666091266764318833,0.1,0.0,0.0,0.0,0.0,-0.3490658503988664
1666091266814402611,0.1,0.0,0.0,0.0,0.0,-0.3490658503988664
1666091266864394012,0.1,0.0,0.0,0.0,0.0,-0.3490658503988664
1666091266914948535,0.1,0.0,0.0,0.0,0.0,-0.17453292519943345
1666091266964492881,0.1,0.0,0.0,0.0,0.0,-0.17453292519943345
1666091267014636970,0.1,0.0,0.0,0.0,0.0,-0.09346742928028107
1666091267064310112,0.1,0.0,0.0,0.0,0.0,-4.996003610813204e-16
1666091267114430569,0.1,0.0,0.0,0.0,0.0,-4.996003610813204e-16
1666091267164424867,0.1,0.0,0.0,0.0,0.0,-4.996003610813204e-16
1666091267214597706,0.1,0.0,0.0,0.0,0.0,-4.996003610813204e-16
1666091267265056797,0.1,0.0,0.0,0.0,0.0,0.09165593981742859
1666091267314332095,0.1,0.0,0.0,0.0,0.0,0.09165593981742859
1666091267364428923,0.1,0.0,0.0,0.0,0.0,0.09165593981742859
1666091267414744503,0.1,0.0,0.0,0.0,0.0,0.015222572721540928
1666091267464319441,0.1,0.0,0.0,0.0,0.0,0.11522257272154093
1666091267514746540,0.1,0.0,0.0,0.0,0.0,0.1255311518907547
1666091267564465604,0.1,0.0,0.0,0.0,0.0,0.05036763474345207
1666091267614596070,0.1,0.0,0.0,0.0,0.0,0.05036763474345207
1666091267664578026,0.1,0.0,0.0,0.0,0.0,0.06252327561378479
1666091267714553663,0.1,0.0,0.0,0.0,0.0,0.06252327561378479
1666091267764622059,0.1,0.0,0.0,0.0,0.0,0.08133382350206375
1666091267814701338,0.1,0.0,0.0,0.0,0.0,0.08975433558225632
1666091267864440052,0.1,0.0,0.0,0.0,0.0,0.08975433558225632
1666091267914818006,0.1,0.0,0.0,0.0,0.0,0.09864491969347
1666091267964284446,0.1,0.0,0.0,0.0,0.0,0.09864491969347
1666091268014678285,0.1,0.0,0.0,0.0,0.0,-0.0013550803065300043
1666091268064407317,0.1,0.0,0.0,0.0,0.0,-0.10135508030653001
1666091268114966736,0.1,0.0,0.0,0.0,0.0,-0.20135508030653002
1666091268164289871,0.1,0.0,0.0,0.0,0.0,-0.30135508030653
1666091268214865723,0.1,0.0,0.0,0.0,0.0,-0.40135508030653
1666091268264510736,0.1,0.0,0.0,0.0,0.0,-0.50135508030653
1666091268314745996,0.1,0.0,0.0,0.0,0.0,-0.60135508030653
1666091268364349545,0.1,0.0,0.0,0.0,0.0,-0.7013550803065299
1666091268414545024,0.1,0.0,0.0,0.0,0.0,-0.8013550803065299
1666091268465210268,0.1,0.0,0.0,0.0,0.0,-0.9013550803065299
1666091268514628593,0.1,0.0,0.0,0.0,0.0,-1.0013550803065299
1666091268564585356,0.1,0.0,0.0,0.0,0.0,-1.0471975511965983
1666091268615012937,0.1,0.0,0.0,0.0,0.0,-0.8726646259971653
1666091268664628046,0.1,0.0,0.0,0.0,0.0,-0.8726646259971653
1666091268714756622,0.1,0.0,0.0,0.0,0.0,-0.8726646259971653
1666091268764622699,0.1,0.0,0.0,0.0,0.0,-0.8726646259971653
1666091268814298257,0.1,0.0,0.0,0.0,0.0,-0.8726646259971653
1666091268865236877,0.115,0.0,0.0,0.0,0.0,-0.8651846434886182
1666091268914855940,0.13,0.0,0.0,0.0,0.0,-0.8416338532530768
1666091268965221291,0.14500000000000002,0.0,0.0,0.0,0.0,-0.8173151195543167
1666091269014515317,0.16000000000000003,0.0,0.0,0.0,0.0,-0.7929963858555565
1666091269064326154,0.17500000000000004,0.0,0.0,0.0,0.0,-0.7686776521567964
1666091269114697988,0.19000000000000006,0.0,0.0,0.0,0.0,-0.7433474338350808
1666091269164677936,0.20500000000000007,0.0,0.0,0.0,0.0,-0.7180172155133653
1666091269214945950,0.22000000000000008,0.0,0.0,0.0,0.0,-0.6914919513618287
1666091269264475550,0.2350000000000001,0.0,0.0,0.0,0.0,-0.6636664201058473
1666091269314859874,0.2500000000000001,0.0,0.0,0.0,0.0,-0.6344552311891368
1666091269364412847,0.2650000000000001,0.0,0.0,0.0,0.0,-0.6024425814319411
1666091269414425479,0.28000000000000014,0.0,0.0,0.0,0.0,-0.5704299316747453
1666091269464293283,0.29500000000000015,0.0,0.0,0.0,0.0,-0.5373348303632847
1666091269514460600,0.31000000000000016,0.0,0.0,0.0,0.0,-0.49820695481973215
1666091269564479604,0.3250000000000002,0.0,0.0,0.0,0.0,-0.4512887406467025
1666091269614779458,0.3400000000000002,0.0,0.0,0.0,0.0,-0.40437052647367283
1666091269664767268,0.3550000000000002,0.0,0.0,0.0,0.0,-0.34358940361906604
1666091269720311453,0.3700000000000002,0.0,0.0,0.0,0.0,-0.26519169416948846
1666091269764435265,0.38500000000000023,0.0,0.0,0.0,0.0,-0.18679398471991088
1666091269814429098,0.3901250243193091,0.0,0.0,0.0,0.0,-0.08679398471991087
1666091269864323882,0.3910715526825595,0.0,0.0,0.0,0.0,0.013206015280089134
1666091269914544723,0.3919729437190339,0.0,0.0,0.0,0.0,0.11320601528008914
1666091269964409097,0.3960189307587551,0.0,0.0,0.0,0.0,0.21320601528008915
1666091270014531266,0.3905554095825989,0.0,0.0,0.0,0.0,0.3132060152800892
1666091270064363379,0.38509188840644265,0.0,0.0,0.0,0.0,0.41320601528008916
1666091270114613205,0.37962836723028637,0.0,0.0,0.0,0.0,0.5132060152800891
1666091270164892053,0.3691878039479364,0.0,0.0,0.0,0.0,0.6132060152800891
1666091270214790509,0.3560883142462558,0.0,0.0,0.0,0.0,0.7132060152800891
1666091270264292217,0.34300649492344976,0.0,0.0,0.0,0.0,0.8132060152800891
1666091270314603488,0.33641855242935464,0.0,0.0,0.0,0.0,0.913206015280089
1666091270364714839,0.32983060993525953,0.0,0.0,0.0,0.0,1.013206015280089
1666091270414496023,0.31032665090684247,0.0,0.0,0.0,0.0,1.1132060152800891
1666091270464625280,0.28836440421991105,0.0,0.0,0.0,0.0,1.2132060152800892
1666091270516603308,0.2664021575329796,0.0,0.0,0.0,0.0,1.3132060152800893
1666091270564359678,0.23479071421087755,0.0,0.0,0.0,0.0,1.4132060152800894
1666091270614365282,0.20317927088877552,0.0,0.0,0.0,0.0,1.5132060152800895
1666091270665075999,0.18826295614696265,0.0,0.0,0.0,0.0,1.6132060152800896
1666091270714821476,0.16749183454643135,0.0,0.0,0.0,0.0,1.7132060152800896
1666091270764352156,0.14672071294590003,0.0,0.0,0.0,0.0,1.8132060152800897
1666091270814804945,0.04861433634568092,0.0,0.0,0.0,0.0,1.9132060152800898
1666091270864340149,0.0420842170715332,0.0,0.0,0.0,0.0,1.919862177193762
1666091270914479352,0.0570842170715332,0.0,0.0,0.0,0.0,1.919862177193762
1666091270965059578,0.066100113093853,0.0,0.0,0.0,0.0,1.919862177193762
1666091271014555548,0.066100113093853,0.0,0.0,0.0,0.0,1.919862177193762
1666091271064580652,0.081100113093853,0.0,0.0,0.0,0.0,1.919862177193762
1666091271115500829,0.096100113093853,0.0,0.0,0.0,0.0,1.919862177193762
1666091271164867098,0.111100113093853,0.0,0.0,0.0,0.0,1.919862177193762
1666091271214797423,0.126100113093853,0.0,0.0,0.0,0.0,1.919862177193762
1666091271264553197,0.141100113093853,0.0,0.0,0.0,0.0,1.919862177193762
1666091271314680096,0.15610011309385302,0.0,0.0,0.0,0.0,1.919862177193762
1666091271364753079,0.17110011309385303,0.0,0.0,0.0,0.0,1.919862177193762
1666091271414507709,0.14804670214653015,0.0,0.0,0.0,0.0,1.919862177193762
1666091271464366412,0.14192038774490354,0.0,0.0,0.0,0.0,1.115384578704834
1666091271516301528,0.14192038774490354,0.0,0.0,0.0,0.0,1.115384578704834
1666091271564306817,0.1360219120979309,0.0,0.0,0.0,0.0,1.1294037103652954
1666091271615834423,0.1360219120979309,0.0,0.0,0.0,0.0,1.1294037103652954
1666091271664494688,0.1360219120979309,0.0,0.0,0.0,0.0,1.1294037103652954
1666091271714778256,0.11799605935811996,0.0,0.0,0.0,0.0,1.1599136590957642
1666091271764282857,0.11799605935811996,0.0,0.0,0.0,0.0,1.1599136590957642
1666091271814691407,0.11799605935811996,0.0,0.0,0.0,0.0,1.1599136590957642
1666091271864639282,0.13299605935811998,0.0,0.0,0.0,0.0,1.1672946641112372
1666091271914534798,0.14799605935812,0.0,0.0,0.0,0.0,1.1746756691267102
1666091271965241448,0.09864690899848938,0.0,0.0,0.0,0.0,1.2041842937469482
1666091272014958774,0.09864690899848938,0.0,0.0,0.0,0.0,1.2041842937469482
1666091272064694783,0.09160036593675613,0.0,0.0,0.0,0.0,1.2193348407745361
1666091272114396174,0.09160036593675613,0.0,0.0,0.0,0.0,1.2193348407745361
1666091272164469875,0.10660036593675613,0.0,0.0,0.0,0.0,1.2263255077878872
1666091272214336768,0.12160036593675613,0.0,0.0,0.0,0.0,1.2333161748012382
1666091272264344356,0.13660036593675612,0.0,0.0,0.0,0.0,1.2403068418145895
1666091272314601894,0.15160036593675613,0.0,0.0,0.0,0.0,1.2472975088279405
1666091272364383307,0.15799309313297272,0.0,0.0,0.0,0.0,1.250276803970337
1666091272414787937,0.031626601623848366,0.0,0.0,0.0,0.0,0.2502768039703369
1666091272464370845,0.0,0.0,0.0,0.0,0.0,0.0
1666091273314586853,0.01145915590261646,0.0,0.0,0.0,0.0,-0.1
1666091273364385638,0.02291831180523292,0.0,0.0,0.0,0.0,-0.2
1666091273414494886,0.03437746770784938,0.0,0.0,0.0,0.0,-0.30000000000000004
1666091273464681327,0.04583662361046584,0.0,0.0,0.0,0.0,-0.4
1666091273514633073,0.0572957795130823,0.0,0.0,0.0,0.0,-0.5
1666091273564391780,0.06875493541569876,0.0,0.0,0.0,0.0,-0.6
1666091273614357696,0.08021409131831521,0.0,0.0,0.0,0.0,-0.7
1666091273664565732,0.09167324722093166,0.0,0.0,0.0,0.0,-0.7999999999999999
1666091273714322866,0.1,0.0,0.0,0.0,0.0,-0.8726646259971653
1666091273764317950,0.1,0.0,0.0,0.0,0.0,-0.8726646259971653
1666091273814508254,0.1,0.0,0.0,0.0,0.0,-0.8726646259971653
1666091273864414457,0.1,0.0,0.0,0.0,0.0,-0.8726646259971653
1666091273914576922,0.1,0.0,0.0,0.0,0.0,-0.8726646259971653
1666091273964495870,0.115,0.0,0.0,0.0,0.0,-0.8876245910142596
1666091274015263426,0.13,0.0,0.0,0.0,0.0,-0.8987626671583736
1666091274064828889,0.14500000000000002,0.0,0.0,0.0,0.0,-0.9099007433024876
1666091274114518871,0.16000000000000003,0.0,0.0,0.0,0.0,-0.9210388194466016
1666091274164464883,0.17500000000000004,0.0,0.0,0.0,0.0,-0.9321768955907156
1666091274214315565,0.19000000000000006,0.0,0.0,0.0,0.0,-0.9391261815300431
1666091274264309393,0.20500000000000007,0.0,0.0,0.0,0.0,-0.9460754674693707
1666091274314857544,0.22000000000000008,0.0,0.0,0.0,0.0,-0.9442247739868781
1666091274364329106,0.2350000000000001,0.0,0.0,0.0,0.0,-0.9423740805043855
1666091274414550832,0.2500000000000001,0.0,0.0,0.0,0.0,-0.940523387021893
1666091274464341029,0.2650000000000001,0.0,0.0,0.0,0.0,-0.9386726935394004
1666091274514619960,0.28000000000000014,0.0,0.0,0.0,0.0,-0.9368220000569079
1666091274564581312,0.29500000000000015,0.0,0.0,0.0,0.0,-0.9299367029628932
1666091274614396095,0.31000000000000016,0.0,0.0,0.0,0.0,-0.9230514058688786
1666091274664799713,0.3250000000000002,0.0,0.0,0.0,0.0,-0.9161661087748639
1666091274715502472,0.3400000000000002,0.0,0.0,0.0,0.0,-0.9092808116808493
1666091274764378144,0.3550000000000002,0.0,0.0,0.0,0.0,-0.9023955145868346
1666091274814901206,0.3700000000000002,0.0,0.0,0.0,0.0,-0.89551021749282
1666091274864676864,0.38500000000000023,0.0,0.0,0.0,0.0,-0.8825365625430112
1666091274914287972,0.40000000000000024,0.0,0.0,0.0,0.0,-0.8695629075932023
1666091274964432563,0.41500000000000026,0.0,0.0,0.0,0.0,-0.8500442679484147
1666091275014472240,0.43000000000000027,0.0,0.0,0.0,0.0,-0.8305256283036271
1666091275064245781,0.4450000000000003,0.0,0.0,0.0,0.0,-0.8110069886588395
1666091275114363065,0.4600000000000003,0.0,0.0,0.0,0.0,-0.7914883490140519
1666091275164505914,0.4750000000000003,0.0,0.0,0.0,0.0,-0.7719697093692642
1666091275214377673,0.4900000000000003,0.0,0.0,0.0,0.0,-0.7431412950770789
1666091275264431334,0.5050000000000003,0.0,0.0,0.0,0.0,-0.7156279868571929
1666091275314826013,0.5200000000000004,0.0,0.0,0.0,0.0,-0.6881146786373068
1666091275364858963,0.5350000000000004,0.0,0.0,0.0,0.0,-0.6606013704174207
1666091275414404068,0.5500000000000004,0.0,0.0,0.0,0.0,-0.6170796487066587
1666091275464376427,0.5650000000000004,0.0,0.0,0.0,0.0,-0.5735579269958966
1666091275514416250,0.5800000000000004,0.0,0.0,0.0,0.0,-0.5300362052851345
1666091275564363063,0.5950000000000004,0.0,0.0,0.0,0.0,-0.48673665988777265
1666091275614423328,0.6100000000000004,0.0,0.0,0.0,0.0,-0.43687256329832486
1666091275664363468,0.6250000000000004,0.0,0.0,0.0,0.0,-0.3870084667088771
1666091275714544179,0.6400000000000005,0.0,0.0,0.0,0.0,-0.3345192027495868
1666091275764516980,0.6550000000000005,0.0,0.0,0.0,0.0,-0.2820299387902965
1666091275814547027,0.6700000000000005,0.0,0.0,0.0,0.0,-0.22575973280615036
1666091275864379702,0.6850000000000005,0.0,0.0,0.0,0.0,-0.1601490124647308
1666091275914518326,0.7000000000000005,0.0,0.0,0.0,0.0,-0.09372968252600053
1666091275964297371,0.7150000000000005,0.0,0.0,0.0,0.0,-0.027310352587270256
1666091276015172019,0.7300000000000005,0.0,0.0,0.0,0.0,0.06990890532783074
1666091276065697955,0.7450000000000006,0.0,0.0,0.0,0.0,0.16712816324293178
1666091276114256215,0.7600000000000006,0.0,0.0,0.0,0.0,0.26434742115803284
1666091276164626568,0.7750000000000006,0.0,0.0,0.0,0.0,0.36156667907313395
1666091276214825574,0.7900000000000006,0.0,0.0,0.0,0.0,0.4587859369882351
1666091276264431241,0.7999999999999999,0.0,0.0,0.0,0.0,0.5235987755982984
1666091276314697475,0.7999999999999999,0.0,0.0,0.0,0.0,0.6235987755982983
1666091276364994472,0.7999999999999999,0.0,0.0,0.0,0.0,0.6981317007977313
1666091276414279871,0.7999999999999999,0.0,0.0,0.0,0.0,0.6981317007977313
1666091276464408054,0.7999999999999999,0.0,0.0,0.0,0.0,0.6981317007977313
1666091276514345802,0.7999999999999999,0.0,0.0,0.0,0.0,0.6981317007977313
1666091276564437134,0.7999999999999999,0.0,0.0,0.0,0.0,0.6981317007977313
1666091276614659064,0.7999999999999999,0.0,0.0,0.0,0.0,0.6981317007977313
1666091276664335920,0.7999999999999999,0.0,0.0,0.0,0.0,0.6981317007977313
1666091276715685789,0.6499999999999999,0.0,0.0,0.0,0.0,0.654498469497873
1666091276764559739,0.4999999999999999,0.0,0.0,0.0,0.0,0.6108652381980149
1666091276815097146,0.34999999999999987,0.0,0.0,0.0,0.0,0.5672320068981566
1666091276864334241,0.19999999999999984,0.0,0.0,0.0,0.0,0.5410520681182416
1666091276914619823,0.1,0.0,0.0,0.0,0.0,0.5235987755982984
1666091276964504199,0.1,0.0,0.0,0.0,0.0,0.5235987755982984
1666091277014317840,0.1,0.0,0.0,0.0,0.0,0.5235987755982984
1666091277064366631,0.1,0.0,0.0,0.0,0.0,0.5235987755982984
1666091277114373171,0.1,0.0,0.0,0.0,0.0,0.5235987755982984
1666091277165105050,0.1,0.0,0.0,0.0,0.0,0.5235987755982984
1666091277214287270,0.1,0.0,0.0,0.0,0.0,0.5235987755982984
1666091277265523576,0.1,0.0,0.0,0.0,0.0,0.3490658503988654
1666091277314386626,0.1,0.0,0.0,0.0,0.0,0.3490658503988654
1666091277364791152,0.1,0.0,0.0,0.0,0.0,0.3490658503988654
1666091277414348396,0.1,0.0,0.0,0.0,0.0,0.3490658503988654
1666091277465309607,0.1,0.0,0.0,0.0,0.0,0.3490658503988654
1666091277515526521,0.1,0.0,0.0,0.0,0.0,0.4490658503988654
1666091277564698045,0.1,0.0,0.0,0.0,0.0,0.5235987755982984
1666091277614371761,0.1,0.0,0.0,0.0,0.0,0.5235987755982984
1666091277664938285,0.1,0.0,0.0,0.0,0.0,0.3490658503988654
1666091277714403137,0.1,0.0,0.0,0.0,0.0,0.3490658503988654
1666091277764463630,0.1,0.0,0.0,0.0,0.0,0.3490658503988654
1666091277814729334,0.1,0.0,0.0,0.0,0.0,0.3490658503988654
1666091277864454110,0.1,0.0,0.0,0.0,0.0,0.17453292519943245
1666091277914449823,0.1,0.0,0.0,0.0,0.0,0.17453292519943245
1666091277964776558,0.1,0.0,0.0,0.0,0.0,0.17453292519943245
1666091278014565268,0.1,0.0,0.0,0.0,0.0,0.17453292519943245
1666091278064444261,0.1,0.0,0.0,0.0,0.0,0.018802005797624588
1666091278114620793,0.1,0.0,0.0,0.0,0.0,0.0137806860730052
1666091278169143879,0.1,0.0,0.0,0.0,0.0,0.0137806860730052
1666091278214552885,0.1,0.0,0.0,0.0,0.0,0.003914190456271172
1666091278264493550,0.1,0.0,0.0,0.0,0.0,-4.996003610813204e-16
1666091278315072288,0.1,0.0,0.0,0.0,0.0,-4.996003610813204e-16
1666091278364440863,0.1,0.0,0.0,0.0,0.0,-4.996003610813204e-16
1666091278414384293,0.1,0.0,0.0,0.0,0.0,-4.996003610813204e-16
1666091278465046740,0.1,0.0,0.0,0.0,0.0,-4.996003610813204e-16
1666091278514364047,0.1,0.0,0.0,0.0,0.0,-4.996003610813204e-16
1666091278564883220,0.1,0.0,0.0,0.0,0.0,-4.996003610813204e-16
1666091278614541623,0.1,0.0,0.0,0.0,0.0,-4.996003610813204e-16
1666091278664292371,0.1,0.0,0.0,0.0,0.0,-4.996003610813204e-16
1666091278715369844,0.1,0.0,0.0,0.0,0.0,-4.996003610813204e-16
1666091278764540123,0.1,0.0,0.0,0.0,0.0,-4.996003610813204e-16
1666091278814314186,0.1,0.0,0.0,0.0,0.0,-4.996003610813204e-16
1666091278864425397,0.1,0.0,0.0,0.0,0.0,-4.996003610813204e-16
1666091278914868390,0.1,0.0,0.0,0.0,0.0,-4.996003610813204e-16
1666091278968337074,0.1,0.0,0.0,0.0,0.0,-4.996003610813204e-16
1666091279014858712,0.1,0.0,0.0,0.0,0.0,-4.996003610813204e-16
1666091279065901285,0.1,0.0,0.0,0.0,0.0,-0.0014999564737081528
1666091279114437600,0.1,0.0,0.0,0.0,0.0,-4.996003610813204e-16
1666091279164927181,0.1,0.0,0.0,0.0,0.0,0.06696400046348572
1666091279214542297,0.1,0.0,0.0,0.0,0.0,0.06696400046348572
1666091279264951902,0.0,0.0,0.0,0.0,0.0,0.0
1666091279314394387,0.015,0.0,0.0,0.0,0.0,0.009756951034069062
1666091279365533671,0.03,0.0,0.0,0.0,0.0,0.009073281118317563
1666091279414593885,0.045,0.0,0.0,0.0,0.0,0.008389611202566063
1666091279464698341,0.06,0.0,0.0,0.0,0.0,0.008403055918686848
1666091279515216107,0.075,0.0,0.0,0.0,0.0,0.008416500634807634
1666091279564720318,0.09,0.0,0.0,0.0,0.0,0.008429945350928421
1666091279614603333,0.0,0.0,0.0,0.0,0.0,0.0
1666091279664405471,0.015,0.0,0.0,0.0,0.0,0.001497922372072935
1666091279714351327,0.03,0.0,0.0,0.0,0.0,0.00310471892795142
1666091279764590978,0.045,0.0,0.0,0.0,0.0,0.004929144814328736
1666091279814674937,0.06,0.0,0.0,0.0,0.0,0.006753570700706053
1666091279864457954,0.075,0.0,0.0,0.0,0.0,0.008243181115650266
1666091279914219717,0.09,0.0,0.0,0.0,0.0,0.009732791530594479
1666091279965020462,0.1,0.0,0.0,0.0,0.0,0.07887032628059387
1666091280014549896,0.1,0.0,0.0,0.0,0.0,0.004679922945797443
1666091280064830864,0.1,0.0,0.0,0.0,0.0,0.07535547763109207
1666091280114438628,0.1,0.0,0.0,0.0,0.0,0.07535547763109207
1666091280164725069,0.1,0.0,0.0,0.0,0.0,-4.996003610813204e-16
1666091280214265851,0.1,0.0,0.0,0.0,0.0,-4.996003610813204e-16
1666091280264615013,0.1,0.0,0.0,0.0,0.0,-4.996003610813204e-16
1666091280314335313,0.1,0.0,0.0,0.0,0.0,-4.996003610813204e-16
1666091280364605860,0.1,0.0,0.0,0.0,0.0,-4.996003610813204e-16
1666091280414473414,0.1,0.0,0.0,0.0,0.0,-4.996003610813204e-16
1666091280464796539,0.1,0.0,0.0,0.0,0.0,-4.996003610813204e-16
1666091280514527401,0.1,0.0,0.0,0.0,0.0,-4.996003610813204e-16
1666091280565151204,0.1,0.0,0.0,0.0,0.0,0.05496617779135704
1666091280614441640,0.1,0.0,0.0,0.0,0.0,0.05496617779135704
1666091280664589220,0.1,0.0,0.0,0.0,0.0,-4.996003610813204e-16
1666091280714459162,0.1,0.0,0.0,0.0,0.0,-4.996003610813204e-16
1666091280764603116,0.1,0.0,0.0,0.0,0.0,0.04909743741154671
1666091280814314882,0.1,0.0,0.0,0.0,0.0,0.04909743741154671
1666091280865087914,0.1,0.0,0.0,0.0,0.0,0.04637680947780609
1666091280915548709,0.1,0.0,0.0,0.0,0.0,-4.996003610813204e-16
1666091280964831951,0.1,0.0,0.0,0.0,0.0,-4.996003610813204e-16
1666091281014372036,0.1,0.0,0.0,0.0,0.0,-4.996003610813204e-16
1666091281064306672,0.1,0.0,0.0,0.0,0.0,-4.996003610813204e-16
1666091281115153443,0.1,0.0,0.0,0.0,0.0,-4.996003610813204e-16
1666091281165339912,0.1,0.0,0.0,0.0,0.0,-4.996003610813204e-16
1666091281214882725,0.1,0.0,0.0,0.0,0.0,-4.996003610813204e-16
1666091281264307276,0.1,0.0,0.0,0.0,0.0,-4.996003610813204e-16
1666091281314451965,0.1,0.0,0.0,0.0,0.0,0.0999999999999995
1666091281364430867,0.1,0.0,0.0,0.0,0.0,0.17453292519943245
1666091281414440853,0.1,0.0,0.0,0.0,0.0,0.17453292519943245
1666091281464316099,0.1,0.0,0.0,0.0,0.0,0.27453292519943245
1666091281514344462,0.1,0.0,0.0,0.0,0.0,0.3745329251994325
1666091281564594082,0.1,0.0,0.0,0.0,0.0,0.47453292519943246
1666091281614295064,0.1,0.0,0.0,0.0,0.0,0.5745329251994324
1666091281664867645,0.1,0.0,0.0,0.0,0.0,0.6745329251994324
1666091281715193505,0.1,0.0,0.0,0.0,0.0,0.7745329251994324
1666091281764372362,0.1,0.0,0.0,0.0,0.0,0.8745329251994324
1666091281814549980,0.1,0.0,0.0,0.0,0.0,0.9745329251994324
1666091281865004691,0.1,0.0,0.0,0.0,0.0,1.0745329251994324
1666091281915153351,0.1,0.0,0.0,0.0,0.0,1.1745329251994325
1666091281964664926,0.1,0.0,0.0,0.0,0.0,1.2745329251994326
1666091282014982800,0.1,0.0,0.0,0.0,0.0,1.3745329251994327
1666091282064437712,0.02724801409504915,0.0,0.0,0.0,0.0,0.3745329251994327
1666091282114295221,0.0,0.0,0.0,0.0,0.0,0.0
1666091282166228200,0.0,0.0,0.0,0.0,0.0,0.0
1666091282214364418,0.0,0.0,0.0,0.0,0.0,0.0
1666091282264412004,0.0,0.0,0.0,0.0,0.0,0.0
1666091282314405664,0.0,0.0,0.0,0.0,0.0,0.0
1666091282365047173,0.0,0.0,0.0,0.0,0.0,0.0
1666091282414349302,0.0,0.0,0.0,0.0,0.0,-0.1
1666091282468263536,0.0,0.0,0.0,0.0,0.0,-0.2
1666091282514821055,0.0,0.0,0.0,0.0,0.0,-0.30000000000000004
1666091282564445035,0.0,0.0,0.0,0.0,0.0,-0.35370043924604566
1666091282614648036,0.0,0.0,0.0,0.0,0.0,-0.35370043924604566
1666091282664465107,0.0,0.0,0.0,0.0,0.0,-0.3901920159019372
1666091282714314745,0.0,0.0,0.0,0.0,0.0,-0.41929943534206354
1666091282764991554,0.0,0.0,0.0,0.0,0.0,-0.4433510381990062
1666091282814309366,0.0,0.0,0.0,0.0,0.0,-0.4433510381990062
1666091282864609273,0.0,0.0,0.0,0.0,0.0,-0.46192568814552987
1666091282914521671,0.0,0.0,0.0,0.0,0.0,-0.46192568814552987
1666091282964695647,0.0,0.0,0.0,0.0,0.0,-0.47196997892498477
1666091283014899879,0.0,0.0,0.0,0.0,0.0,-0.4761957641831192
1666091283064364386,0.0,0.0,0.0,0.0,0.0,-0.48580211591014877
1666091283114439198,0.0,0.0,0.0,0.0,0.0,-0.48580211591014877
1666091283164612432,0.0,0.0,0.0,0.0,0.0,-0.4855525212659316
1666091283214751647,0.0,0.0,0.0,0.0,0.0,-0.4798832100550459
1666091283265725961,0.0,0.0,0.0,0.0,0.0,-0.4798832100550459
1666091283314733912,0.0,0.0,0.0,0.0,0.0,-0.4810167687127858
1666091283364447612,0.0,0.0,0.0,0.0,0.0,-0.4715904540539631
1666091283414704006,0.0,0.0,0.0,0.0,0.0,-0.4715904540539631
1666091283465003292,0.0,0.0,0.0,0.0,0.0,-0.46834388667290894
1666091283515379115,0.0,0.0,0.0,0.0,0.0,-0.4606537375492449
1666091283567822622,0.0,0.0,0.0,0.0,0.0,-0.4534300262672905
1666091283614887679,0.0,0.0,0.0,0.0,0.0,-0.4509543734006767
1666091283664519733,0.0,0.0,0.0,0.0,0.0,-0.4509543734006767
1666091283715071948,0.0,0.0,0.0,0.0,0.0,-0.445397898273212
1666091283764503031,0.0,0.0,0.0,0.0,0.0,-0.445397898273212
1666091283814807128,0.0,0.0,0.0,0.0,0.0,-0.4377992530492325
1666091283865115511,0.0,0.0,0.0,0.0,0.0,-0.42594813597472264
1666091283914750065,0.0,0.0,0.0,0.0,0.0,-0.4196090191662686
1666091283964583913,0.0,0.0,0.0,0.0,0.0,-0.4196090191662686
1666091284014543253,0.0,0.0,0.0,0.0,0.0,-0.4136947608485514
1666091284064943007,0.0,0.0,0.0,0.0,0.0,-0.4136947608485514
1666091284115104076,0.0,0.0,0.0,0.0,0.0,-0.40639506119818103
1666091284164654357,0.0,0.0,0.0,0.0,0.0,-0.39504073789827304
1666091284214351995,0.0,0.0,0.0,0.0,0.0,-0.3892929237468285
1666091284264592570,0.0,0.0,0.0,0.0,0.0,-0.3892929237468285
1666091284314442364,0.0,0.0,0.0,0.0,0.0,-0.38273878378007503
1666091284364403539,0.0,0.0,0.0,0.0,0.0,-0.38273878378007503
1666091284414925759,0.0,0.0,0.0,0.0,0.0,-0.3773478247328628
1666091284464420322,0.0,0.0,0.0,0.0,0.0,-0.3773478247328628
1666091284514317225,0.0,0.0,0.0,0.0,0.0,-0.3773478247328628
1666091284564593629,0.0,0.0,0.0,0.0,0.0,-0.3624011553717435
1666091284614237503,0.0,0.0,0.0,0.0,0.0,-0.3624011553717435
1666091284664996252,0.0,0.0,0.0,0.0,0.0,-0.3613087707346717
1666091284714302654,0.0,0.0,0.0,0.0,0.0,-0.3613087707346717
1666091284764739645,0.0,0.0,0.0,0.0,0.0,-0.3613087707346717
1666091284814618117,0.0,0.0,0.0,0.0,0.0,-0.3568955060169153
1666091284867007319,0.0,0.0,0.0,0.0,0.0,-0.34223251263314064
1666091284914550562,0.0,0.0,0.0,0.0,0.0,-0.34223251263314064
1666091284965757142,0.0,0.0,0.0,0.0,0.0,-0.33464866834495366
1666091285018770708,0.0,0.0,0.0,0.0,0.0,-0.32077992864910576
1666091285064569703,0.0,0.0,0.0,0.0,0.0,-0.32077992864910576
1666091285115036506,0.0,0.0,0.0,0.0,0.0,-0.31341833346502807
1666091285164401780,0.0,0.0,0.0,0.0,0.0,-0.30129386476115644
1666091285215001555,0.0,0.0,0.0,0.0,0.0,-0.30129386476115644
1666091285265227424,0.0,0.0,0.0,0.0,0.0,-0.2923518688696283
1666091285315344960,0.0,0.0,0.0,0.0,0.0,-0.2786802512838918
1666091285364498875,0.0,0.0,0.0,0.0,0.0,-0.2786802512838918
1666091285414236304,0.0,0.0,0.0,0.0,0.0,-0.27414224184869607
1666091285464696900,0.0,0.0,0.0,0.0,0.0,-0.27414224184869607
1666091285514281949,0.0,0.0,0.0,0.0,0.0,-0.26249650600996194
1666091285564663157,0.0,0.0,0.0,0.0,0.0,-0.26249650600996194
1666091285615103350,0.0,0.0,0.0,0.0,0.0,-0.26249650600996194
1666091285665083736,0.0,0.0,0.0,0.0,0.0,-0.24279686208673734
1666091285714537154,0.0,0.0,0.0,0.0,0.0,-0.24279686208673734
1666091285764614283,0.0,0.0,0.0,0.0,0.0,-0.24279686208673734
1666091285814996536,0.0,0.0,0.0,0.0,0.0,-0.24662617770295434
1666091285864455089,0.0,0.0,0.0,0.0,0.0,-0.24662617770295434
1666091285914622658,0.0,0.0,0.0,0.0,0.0,-0.23875851393625058
1666091285964614503,0.0,0.0,0.0,0.0,0.0,-0.23875851393625058
1666091286014823681,0.0,0.0,0.0,0.0,0.0,0.0
1666091286064618932,0.0,0.0,0.0,0.0,0.0,0.0
1666091286114409488,0.0,0.0,0.0,0.0,0.0,0.0
1666091286165030104,0.0,0.0,0.0,0.0,0.0,0.0
1666091286214838074,0.0,0.0,0.0,0.0,0.0,0.0
1666091286264608399,0.0,0.0,0.0,0.0,0.0,0.0
1666091286314383509,0.0,0.0,0.0,0.0,0.0,0.0
1666091286364536276,0.0,0.0,0.0,0.0,0.0,0.0
1666091286414439272,0.0,0.0,0.0,0.0,0.0,0.0
1666091286464554463,0.0,0.0,0.0,0.0,0.0,0.0
1666091286514428804,0.0,0.0,0.0,0.0,0.0,0.0
1666091286564867730,0.0,0.0,0.0,0.0,0.0,0.0
1666091286614545962,0.0,0.0,0.0,0.0,0.0,0.0
1666091286664400634,0.0,0.0,0.0,0.0,0.0,0.0
1666091286714627141,0.0,0.0,0.0,0.0,0.0,0.0
1666091286768365131,0.0,0.0,0.0,0.0,0.0,0.0
1666091286815055443,0.0,0.0,0.0,0.0,0.0,0.0
1666091286864960594,0.0,0.0,0.0,0.0,0.0,0.0
1666091286914418403,0.0,0.0,0.0,0.0,0.0,0.0
1666091286965824030,0.0,0.0,0.0,0.0,0.0,0.0
1666091287014362512,0.0,0.0,0.0,0.0,0.0,0.0
1666091287064563817,0.0,0.0,0.0,0.0,0.0,0.0
1666091287115170638,0.0,0.0,0.0,0.0,0.0,0.0
1666091287164750853,0.0,0.0,0.0,0.0,0.0,0.0
1666091287214317845,0.0,0.0,0.0,0.0,0.0,0.0
1666091287264662317,0.0,0.0,0.0,0.0,0.0,0.0
1666091287314565893,0.0,0.0,0.0,0.0,0.0,0.0
1666091287364536480,0.0,0.0,0.0,0.0,0.0,0.0
1666091287414626780,0.0,0.0,0.0,0.0,0.0,0.0
1666091287464636406,0.0,0.0,0.0,0.0,0.0,0.0
1666091287514607913,0.0,0.0,0.0,0.0,0.0,0.0
1666091287564517676,0.0,0.0,0.0,0.0,0.0,0.0
1666091287614417225,0.0,0.0,0.0,0.0,0.0,0.0
1666091287664390163,0.0,0.0,0.0,0.0,0.0,0.0
1666091287714308789,0.0,0.0,0.0,0.0,0.0,0.0
1666091287764541352,0.0,0.0,0.0,0.0,0.0,0.0
1666091287814526620,0.0,0.0,0.0,0.0,0.0,0.0
1666091287864891574,0.0,0.0,0.0,0.0,0.0,0.0
1666091287914297062,0.0,0.0,0.0,0.0,0.0,0.0
1666091287964939408,0.0,0.0,0.0,0.0,0.0,0.0
1666091288014348316,0.0,0.0,0.0,0.0,0.0,0.0
1666091288064712137,0.0,0.0,0.0,0.0,0.0,0.0
1666091288115037663,0.0,0.0,0.0,0.0,0.0,0.0
1666091288165607121,0.0,0.0,0.0,0.0,0.0,0.0
1666091288214342947,0.0,0.0,0.0,0.0,0.0,0.0
1666091288264510182,0.0,0.0,0.0,0.0,0.0,0.0
1666091288314401591,0.0,0.0,0.0,0.0,0.0,0.0
1666091288364347238,0.0,0.0,0.0,0.0,0.0,0.0
1666091288414518101,0.0,0.0,0.0,0.0,0.0,0.0
1666091288464523238,0.0,0.0,0.0,0.0,0.0,0.0
1666091288514678821,0.0,0.0,0.0,0.0,0.0,0.0
1666091288564897575,0.0,0.0,0.0,0.0,0.0,0.0
1666091288614283295,0.0,0.0,0.0,0.0,0.0,0.0
1666091288664440370,0.0,0.0,0.0,0.0,0.0,0.0
1666091288714846569,0.0,0.0,0.0,0.0,0.0,0.0
1666091288765198462,0.0,0.0,0.0,0.0,0.0,0.0
1666091288814428827,0.0,0.0,0.0,0.0,0.0,0.0
1666091288864477716,0.0,0.0,0.0,0.0,0.0,0.0
1666091288914719840,0.0,0.0,0.0,0.0,0.0,0.0
1666091288964707864,0.0,0.0,0.0,0.0,0.0,0.0
1666091289014718648,0.0,0.0,0.0,0.0,0.0,0.0
1666091289065727673,0.0,0.0,0.0,0.0,0.0,0.0
1666091289115481399,0.0,0.0,0.0,0.0,0.0,0.0
1666091289165192549,0.0,0.0,0.0,0.0,0.0,0.0
1666091289214464872,0.0,0.0,0.0,0.0,0.0,0.0
1666091289265438694,0.0,0.0,0.0,0.0,0.0,0.0
1666091289314352096,0.0,0.0,0.0,0.0,0.0,0.0
1666091289367672440,0.0,0.0,0.0,0.0,0.0,0.0
1666091289414393786,0.0,0.0,0.0,0.0,0.0,0.0
1666091289464697358,0.0,0.0,0.0,0.0,0.0,0.0
1666091289514513645,0.0,0.0,0.0,0.0,0.0,0.0
1666091289564591102,0.0,0.0,0.0,0.0,0.0,0.0
1666091289614558999,0.0,0.0,0.0,0.0,0.0,0.0
1666091289668914943,0.0,0.0,0.0,0.0,0.0,0.0
1666091289714432271,0.0,0.0,0.0,0.0,0.0,0.0
1666091289767255432,0.0,0.0,0.0,0.0,0.0,0.0
1666091289814851817,0.0,0.0,0.0,0.0,0.0,0.0
1666091289865006021,0.0,0.0,0.0,0.0,0.0,0.0
