%time,field.linear.x,field.linear.y,field.linear.z,field.angular.x,field.angular.y,field.angular.z
1666090274025717549,0.015,0.0,0.0,0.0,0.0,-0.04976988908141562
1666090274076319149,0.03,0.0,0.0,0.0,0.0,-0.09953977816283124
1666090274125369859,0.045,0.0,0.0,0.0,0.0,-0.15241186051652947
1666090274175181197,0.06,0.0,0.0,0.0,0.0,-0.20528394287022766
1666090274225797220,0.075,0.0,0.0,0.0,0.0,-0.24934074206286314
1666090274275326116,0.09,0.0,0.0,0.0,0.0,-0.2944709042012109
1666090274325564673,0.105,0.0,0.0,0.0,0.0,-0.33960982757824465
1666090274375262855,0.12,0.0,0.0,0.0,0.0,-0.3860359238147529
1666090274425336715,0.135,0.0,0.0,0.0,0.0,-0.4324620200512611
1666090274475565557,0.15000000000000002,0.0,0.0,0.0,0.0,-0.4804225091270925
1666090274526520162,0.16500000000000004,0.0,0.0,0.0,0.0,-0.5283829982029239
1666090274576012673,0.18000000000000005,0.0,0.0,0.0,0.0,-0.5763793058013226
1666090274625891233,0.19434053574301138,0.0,0.0,0.0,0.0,-0.6763793058013226
1666090274675456672,0.20868107148602272,0.0,0.0,0.0,0.0,-0.7763793058013225
1666090274725366593,0.2224131944432521,0.0,0.0,0.0,0.0,-0.8763793058013225
1666090274775694311,0.2374131944432521,0.0,0.0,0.0,0.0,-0.9139880429160283
1666090274826559626,0.2524131944432521,0.0,0.0,0.0,0.0,-0.951777934260771
1666090274875402763,0.2674131944432521,0.0,0.0,0.0,0.0,-0.9895678256055136
1666090274925889153,0.27333878534819395,0.0,0.0,0.0,0.0,-1.0895678256055137
1666090274975239878,0.27926437625313577,0.0,0.0,0.0,0.0,-1.1895678256055138
1666090275025485714,0.2942643762531358,0.0,0.0,0.0,0.0,-1.2096606285519405
1666090275075311262,0.298078425854861,0.0,0.0,0.0,0.0,-1.3096606285519405
1666090275127729538,0.3013814985752105,0.0,0.0,0.0,0.0,-1.3962634015954642
1666090275176290701,0.31638149857521053,0.0,0.0,0.0,0.0,-1.3962634015954642
1666090275225423301,0.33138149857521054,0.0,0.0,0.0,0.0,-1.3962634015954642
1666090275276179819,0.34638149857521056,0.0,0.0,0.0,0.0,-1.3962634015954642
1666090275325406876,0.36138149857521057,0.0,0.0,0.0,0.0,-1.3769320392653832
1666090275375150188,0.3763814985752106,0.0,0.0,0.0,0.0,-1.3576006769353022
1666090275425575573,0.3913814985752106,0.0,0.0,0.0,0.0,-1.3423894678572064
1666090275475290693,0.4063814985752106,0.0,0.0,0.0,0.0,-1.3271782587791106
1666090275525513868,0.4213814985752106,0.0,0.0,0.0,0.0,-1.29314442744627
1666090275577877097,0.43638149857521064,0.0,0.0,0.0,0.0,-1.1924069285764658
1666090275625212194,0.45138149857521065,0.0,0.0,0.0,0.0,-1.0916694297066616
1666090275675346086,0.46638149857521066,0.0,0.0,0.0,0.0,-1.013137839651031
1666090275726264186,0.4813814985752107,0.0,0.0,0.0,0.0,-0.9477427636652357
1666090275775301897,0.4963814985752107,0.0,0.0,0.0,0.0,-0.8823476876794403
1666090275826579365,0.5113814985752106,0.0,0.0,0.0,0.0,-0.7529689561502525
1666090275875416638,0.5263814985752107,0.0,0.0,0.0,0.0,-0.6235902246210648
1666090275925365458,0.5413814985752107,0.0,0.0,0.0,0.0,-0.5979295836094997
1666090275975251782,0.5563814985752107,0.0,0.0,0.0,0.0,-0.5722689425979345
1666090276026744183,0.5713814985752107,0.0,0.0,0.0,0.0,-0.5457477461805895
1666090276075647767,0.5863814985752107,0.0,0.0,0.0,0.0,-0.5192265497632446
1666090276125744603,0.6013814985752107,0.0,0.0,0.0,0.0,-0.4908736343330821
1666090276175939030,0.6163814985752107,0.0,0.0,0.0,0.0,-0.46151479636699727
1666090276225533425,0.6313814985752108,0.0,0.0,0.0,0.0,-0.4321559584009124
1666090276275447025,0.6463814985752108,0.0,0.0,0.0,0.0,-0.4050029279570581
1666090276325455601,0.6613814985752108,0.0,0.0,0.0,0.0,-0.3778498975132038
1666090276375413147,0.6568387150764465,0.0,0.0,0.0,0.0,-0.3490658503988664
1666090276427655339,0.6718387150764465,0.0,0.0,0.0,0.0,-0.3490658503988664
1666090276475234575,0.6868387150764466,0.0,0.0,0.0,0.0,-0.3490658503988664
1666090276526299663,0.6972033977508545,0.0,0.0,0.0,0.0,-0.3490658503988664
1666090276576023095,0.6906178593635559,0.0,0.0,0.0,0.0,-0.3490658503988664
1666090276625789818,0.6906178593635559,0.0,0.0,0.0,0.0,-0.3490658503988664
1666090276675600240,0.6860272288322448,0.0,0.0,0.0,0.0,-0.3490658503988664
1666090276725513465,0.6788267493247985,0.0,0.0,0.0,0.0,-0.3490658503988664
1666090276776156262,0.6761102080345154,0.0,0.0,0.0,0.0,-0.3490658503988664
1666090276825650731,0.6761102080345154,0.0,0.0,0.0,0.0,-0.3490658503988664
1666090276875419320,0.6780532598495483,0.0,0.0,0.0,0.0,-0.3490658503988664
1666090276926031887,0.6780532598495483,0.0,0.0,0.0,0.0,-0.3490658503988664
1666090276975445036,0.6744853854179382,0.0,0.0,0.0,0.0,-0.3490658503988664
1666090277026487108,0.6734062433242798,0.0,0.0,0.0,0.0,-0.3490658503988664
1666090277075691318,0.6684182286262512,0.0,0.0,0.0,0.0,-0.19315136969089508
1666090277125680967,0.6684182286262512,0.0,0.0,0.0,0.0,-0.19315136969089508
1666090277175735684,0.6023514270782471,0.0,0.0,0.0,0.0,-0.11490698903799057
1666090277226004324,0.6173514270782471,0.0,0.0,0.0,0.0,-0.13821553295907793
1666090277275298069,0.6323514270782471,0.0,0.0,0.0,0.0,-0.1600257118442468
1666090277325363055,0.64565008796358,0.0,0.0,0.0,0.0,-0.26002571184424683
1666090277375851775,0.658948748848913,0.0,0.0,0.0,0.0,-0.3600257118442468
1666090277426033797,0.673948748848913,0.0,0.0,0.0,0.0,-0.43612061994442153
1666090277475293555,0.688948748848913,0.0,0.0,0.0,0.0,-0.5122155280445964
1666090277528656894,0.703948748848913,0.0,0.0,0.0,0.0,-0.6035089674938241
1666090277575911075,0.7007725466126851,0.0,0.0,0.0,0.0,-0.7035089674938241
1666090277625194860,0.6975963443764572,0.0,0.0,0.0,0.0,-0.8035089674938241
1666090277675227053,0.7125963443764572,0.0,0.0,0.0,0.0,-0.8136388292769188
1666090277725384822,0.7275963443764573,0.0,0.0,0.0,0.0,-0.8237686910600135
1666090277775378357,0.7425963443764573,0.0,0.0,0.0,0.0,-0.8700568635726598
1666090277826657765,0.7575963443764573,0.0,0.0,0.0,0.0,-0.916345036085306
1666090277875263054,0.7725963443764573,0.0,0.0,0.0,0.0,-0.9626332085979523
1666090277925610311,0.7875963443764573,0.0,0.0,0.0,0.0,-1.0089213811105986
1666090277975362620,0.7999999999999999,0.0,0.0,0.0,0.0,-1.0471975511965983
1666090278025927591,0.7999999999999999,0.0,0.0,0.0,0.0,-1.0471975511965983
1666090278075298951,0.7999999999999999,0.0,0.0,0.0,0.0,-1.0471975511965983
1666090278125480956,0.7999999999999999,0.0,0.0,0.0,0.0,-1.0471975511965983
1666090278175413175,0.7999999999999999,0.0,0.0,0.0,0.0,-1.0471975511965983
1666090278225793305,0.7999999999999999,0.0,0.0,0.0,0.0,-1.0471975511965983
1666090278275939105,0.7999999999999999,0.0,0.0,0.0,0.0,-1.0471975511965983
1666090278325407446,0.7999999999999999,0.0,0.0,0.0,0.0,-1.0471975511965983
1666090278375366891,0.7999999999999999,0.0,0.0,0.0,0.0,-1.0471975511965983
1666090278425211801,0.7999999999999999,0.0,0.0,0.0,0.0,-1.0471975511965983
1666090278475879894,0.6499999999999999,0.0,0.0,0.0,0.0,-0.972397726111127
1666090278525903489,0.4999999999999999,0.0,0.0,0.0,0.0,-0.8975979010256556
1666090278575514579,0.34999999999999987,0.0,0.0,0.0,0.0,-0.8227980759401844
1666090278625807086,0.19999999999999984,0.0,0.0,0.0,0.0,-0.7479982508547132
1666090278676136588,0.1,0.0,0.0,0.0,0.0,-0.6981317007977323
1666090278725431254,0.1,0.0,0.0,0.0,0.0,-0.6981317007977323
1666090278775505479,0.1,0.0,0.0,0.0,0.0,-0.6981317007977323
1666090278825617655,0.1,0.0,0.0,0.0,0.0,-0.6981317007977323
1666090278875453590,0.1,0.0,0.0,0.0,0.0,-0.6981317007977323
1666090278925292996,0.1,0.0,0.0,0.0,0.0,-0.6981317007977323
1666090278975539471,0.1,0.0,0.0,0.0,0.0,-0.6981317007977323
1666090279027776650,0.1,0.0,0.0,0.0,0.0,-0.6981317007977323
1666090279075564346,0.1,0.0,0.0,0.0,0.0,-0.6981317007977323
1666090279125479160,0.1,0.0,0.0,0.0,0.0,-0.6981317007977323
1666090279175332034,0.1,0.0,0.0,0.0,0.0,-0.5235987755982994
1666090279225372451,0.1,0.0,0.0,0.0,0.0,-0.5235987755982994
1666090279275287322,0.1,0.0,0.0,0.0,0.0,-0.5235987755982994
1666090279325733609,0.1,0.0,0.0,0.0,0.0,-0.5235987755982994
1666090279375208229,0.1,0.0,0.0,0.0,0.0,-0.5235987755982994
1666090279425192938,0.1,0.0,0.0,0.0,0.0,-0.5235987755982994
1666090279475286368,0.1,0.0,0.0,0.0,0.0,-0.5235987755982994
1666090279525755318,0.1,0.0,0.0,0.0,0.0,-0.5235987755982994
1666090279575473879,0.1,0.0,0.0,0.0,0.0,-0.3490658503988664
1666090279626429500,0.1,0.0,0.0,0.0,0.0,-0.3490658503988664
1666090279676083469,0.1,0.0,0.0,0.0,0.0,-0.3490658503988664
1666090279725592624,0.1,0.0,0.0,0.0,0.0,-0.3490658503988664
1666090279775462431,0.1,0.0,0.0,0.0,0.0,-0.3490658503988664
1666090279825199321,0.1,0.0,0.0,0.0,0.0,-0.3490658503988664
1666090279875782677,0.1,0.0,0.0,0.0,0.0,-0.3490658503988664
1666090279925248468,0.1,0.0,0.0,0.0,0.0,-0.3490658503988664
1666090279975202807,0.1,0.0,0.0,0.0,0.0,-0.17453292519943345
1666090280025361367,0.1,0.0,0.0,0.0,0.0,-0.17453292519943345
1666090280075362381,0.1,0.0,0.0,0.0,0.0,-0.017687933519482613
1666090280125225516,0.1,0.0,0.0,0.0,0.0,-0.017687933519482613
1666090280175309382,0.115,0.0,0.0,0.0,0.0,-0.024788888881183694
1666090280225232230,0.13,0.0,0.0,0.0,0.0,-0.031889844242884775
1666090280275506159,0.14500000000000002,0.0,0.0,0.0,0.0,-0.03899079960458586
1666090280325339923,0.16000000000000003,0.0,0.0,0.0,0.0,-0.04609175496628694
1666090280375197267,0.1253478166185132,0.0,0.0,0.0,0.0,0.05390824503371307
1666090280425548348,0.1,0.0,0.0,0.0,0.0,0.1270575076341629
1666090280475553755,0.1,0.0,0.0,0.0,0.0,0.07593777030706406
1666090280525229138,0.1,0.0,0.0,0.0,0.0,0.09224703907966614
1666090280575924042,0.1,0.0,0.0,0.0,0.0,0.09224703907966614
1666090280625606509,0.115,0.0,0.0,0.0,0.0,0.08279033430512615
1666090280675620666,0.13,0.0,0.0,0.0,0.0,0.07333362953058617
1666090280725401981,0.14500000000000002,0.0,0.0,0.0,0.0,0.05996947120680515
1666090280775475409,0.16000000000000003,0.0,0.0,0.0,0.0,0.04660531288302413
1666090280825988648,0.17500000000000004,0.0,0.0,0.0,0.0,0.033241154559243105
1666090280875651481,0.19000000000000006,0.0,0.0,0.0,0.0,0.01987699623546208
1666090280925487080,0.14449009380522448,0.0,0.0,0.0,0.0,0.11987699623546208
1666090280976445107,0.1,0.0,0.0,0.0,0.0,0.2176361382007599
1666090281025759389,0.115,0.0,0.0,0.0,0.0,0.20175253290506576
1666090281075514883,0.13,0.0,0.0,0.0,0.0,0.18586892760937163
1666090281125349526,0.14500000000000002,0.0,0.0,0.0,0.0,0.1699853223136775
1666090281175824282,0.16000000000000003,0.0,0.0,0.0,0.0,0.15410171701798336
1666090281225391614,0.17500000000000004,0.0,0.0,0.0,0.0,0.14639934259101264
1666090281275405535,0.19000000000000006,0.0,0.0,0.0,0.0,0.13869696816404192
1666090281325181756,0.20500000000000007,0.0,0.0,0.0,0.0,0.1309945937370712
1666090281375588603,0.22000000000000008,0.0,0.0,0.0,0.0,0.1232922193101005
1666090281425662221,0.2350000000000001,0.0,0.0,0.0,0.0,0.11558984488312979
1666090281475482272,0.2500000000000001,0.0,0.0,0.0,0.0,0.10788747045615908
1666090281525496618,0.2650000000000001,0.0,0.0,0.0,0.0,0.10494508489826382
1666090281575442223,0.28000000000000014,0.0,0.0,0.0,0.0,0.10200269934036856
1666090281625443467,0.29500000000000015,0.0,0.0,0.0,0.0,0.10475557885551595
1666090281675470970,0.31000000000000016,0.0,0.0,0.0,0.0,0.10750845837066336
1666090281725362914,0.3250000000000002,0.0,0.0,0.0,0.0,0.11024571812372098
1666090281775301056,0.3400000000000002,0.0,0.0,0.0,0.0,0.1129829778767786
1666090281825476924,0.3550000000000002,0.0,0.0,0.0,0.0,0.11566417168690608
1666090281875312386,0.3700000000000002,0.0,0.0,0.0,0.0,0.11834536549703356
1666090281925490863,0.38500000000000023,0.0,0.0,0.0,0.0,0.12093406052231954
1666090281976117399,0.40000000000000024,0.0,0.0,0.0,0.0,0.12345344198841807
1666090282025354184,0.41500000000000026,0.0,0.0,0.0,0.0,0.12597282345451657
1666090282075687436,0.43000000000000027,0.0,0.0,0.0,0.0,0.12842318274196518
1666090282125414946,0.4450000000000003,0.0,0.0,0.0,0.0,0.1308735420294138
1666090282175858631,0.4600000000000003,0.0,0.0,0.0,0.0,0.13325629076089124
1666090282225285696,0.4750000000000003,0.0,0.0,0.0,0.0,0.1356390394923687
1666090282275915815,0.4900000000000003,0.0,0.0,0.0,0.0,0.137957566511587
1666090282325852201,0.5050000000000003,0.0,0.0,0.0,0.0,0.1402733002841054
1666090282375343140,0.5200000000000004,0.0,0.0,0.0,0.0,0.14258903405662376
1666090282426561436,0.5350000000000004,0.0,0.0,0.0,0.0,0.14474034442514677
1666090282475436570,0.5500000000000004,0.0,0.0,0.0,0.0,0.14689165479366978
1666090282525985462,0.5650000000000004,0.0,0.0,0.0,0.0,0.14883707432786128
1666090282575326674,0.5800000000000004,0.0,0.0,0.0,0.0,0.15078249386205278
1666090282626125083,0.5950000000000004,0.0,0.0,0.0,0.0,0.15256991299747835
1666090282675418378,0.6100000000000004,0.0,0.0,0.0,0.0,0.15439483726529998
1666090282725171183,0.6250000000000004,0.0,0.0,0.0,0.0,0.15621976153312161
1666090282775397101,0.6400000000000005,0.0,0.0,0.0,0.0,0.15807623368792792
1666090282826568934,0.6550000000000005,0.0,0.0,0.0,0.0,0.1598686010472783
1666090282875373689,0.6700000000000005,0.0,0.0,0.0,0.0,0.1616609684066287
1666090282925416943,0.6850000000000005,0.0,0.0,0.0,0.0,0.17164419688106794
1666090282975426328,0.7000000000000005,0.0,0.0,0.0,0.0,0.18155898043488441
1666090283025957339,0.7150000000000005,0.0,0.0,0.0,0.0,0.18035212959477037
1666090283075503564,0.7300000000000005,0.0,0.0,0.0,0.0,0.17914527875465633
1666090283125517597,0.7450000000000006,0.0,0.0,0.0,0.0,0.19403819274697096
1666090283175376884,0.7600000000000006,0.0,0.0,0.0,0.0,0.20883590863902218
1666090283225586824,0.7750000000000006,0.0,0.0,0.0,0.0,0.2236336245310734
1666090283275332673,0.7900000000000006,0.0,0.0,0.0,0.0,0.24736281574040586
1666090283325268231,0.7041834592819214,0.0,0.0,0.0,0.0,0.17154556512832642
1666090283375433680,0.7041834592819214,0.0,0.0,0.0,0.0,0.17154556512832642
1666090283425460964,0.7041834592819214,0.0,0.0,0.0,0.0,0.17154556512832642
1666090283475161953,0.6943964494453944,0.0,0.0,0.0,0.0,0.2715455651283264
1666090283525745660,0.6841762509401659,0.0,0.0,0.0,0.0,0.37154556512832637
1666090283575266680,0.6739560524349374,0.0,0.0,0.0,0.0,0.47154556512832635
1666090283625219866,0.6649271779904743,0.0,0.0,0.0,0.0,0.5715455651283263
1666090283675514009,0.6561228577986792,0.0,0.0,0.0,0.0,0.6715455651283263
1666090283725355902,0.6537821292877197,0.0,0.0,0.0,0.0,0.6981317007977313
1666090283775326109,0.600397165829225,0.0,0.0,0.0,0.0,0.7981317007977313
1666090283825380517,0.5606077909469604,0.0,0.0,0.0,0.0,0.8726646259971643
1666090283875220645,0.5472981333732605,0.0,0.0,0.0,0.0,0.8726646259971643
1666090283925743073,0.5314920544624329,0.0,0.0,0.0,0.0,0.8726646259971643
1666090283975842344,0.4982124865055084,0.0,0.0,0.0,0.0,0.8726646259971643
1666090284025190649,0.4988521933555603,0.0,0.0,0.0,0.0,0.8726646259971643
1666090284075188560,0.4988521933555603,0.0,0.0,0.0,0.0,0.8726646259971643
1666090284125711674,0.4988521933555603,0.0,0.0,0.0,0.0,0.8726646259971643
1666090284175312311,0.4815786480903625,0.0,0.0,0.0,0.0,0.8726646259971643
1666090284225213916,0.46571215987205505,0.0,0.0,0.0,0.0,0.8726646259971643
1666090284276555318,0.48071215987205507,0.0,0.0,0.0,0.0,0.9038197383709924
1666090284325390081,0.44221967458724976,0.0,0.0,0.0,0.0,0.8726646259971643
1666090284375255380,0.43349653482437134,0.0,0.0,0.0,0.0,0.8726646259971643
1666090284425215301,0.43349653482437134,0.0,0.0,0.0,0.0,0.8726646259971643
1666090284475345278,0.4306488633155823,0.0,0.0,0.0,0.0,0.8726646259971643
1666090284525316835,0.4306488633155823,0.0,0.0,0.0,0.0,0.8726646259971643
1666090284575366304,0.4306488633155823,0.0,0.0,0.0,0.0,0.8726646259971643
1666090284625345099,0.4338715374469757,0.0,0.0,0.0,0.0,0.8726646259971643
1666090284675338943,0.4338715374469757,0.0,0.0,0.0,0.0,0.8726646259971643
1666090284725550641,0.4488715374469757,0.0,0.0,0.0,0.0,0.8726646259971643
1666090284775443198,0.46387153744697573,0.0,0.0,0.0,0.0,0.8726646259971643
1666090284825427527,0.47887153744697575,0.0,0.0,0.0,0.0,0.8726646259971643
1666090284875536808,0.4809684753417969,0.0,0.0,0.0,0.0,0.8726646259971643
1666090284925262674,0.33096847534179685,0.0,0.0,0.0,0.0,0.8039451899429688
1666090284978131584,0.18096847534179683,0.0,0.0,0.0,0.0,0.7352257538887734
1666090285025388865,0.1,0.0,0.0,0.0,0.0,0.6981317007977313
1666090285075368564,0.115,0.0,0.0,0.0,0.0,0.7044526810791518
1666090285125191111,0.1,0.0,0.0,0.0,0.0,0.5235987755982984
1666090285175113584,0.1,0.0,0.0,0.0,0.0,0.5235987755982984
1666090285225411852,0.115,0.0,0.0,0.0,0.0,0.5356560211054242
1666090285275213829,0.13,0.0,0.0,0.0,0.0,0.5477132666125499
1666090285325669102,0.14500000000000002,0.0,0.0,0.0,0.0,0.5590826609457369
1666090285375383584,0.16000000000000003,0.0,0.0,0.0,0.0,0.5704267196729508
1666090285425296530,0.1,0.0,0.0,0.0,0.0,0.5235987755982984
1666090285475408388,0.1,0.0,0.0,0.0,0.0,0.5235987755982984
1666090285525280230,0.1,0.0,0.0,0.0,0.0,0.5235987755982984
1666090285575285482,0.1,0.0,0.0,0.0,0.0,0.3490658503988654
1666090285625115268,0.1,0.0,0.0,0.0,0.0,0.3490658503988654
1666090285675550269,0.1,0.0,0.0,0.0,0.0,0.3490658503988654
1666090285725836550,0.1,0.0,0.0,0.0,0.0,0.3490658503988654
1666090285775277282,0.1,0.0,0.0,0.0,0.0,0.3490658503988654
1666090285825218180,0.1,0.0,0.0,0.0,0.0,0.3490658503988654
1666090285875889564,0.1,0.0,0.0,0.0,0.0,0.3490658503988654
1666090285925116062,0.1,0.0,0.0,0.0,0.0,0.3490658503988654
1666090285975856840,0.1,0.0,0.0,0.0,0.0,0.3490658503988654
1666090286025352652,0.1,0.0,0.0,0.0,0.0,0.3490658503988654
1666090286075314852,0.1,0.0,0.0,0.0,0.0,0.17453292519943245
1666090286125138422,0.1,0.0,0.0,0.0,0.0,0.17453292519943245
1666090286175416912,0.1,0.0,0.0,0.0,0.0,0.17453292519943245
1666090286225287277,0.1,0.0,0.0,0.0,0.0,0.17453292519943245
1666090286275204971,0.1,0.0,0.0,0.0,0.0,0.17453292519943245
1666090286325271463,0.1,0.0,0.0,0.0,0.0,0.17453292519943245
1666090286375290258,0.1,0.0,0.0,0.0,0.0,0.17453292519943245
1666090286425284378,0.1,0.0,0.0,0.0,0.0,0.17453292519943245
1666090286475845004,0.1,0.0,0.0,0.0,0.0,0.17453292519943245
1666090286525330902,0.1,0.0,0.0,0.0,0.0,0.17453292519943245
1666090286575358147,0.1,0.0,0.0,0.0,0.0,0.17453292519943245
1666090286625225497,0.1,0.0,0.0,0.0,0.0,0.17453292519943245
1666090286675212538,0.1,0.0,0.0,0.0,0.0,0.17453292519943245
1666090286725401749,0.1,0.0,0.0,0.0,0.0,0.17453292519943245
1666090286775857539,0.1,0.0,0.0,0.0,0.0,0.17453292519943245
1666090286825286703,0.1,0.0,0.0,0.0,0.0,0.17453292519943245
1666090286875155664,0.1,0.0,0.0,0.0,0.0,0.17453292519943245
1666090286925115537,0.1,0.0,0.0,0.0,0.0,0.17453292519943245
1666090286975604550,0.1,0.0,0.0,0.0,0.0,0.17453292519943245
1666090287025257163,0.1,0.0,0.0,0.0,0.0,0.17453292519943245
1666090287077265500,0.1,0.0,0.0,0.0,0.0,0.17453292519943245
1666090287125219640,0.1,0.0,0.0,0.0,0.0,0.17453292519943245
1666090287177277596,0.1,0.0,0.0,0.0,0.0,0.17453292519943245
1666090287225218452,0.1,0.0,0.0,0.0,0.0,0.17453292519943245
1666090287276308009,0.0,0.0,0.0,0.0,0.0,0.0
1666090287325649605,0.015,0.0,0.0,0.0,0.0,0.07853981633974474
1666090287375496140,0.03,0.0,0.0,0.0,0.0,0.1570796326794895
1666090287425220667,0.039782206258331135,0.0,0.0,0.0,0.0,0.2570796326794895
1666090287475585475,0.04956441251666227,0.0,0.0,0.0,0.0,0.3570796326794895
1666090287525417212,0.05687266899429602,0.0,0.0,0.0,0.0,0.4570796326794895
1666090287575578487,0.060220415452675834,0.0,0.0,0.0,0.0,0.5570796326794895
1666090287625696154,0.06356816191105565,0.0,0.0,0.0,0.0,0.6570796326794894
1666090287675170912,0.06755537570758313,0.0,0.0,0.0,0.0,0.7570796326794894
1666090287726200124,0.07154258950411062,0.0,0.0,0.0,0.0,0.8570796326794894
1666090287775387934,0.0755298033006381,0.0,0.0,0.0,0.0,0.9570796326794894
1666090287825314379,0.0905298033006381,0.0,0.0,0.0,0.0,0.47738587474141175
1666090287875291300,0.092925630718448,0.0,0.0,0.0,0.0,0.5773858747414118
1666090287925220770,0.0953214581362579,0.0,0.0,0.0,0.0,0.6773858747414118
1666090287975464388,0.09771728555406779,0.0,0.0,0.0,0.0,0.7773858747414117
1666090288025289832,0.09856332545713009,0.0,0.0,0.0,0.0,0.8773858747414117
1666090288075393989,0.09940936536019239,0.0,0.0,0.0,0.0,0.9773858747414117
1666090288125290506,0.1,0.0,0.0,0.0,0.0,1.0471975511965972
1666090288175597814,0.1,0.0,0.0,0.0,0.0,1.1471975511965973
1666090288225548658,0.1,0.0,0.0,0.0,0.0,1.2217304763960302
1666090288275377824,0.1,0.0,0.0,0.0,0.0,1.0471975511965972
1666090288325547106,0.1,0.0,0.0,0.0,0.0,1.0471975511965972
1666090288375172034,0.1,0.0,0.0,0.0,0.0,1.0471975511965972
1666090288425348826,0.004507034144862754,0.0,0.0,0.0,0.0,0.04719755119659719
1666090288475443398,0.0,0.0,0.0,0.0,0.0,0.0
1666090288525457982,0.015,0.0,0.0,0.0,0.0,-0.016754009574651715
1666090288575389648,0.03,0.0,0.0,0.0,0.0,-0.016433869264308062
1666090288625221471,0.045,0.0,0.0,0.0,0.0,-0.016113728953964408
1666090288675730876,0.06,0.0,0.0,0.0,0.0,-0.015793588643620755
1666090288725244996,0.075,0.0,0.0,0.0,0.0,-0.018681323799301645
1666090288776066419,0.09,0.0,0.0,0.0,0.0,-0.021569058954982536
1666090288826153547,0.105,0.0,0.0,0.0,0.0,-0.026675603036990556
1666090288875379761,0.12,0.0,0.0,0.0,0.0,-0.03177333249253812
1666090288925404603,0.135,0.0,0.0,0.0,0.0,-0.037589933408327114
1666090288975174793,0.15000000000000002,0.0,0.0,0.0,0.0,-0.043406534324116106
1666090289025427592,0.16500000000000004,0.0,0.0,0.0,0.0,-0.05008239258950626
1666090289075323020,0.18000000000000005,0.0,0.0,0.0,0.0,-0.056758250854896414
1666090289125331973,0.19500000000000006,0.0,0.0,0.0,0.0,-0.06386071806922487
1666090289175415850,0.21000000000000008,0.0,0.0,0.0,0.0,-0.07096318528355333
1666090289225258301,0.2250000000000001,0.0,0.0,0.0,0.0,-0.0782847753360476
1666090289275483769,0.2400000000000001,0.0,0.0,0.0,0.0,-0.08560636538854186
1666090289325217729,0.2550000000000001,0.0,0.0,0.0,0.0,-0.09297795469086909
1666090289380033473,0.27000000000000013,0.0,0.0,0.0,0.0,-0.10034954399319632
1666090289425548241,0.28500000000000014,0.0,0.0,0.0,0.0,-0.10585366045121977
1666090289475483346,0.30000000000000016,0.0,0.0,0.0,0.0,-0.11135777690924323
1666090289525306705,0.31500000000000017,0.0,0.0,0.0,0.0,-0.11686189336726668
1666090289575329119,0.3300000000000002,0.0,0.0,0.0,0.0,-0.12213971065246595
1666090289626084933,0.3450000000000002,0.0,0.0,0.0,0.0,-0.12741752793766523
1666090289675464006,0.3600000000000002,0.0,0.0,0.0,0.0,-0.13255514625590548
1666090289725482580,0.3750000000000002,0.0,0.0,0.0,0.0,-0.13769276457414573
1666090289775704050,0.39000000000000024,0.0,0.0,0.0,0.0,-0.14283038289238598
1666090289825208967,0.40500000000000025,0.0,0.0,0.0,0.0,-0.15010028432543168
1666090289875172377,0.42000000000000026,0.0,0.0,0.0,0.0,-0.17091160393830387
1666090289925647919,0.4350000000000003,0.0,0.0,0.0,0.0,-0.19172292355117607
1666090289975685309,0.4500000000000003,0.0,0.0,0.0,0.0,-0.19768556384180486
1666090290025599160,0.4650000000000003,0.0,0.0,0.0,0.0,-0.20364820413243367
1666090290075360605,0.4800000000000003,0.0,0.0,0.0,0.0,-0.2095860026305146
1666090290126053753,0.49500000000000033,0.0,0.0,0.0,0.0,-0.22430535136337953
1666090290175226469,0.5100000000000003,0.0,0.0,0.0,0.0,-0.23902470009624446
1666090290225230162,0.5250000000000004,0.0,0.0,0.0,0.0,-0.2627716139256318
1666090290275184947,0.5400000000000004,0.0,0.0,0.0,0.0,-0.26752778684352685
1666090290325572201,0.5550000000000004,0.0,0.0,0.0,0.0,-0.27230462404789346
1666090290375704528,0.5700000000000004,0.0,0.0,0.0,0.0,-0.2770814612522601
1666090290425587933,0.5850000000000004,0.0,0.0,0.0,0.0,-0.277597357550775
1666090290475426880,0.6000000000000004,0.0,0.0,0.0,0.0,-0.28404675984066824
1666090290525682064,0.6150000000000004,0.0,0.0,0.0,0.0,-0.2927822084564059
1666090290575396540,0.6300000000000004,0.0,0.0,0.0,0.0,-0.30151765707214356
1666090290625302546,0.6450000000000005,0.0,0.0,0.0,0.0,-0.3122174597467158
1666090290675618043,0.6600000000000005,0.0,0.0,0.0,0.0,-0.32882004075707644
1666090290725973723,0.6270886902308196,0.0,0.0,0.0,0.0,-0.42882004075707647
1666090290776869771,0.5951138734817505,0.0,0.0,0.0,0.0,-0.5235987755982994
1666090290825164635,0.5951138734817505,0.0,0.0,0.0,0.0,-0.5235987755982994
1666090290875355574,0.6101138734817505,0.0,0.0,0.0,0.0,-0.5563837467584762
1666090290925367765,0.6251138734817505,0.0,0.0,0.0,0.0,-0.5891687179186531
1666090290975771324,0.6383972918547078,0.0,0.0,0.0,0.0,-0.6891687179186531
1666090291025639100,0.651680710227665,0.0,0.0,0.0,0.0,-0.7891687179186531
1666090291075445807,0.6489521437260444,0.0,0.0,0.0,0.0,-0.889168717918653
1666090291125167320,0.6462235772244237,0.0,0.0,0.0,0.0,-0.989168717918653
1666090291175459288,0.6398233436754854,0.0,0.0,0.0,0.0,-1.089168717918653
1666090291226708248,0.6277249549505446,0.0,0.0,0.0,0.0,-1.1891687179186532
1666090291275261926,0.6156265662256036,0.0,0.0,0.0,0.0,-1.2891687179186533
1666090291325879724,0.5851011352312736,0.0,0.0,0.0,0.0,-1.3891687179186534
1666090291375380909,0.5829354524612427,0.0,0.0,0.0,0.0,-1.3962634015954642
1666090291425454794,0.5610254406929016,0.0,0.0,0.0,0.0,-1.3962634015954642
1666090291475511844,0.4300750195980072,0.0,0.0,0.0,0.0,-1.3962634015954642
1666090291525686464,0.4300750195980072,0.0,0.0,0.0,0.0,-1.3962634015954642
1666090291575510145,0.42052571504393943,0.0,0.0,0.0,0.0,-1.4962634015954643
1666090291625395097,0.41731756925582886,0.0,0.0,0.0,0.0,-1.5707963267948972
1666090291675279597,0.43231756925582887,0.0,0.0,0.0,0.0,-1.5707963267948972
1666090291725408004,0.4473175692558289,0.0,0.0,0.0,0.0,-1.5707963267948972
1666090291775385214,0.4623175692558289,0.0,0.0,0.0,0.0,-1.5707963267948972
1666090291825763275,0.45173928141593933,0.0,0.0,0.0,0.0,-1.3962634015954642
1666090291876322751,0.4520946741104126,0.0,0.0,0.0,0.0,-1.3962634015954642
1666090291925564498,0.4670946741104126,0.0,0.0,0.0,0.0,-1.4199448518015003
1666090291975514759,0.46699839830398554,0.0,0.0,0.0,0.0,-1.3962634015954642
1666090292025148217,0.46699839830398554,0.0,0.0,0.0,0.0,-1.3962634015954642
1666090292075476450,0.46699839830398554,0.0,0.0,0.0,0.0,-1.3962634015954642
1666090292125936309,0.48199839830398555,0.0,0.0,0.0,0.0,-1.3962634015954642
1666090292175901934,0.49699839830398557,0.0,0.0,0.0,0.0,-1.3962634015954642
1666090292225532307,0.5119983983039855,0.0,0.0,0.0,0.0,-1.3752101034300714
1666090292275556954,0.5269983983039855,0.0,0.0,0.0,0.0,-1.3541568052646786
1666090292325827224,0.5419983983039856,0.0,0.0,0.0,0.0,-1.3331035070992858
1666090292379183562,0.5569983983039856,0.0,0.0,0.0,0.0,-1.3063339708982302
1666090292425208232,0.5719983983039856,0.0,0.0,0.0,0.0,-1.268790868351441
1666090292475429247,0.5869983983039856,0.0,0.0,0.0,0.0,-1.2194742162008272
1666090292526205423,0.6019983983039856,0.0,0.0,0.0,0.0,-1.1701575640502133
1666090292575621425,0.6169983983039856,0.0,0.0,0.0,0.0,-1.1178273593037846
1666090292625742240,0.6319983983039856,0.0,0.0,0.0,0.0,-1.0622455053633828
1666090292675968904,0.6469983983039856,0.0,0.0,0.0,0.0,-1.002843181789406
1666090292725370523,0.6619983983039857,0.0,0.0,0.0,0.0,-0.943440858215429
1666090292776676566,0.6769983983039857,0.0,0.0,0.0,0.0,-0.8684379255616139
1666090292825273269,0.6919983983039857,0.0,0.0,0.0,0.0,-0.7934349929077988
1666090292875317880,0.7069983983039857,0.0,0.0,0.0,0.0,-0.7184320602539838
1666090292925685989,0.7219983983039857,0.0,0.0,0.0,0.0,-0.6431628965030716
1666090292976691398,0.7369983983039857,0.0,0.0,0.0,0.0,-0.5560339758876564
1666090293025225968,0.7519983983039857,0.0,0.0,0.0,0.0,-0.468905055272241
1666090293075715777,0.7669983983039858,0.0,0.0,0.0,0.0,-0.36164620837935074
1666090293125199853,0.7819983983039858,0.0,0.0,0.0,0.0,-0.2543873614864604
1666090293180987283,0.7969983983039858,0.0,0.0,0.0,0.0,-0.10083278915104757
1666090293225629761,0.7999999999999999,0.0,0.0,0.0,0.0,-4.996003610813204e-16
1666090293276306867,0.7999999999999999,0.0,0.0,0.0,0.0,0.017821045592427254
1666090293325929133,0.7999999999999999,0.0,0.0,0.0,0.0,0.017821045592427254
1666090293376042211,0.7999999999999999,0.0,0.0,0.0,0.0,0.11782104559242726
1666090293425420577,0.7999999999999999,0.0,0.0,0.0,0.0,0.17453292519943245
1666090293475405763,0.7999999999999999,0.0,0.0,0.0,0.0,0.17453292519943245
1666090293525277117,0.7999999999999999,0.0,0.0,0.0,0.0,0.27453292519943245
1666090293575426148,0.7999999999999999,0.0,0.0,0.0,0.0,0.3490658503988654
1666090293625275301,0.7999999999999999,0.0,0.0,0.0,0.0,0.3490658503988654
1666090293675926001,0.7999999999999999,0.0,0.0,0.0,0.0,0.3490658503988654
1666090293725379496,0.7999999999999999,0.0,0.0,0.0,0.0,0.3490658503988654
1666090293775769381,0.7999999999999999,0.0,0.0,0.0,0.0,0.3490658503988654
1666090293826222306,0.7999999999999999,0.0,0.0,0.0,0.0,0.4490658503988654
1666090293875620975,0.7999999999999999,0.0,0.0,0.0,0.0,0.5235987755982984
1666090293926351393,0.7999999999999999,0.0,0.0,0.0,0.0,0.5235987755982984
1666090293975373027,0.7999999999999999,0.0,0.0,0.0,0.0,0.5235987755982984
1666090294025188638,0.7999999999999999,0.0,0.0,0.0,0.0,0.5235987755982984
1666090294075496853,0.7999999999999999,0.0,0.0,0.0,0.0,0.5235987755982984
1666090294125646649,0.7999999999999999,0.0,0.0,0.0,0.0,0.6235987755982983
1666090294175399226,0.7999999999999999,0.0,0.0,0.0,0.0,0.6981317007977313
1666090294225469547,0.7999999999999999,0.0,0.0,0.0,0.0,0.6981317007977313
1666090294275672793,0.7595683932304382,0.0,0.0,0.0,0.0,0.6981317007977313
1666090294325257682,0.7595683932304382,0.0,0.0,0.0,0.0,0.6981317007977313
1666090294375628111,0.7595683932304382,0.0,0.0,0.0,0.0,0.6981317007977313
1666090294425197974,0.7093903060401019,0.0,0.0,0.0,0.0,0.7981317007977313
1666090294475491553,0.6719911098480223,0.0,0.0,0.0,0.0,0.8726646259971643
1666090294525678756,0.6060733199119568,0.0,0.0,0.0,0.0,0.8726646259971643
1666090294575315028,0.6060733199119568,0.0,0.0,0.0,0.0,0.8726646259971643
1666090294625487308,0.5715218782424927,0.0,0.0,0.0,0.0,0.8726646259971643
1666090294676064707,0.5715218782424927,0.0,0.0,0.0,0.0,0.8726646259971643
1666090294726273498,0.538394033908844,0.0,0.0,0.0,0.0,0.8726646259971643
1666090294775408167,0.538394033908844,0.0,0.0,0.0,0.0,0.8726646259971643
1666090294825321621,0.538394033908844,0.0,0.0,0.0,0.0,0.8726646259971643
1666090294875136530,0.553394033908844,0.0,0.0,0.0,0.0,0.9350589176299025
1666090294925314019,0.4714527146036521,0.0,0.0,0.0,0.0,1.0350589176299025
1666090294975308035,0.46150615811347956,0.0,0.0,0.0,0.0,1.0471975511965972
1666090295025512723,0.44803899526596064,0.0,0.0,0.0,0.0,1.0471975511965972
1666090295075530307,0.44803899526596064,0.0,0.0,0.0,0.0,1.0471975511965972
1666090295125296544,0.44803899526596064,0.0,0.0,0.0,0.0,1.0471975511965972
1666090295175211331,0.43870019912719727,0.0,0.0,0.0,0.0,1.0471975511965972
1666090295225601855,0.43870019912719727,0.0,0.0,0.0,0.0,1.0471975511965972
1666090295275394846,0.4537001991271973,0.0,0.0,0.0,0.0,1.0471975511965972
1666090295325375977,0.4269983470439911,0.0,0.0,0.0,0.0,1.0471975511965972
1666090295375402227,0.4269983470439911,0.0,0.0,0.0,0.0,1.0471975511965972
1666090295426215291,0.42577746510505676,0.0,0.0,0.0,0.0,1.0471975511965972
1666090295475466101,0.42577746510505676,0.0,0.0,0.0,0.0,1.0471975511965972
1666090295525205071,0.42820766568183893,0.0,0.0,0.0,0.0,1.0471975511965972
1666090295575466548,0.43364667892456055,0.0,0.0,0.0,0.0,0.8726646259971643
1666090295625825711,0.4467836618423462,0.0,0.0,0.0,0.0,0.8726646259971643
1666090295675420170,0.4467836618423462,0.0,0.0,0.0,0.0,0.8726646259971643
1666090295725285461,0.4467836618423462,0.0,0.0,0.0,0.0,0.8726646259971643
1666090295776221044,0.4617836618423462,0.0,0.0,0.0,0.0,0.8726646259971643
1666090295825136123,0.46243923902511597,0.0,0.0,0.0,0.0,0.8726646259971643
1666090295875408756,0.477439239025116,0.0,0.0,0.0,0.0,0.8726646259971643
1666090295925552670,0.48007592558860773,0.0,0.0,0.0,0.0,0.8726646259971643
1666090295975455503,0.49507592558860775,0.0,0.0,0.0,0.0,0.8469043197672698
1666090296025359266,0.5100759255886077,0.0,0.0,0.0,0.0,0.7340538801218874
1666090296075562325,0.5148506760597229,0.0,0.0,0.0,0.0,0.6981317007977313
1666090296126103623,0.5298506760597229,0.0,0.0,0.0,0.0,0.6981317007977313
1666090296175365611,0.5448506760597229,0.0,0.0,0.0,0.0,0.6981317007977313
1666090296225336070,0.5598506760597229,0.0,0.0,0.0,0.0,0.6981317007977313
1666090296275641039,0.574850676059723,0.0,0.0,0.0,0.0,0.5618826372124001
1666090296325431248,0.5716351866722107,0.0,0.0,0.0,0.0,0.5235987755982984
1666090296375111346,0.5716351866722107,0.0,0.0,0.0,0.0,0.5235987755982984
1666090296425414558,0.5051936507225037,0.0,0.0,0.0,0.0,0.5235987755982984
1666090296475484266,0.4952647387981415,0.0,0.0,0.0,0.0,0.5235987755982984
1666090296525278182,0.4952647387981415,0.0,0.0,0.0,0.0,0.5235987755982984
1666090296576481787,0.4952647387981415,0.0,0.0,0.0,0.0,0.5235987755982984
1666090296625167297,0.47512513399124146,0.0,0.0,0.0,0.0,0.5235987755982984
1666090296675119519,0.47512513399124146,0.0,0.0,0.0,0.0,0.5235987755982984
1666090296725443362,0.43385714292526245,0.0,0.0,0.0,0.0,0.5235987755982984
1666090296775523635,0.4344968199729919,0.0,0.0,0.0,0.0,0.5235987755982984
1666090296825357192,0.4146209061145782,0.0,0.0,0.0,0.0,0.5235987755982984
1666090296875208037,0.4146209061145782,0.0,0.0,0.0,0.0,0.5235987755982984
1666090296925198605,0.4146209061145782,0.0,0.0,0.0,0.0,0.5235987755982984
1666090296975349486,0.39276626706123346,0.0,0.0,0.0,0.0,0.5235987755982984
1666090297025557655,0.4077662670612335,0.0,0.0,0.0,0.0,0.5235987755982984
1666090297075375323,0.4227662670612335,0.0,0.0,0.0,0.0,0.5235987755982984
1666090297125493319,0.27276626706123347,0.0,0.0,0.0,0.0,0.3378227985183459
1666090297175359782,0.2877662670612335,0.0,0.0,0.0,0.0,0.3687581619389717
1666090297225265577,0.3027662670612335,0.0,0.0,0.0,0.0,0.4223632148124644
1666090297275413206,0.3177662670612335,0.0,0.0,0.0,0.0,0.46747851117541195
1666090297325468836,0.3205510973930359,0.0,0.0,0.0,0.0,0.5235987755982984
1666090297375266780,0.17055109739303587,0.0,0.0,0.0,0.0,0.5076297513580169
1666090297425291710,0.020551097393035844,0.0,0.0,0.0,0.0,0.4916607271177354
1666090297475130128,0.0,0.0,0.0,0.0,0.0,0.4894728539681769
1666090297525754948,0.0,0.0,0.0,0.0,0.0,0.5312395318236285
1666090297575544863,0.0,0.0,0.0,0.0,0.0,0.5270599552681866
1666090297625413789,0.0,0.0,0.0,0.0,0.0,0.5235987755982984
1666090297675201937,0.0,0.0,0.0,0.0,0.0,0.529034382339926
1666090297725596500,0.0,0.0,0.0,0.0,0.0,0.529034382339926
1666090297775189513,0.0,0.0,0.0,0.0,0.0,0.5409669005942428
1666090297825539585,0.0,0.0,0.0,0.0,0.0,0.5409669005942428
1666090297875339204,0.0,0.0,0.0,0.0,0.0,0.5464061573395815
1666090297925267686,0.0,0.0,0.0,0.0,0.0,0.5464061573395815
1666090297975812249,0.0,0.0,0.0,0.0,0.0,0.5464061573395815
1666090298025806728,0.0,0.0,0.0,0.0,0.0,0.48794483860286764
1666090298075161753,0.0,0.0,0.0,0.0,0.0,0.42113990147575775
1666090298125160645,0.0,0.0,0.0,0.0,0.0,0.42113990147575775
1666090298175882091,0.0,0.0,0.0,0.0,0.0,0.40079972289811094
1666090298225201023,0.0,0.0,0.0,0.0,0.0,0.3490658503988654
1666090298275260108,0.0,0.0,0.0,0.0,0.0,0.29973743227152955
1666090298325681223,0.0,0.0,0.0,0.0,0.0,0.29973743227152955
1666090298375471201,0.0,0.0,0.0,0.0,0.0,0.26157699021220787
1666090298425343787,0.0,0.0,0.0,0.0,0.0,0.26157699021220787
1666090298475421016,0.0,0.0,0.0,0.0,0.0,0.17453292519943245
1666090298525632341,0.0,0.0,0.0,0.0,0.0,0.17453292519943245
1666090298576052426,0.0,0.0,0.0,0.0,0.0,0.17453292519943245
1666090298625201194,0.0,0.0,0.0,0.0,0.0,0.07453292519943244
1666090298675722882,0.0,0.0,0.0,0.0,0.0,-4.996003610813204e-16
1666090298725585606,0.0,0.0,0.0,0.0,0.0,-4.996003610813204e-16
1666090298775266565,0.0,0.0,0.0,0.0,0.0,-4.996003610813204e-16
1666090298825275507,0.0,0.0,0.0,0.0,0.0,-4.996003610813204e-16
1666090298875210103,0.0,0.0,0.0,0.0,0.0,-4.996003610813204e-16
1666090298925172782,0.0,0.0,0.0,0.0,0.0,-4.996003610813204e-16
1666090298975393546,0.0,0.0,0.0,0.0,0.0,-4.996003610813204e-16
1666090299025217404,0.0,0.0,0.0,0.0,0.0,-4.996003610813204e-16
1666090299075288420,0.0,0.0,0.0,0.0,0.0,-4.996003610813204e-16
1666090299125385753,0.0,0.0,0.0,0.0,0.0,-4.996003610813204e-16
1666090299175386099,0.0,0.0,0.0,0.0,0.0,-4.996003610813204e-16
1666090299225654669,0.0,0.0,0.0,0.0,0.0,-4.996003610813204e-16
1666090299275284201,0.0,0.0,0.0,0.0,0.0,-4.996003610813204e-16
1666090299325499786,0.0,0.0,0.0,0.0,0.0,-4.996003610813204e-16
1666090299375316327,0.0,0.0,0.0,0.0,0.0,-4.996003610813204e-16
1666090299425775359,0.0,0.0,0.0,0.0,0.0,-4.996003610813204e-16
1666090299475136833,0.0,0.0,0.0,0.0,0.0,-4.996003610813204e-16
1666090299525437525,0.0,0.0,0.0,0.0,0.0,-4.996003610813204e-16
1666090299575223593,0.0,0.0,0.0,0.0,0.0,-4.996003610813204e-16
1666090299625343112,0.0,0.0,0.0,0.0,0.0,-4.996003610813204e-16
1666090299675267342,0.0,0.0,0.0,0.0,0.0,-4.996003610813204e-16
1666090299725378056,0.0,0.0,0.0,0.0,0.0,-4.996003610813204e-16
1666090299775328062,0.0,0.0,0.0,0.0,0.0,-4.996003610813204e-16
1666090299825384664,0.0,0.0,0.0,0.0,0.0,-4.996003610813204e-16
1666090299875374252,0.0,0.0,0.0,0.0,0.0,-4.996003610813204e-16
1666090299925316327,0.0,0.0,0.0,0.0,0.0,-4.996003610813204e-16
1666090299975179720,0.0,0.0,0.0,0.0,0.0,-4.996003610813204e-16
1666090300025487004,0.0,0.0,0.0,0.0,0.0,0.0999999999999995
1666090300075459906,0.0,0.0,0.0,0.0,0.0,0.17453292519943245
1666090300125708019,0.0,0.0,0.0,0.0,0.0,0.17453292519943245
1666090300176219431,0.0,0.0,0.0,0.0,0.0,0.17453292519943245
1666090300225195876,0.0,0.0,0.0,0.0,0.0,0.17453292519943245
1666090300276146388,0.0,0.0,0.0,0.0,0.0,0.0
1666090300325312490,0.0,0.0,0.0,0.0,0.0,0.1
1666090300375369871,0.0,0.0,0.0,0.0,0.0,0.17453292519943245
1666090300425384208,0.0,0.0,0.0,0.0,0.0,0.17453292519943245
1666090300475617433,0.0,0.0,0.0,0.0,0.0,0.17453292519943245
1666090300525392678,0.0,0.0,0.0,0.0,0.0,0.17453292519943245
1666090300575428203,0.0,0.0,0.0,0.0,0.0,0.17453292519943245
1666090300625288281,0.0,0.0,0.0,0.0,0.0,0.17453292519943245
1666090300676156172,0.0,0.0,0.0,0.0,0.0,0.2193320564438289
1666090300725139045,0.0,0.0,0.0,0.0,0.0,0.22198244850279836
1666090300775291979,0.0,0.0,0.0,0.0,0.0,0.22090049510441315
1666090300825280806,0.0,0.0,0.0,0.0,0.0,0.22090049510441315
1666090300875310664,0.0,0.0,0.0,0.0,0.0,0.2253989991649514
1666090300925717638,0.0,0.0,0.0,0.0,0.0,0.2253989991649514
1666090300975227211,0.0,0.0,0.0,0.0,0.0,0.22532367428831493
1666090301025926275,0.0,0.0,0.0,0.0,0.0,0.22532367428831493
1666090301075725505,0.0,0.0,0.0,0.0,0.0,0.22673897661310558
1666090301125424966,0.0,0.0,0.0,0.0,0.0,0.22392468251336356
1666090301175244942,0.0,0.0,0.0,0.0,0.0,0.22392468251336356
1666090301225392409,0.0,0.0,0.0,0.0,0.0,0.2292089874723056
1666090301275307954,0.0,0.0,0.0,0.0,0.0,0.2292089874723056
1666090301325288044,0.0,0.0,0.0,0.0,0.0,0.2254707709455483
1666090301375299502,0.0,0.0,0.0,0.0,0.0,0.2254707709455483
1666090301425337210,0.0,0.0,0.0,0.0,0.0,0.2254707709455483
1666090301475122923,0.0,0.0,0.0,0.0,0.0,0.21792914702837568
1666090301525227456,0.0,0.0,0.0,0.0,0.0,0.21323996062675396
1666090301575321549,0.0,0.0,0.0,0.0,0.0,0.21323996062675396
1666090301625917649,0.0,0.0,0.0,0.0,0.0,0.17453292519943245
1666090301675193440,0.0,0.0,0.0,0.0,0.0,0.17453292519943245
1666090301725633082,0.0,0.0,0.0,0.0,0.0,0.17453292519943245
1666090301775497324,0.0,0.0,0.0,0.0,0.0,0.17453292519943245
1666090301825323915,0.0,0.0,0.0,0.0,0.0,0.17453292519943245
1666090301875241596,0.0,0.0,0.0,0.0,0.0,0.17453292519943245
1666090301925177812,0.0,0.0,0.0,0.0,0.0,0.17453292519943245
1666090301975135731,0.0,0.0,0.0,0.0,0.0,0.17453292519943245
1666090302025502066,0.0,0.0,0.0,0.0,0.0,0.17453292519943245
1666090302075506113,0.0,0.0,0.0,0.0,0.0,0.17453292519943245
1666090302125480092,0.0,0.0,0.0,0.0,0.0,0.17453292519943245
1666090302175308133,0.0,0.0,0.0,0.0,0.0,0.17453292519943245
1666090302225979273,0.0,0.0,0.0,0.0,0.0,0.17453292519943245
1666090302275345931,0.0,0.0,0.0,0.0,0.0,0.17453292519943245
1666090302325210624,0.0,0.0,0.0,0.0,0.0,0.17453292519943245
1666090302375303455,0.0,0.0,0.0,0.0,0.0,0.17453292519943245
1666090302427708128,0.0,0.0,0.0,0.0,0.0,0.17453292519943245
1666090302475383322,0.0,0.0,0.0,0.0,0.0,0.17453292519943245
1666090302525518111,0.0,0.0,0.0,0.0,0.0,0.17453292519943245
1666090302577460906,0.0,0.0,0.0,0.0,0.0,0.17453292519943245
1666090302625172768,0.0,0.0,0.0,0.0,0.0,0.17453292519943245
1666090302675339263,0.0,0.0,0.0,0.0,0.0,0.17453292519943245
1666090302725815452,0.0,0.0,0.0,0.0,0.0,0.17453292519943245
1666090302775249895,0.0,0.0,0.0,0.0,0.0,0.17453292519943245
1666090302825665340,0.0,0.0,0.0,0.0,0.0,0.17453292519943245
1666090302875498189,0.0,0.0,0.0,0.0,0.0,0.17453292519943245
1666090302928079703,0.0,0.0,0.0,0.0,0.0,0.17453292519943245
1666090302975179122,0.0,0.0,0.0,0.0,0.0,0.17453292519943245
1666090303025325348,0.0,0.0,0.0,0.0,0.0,0.17453292519943245
1666090303075766526,0.0,0.0,0.0,0.0,0.0,0.17453292519943245
1666090303125275219,0.0,0.0,0.0,0.0,0.0,0.17453292519943245
1666090303175593923,0.0,0.0,0.0,0.0,0.0,0.07453292519943244
1666090303225625357,0.0,0.0,0.0,0.0,0.0,-4.996003610813204e-16
1666090303275350444,0.0,0.0,0.0,0.0,0.0,-4.996003610813204e-16
1666090303325443290,0.0,0.0,0.0,0.0,0.0,-4.996003610813204e-16
1666090303375223606,0.0,0.0,0.0,0.0,0.0,-4.996003610813204e-16
1666090303425486864,0.0,0.0,0.0,0.0,0.0,-4.996003610813204e-16
1666090303475179139,0.0,0.0,0.0,0.0,0.0,-4.996003610813204e-16
1666090303525301564,0.0,0.0,0.0,0.0,0.0,-4.996003610813204e-16
1666090303575346742,0.0,0.0,0.0,0.0,0.0,-4.996003610813204e-16
1666090303625320364,0.0,0.0,0.0,0.0,0.0,-4.996003610813204e-16
1666090303675769618,0.0,0.0,0.0,0.0,0.0,0.0999999999999995
1666090303725259387,0.0,0.0,0.0,0.0,0.0,0.17453292519943245
1666090303775246288,0.0,0.0,0.0,0.0,0.0,0.17453292519943245
1666090303825576335,0.0,0.0,0.0,0.0,0.0,0.17453292519943245
1666090303876132406,0.0,0.0,0.0,0.0,0.0,0.17453292519943245
1666090303925749290,0.0,0.0,0.0,0.0,0.0,0.17453292519943245
