%time,field.x,field.y,field.z
1666091913096232758,0.0,0.0,0.0
1666091913148509312,0.0,0.0,0.0
1666091913282744707,0.0,0.0,0.0
1666091913359656285,0.0,0.0,0.0
1666091913359777184,0.0,0.0,0.0
1666091913423081334,0.0,0.0,0.0
1666091913524481749,0.0,0.0,0.0
1666091913619304754,0.0,0.0,0.0
1666091913619523061,0.0,0.0,0.0
1666091913700141732,0.0,0.0,0.0
1666091913790631194,0.7766455411911011,-0.8885156512260437,0.0
1666091913878324942,0.7803516983985901,-0.8785987496376038,0.0
1666091913936198432,0.77696692943573,-0.8806504607200623,0.0
1666091914000202399,0.7913107872009277,-0.8963713049888611,0.0
1666091914097854477,0.7854527831077576,-0.890728235244751,0.0
1666091914262430662,0.7813873887062073,-0.8791143894195557,0.0
1666091914308157789,0.8076830506324768,-0.8314963579177856,0.0
1666091914356287260,0.8163092732429504,-0.8149490356445312,0.0
1666091914453336372,0.823927104473114,-0.8000670671463013,0.0
1666091914465464264,0.820448100566864,-0.7989720702171326,0.0
1666091914551228458,0.8211624622344971,-0.788310706615448,0.0
1666091914634473653,0.817698061466217,-0.7816836833953857,0.0
1666091914708398070,0.8208640813827515,-0.7663924694061279,0.0
1666091914797446550,0.8232367634773254,-0.7531657814979553,0.0
1666091914864262562,0.8241217136383057,-0.7369941473007202,0.0
1666091914969140446,0.8262239694595337,-0.7228248715400696,0.0
1666091915080811984,0.828419029712677,-0.7089230418205261,0.0
1666091915082399487,0.8307347297668457,-0.692885160446167,0.0
1666091915155297328,0.8320555686950684,-0.6726466417312622,0.0
1666091915251842123,0.8353692293167114,-0.6428911685943604,0.0
1666091915342719080,0.8369966745376587,-0.607498288154602,0.0
1666091915490550521,0.8369684815406799,-0.5739850401878357,0.0
1666091915491834859,0.8358723521232605,-0.5355506539344788,0.0
1666091915651954677,0.8343935012817383,-0.4972783029079437,0.0
1666091915653193566,0.8416547179222107,-0.46310335397720337,0.0
1666091915743344780,0.8394055962562561,-0.42219075560569763,0.0
1666091915810302267,0.8355689644813538,-0.384650856256485,0.0
1666091915879305387,0.8340901136398315,-0.3434287905693054,0.0
1666091916022661026,0.8360922932624817,-0.30269989371299744,0.0
1666091916024850473,0.8358739018440247,-0.2706494629383087,0.0
1666091916126284548,0.8372091054916382,-0.2386607974767685,0.0
1666091916213765012,0.8385447263717651,-0.21399620175361633,0.0
1666091916345861546,0.8420588970184326,-0.18645834922790527,0.0
1666091916364918906,0.8441131711006165,-0.17174217104911804,0.0
1666091916439482996,0.8467942476272583,-0.15588240325450897,0.0
1666091916490130884,0.8482024669647217,-0.14362071454524994,0.0
1666091916616819795,0.8496289849281311,-0.13365978002548218,0.0
1666091916618216482,0.8505083918571472,-0.12352056056261063,0.0
1666091916718999951,0.8506760001182556,-0.11812081933021545,0.0
1666091916773188276,0.8517276644706726,-0.11491921544075012,0.0
1666091916833203658,0.8525083065032959,-0.11570069193840027,0.0
1666091916893152243,0.8537006378173828,-0.11224878579378128,0.0
1666091916980837221,0.8565238118171692,-0.10792400687932968,0.0
1666091917068835328,0.8600701689720154,-0.10425577312707901,0.0
1666091917157063839,0.8715686202049255,-0.11402751505374908,0.0
1666091917262985239,0.8746045231819153,-0.11455313861370087,0.0
1666091917328801822,0.8830186128616333,-0.11307255923748016,0.0
1666091917397389978,0.8970581293106079,-0.11752810329198837,0.0
1666091917502111778,0.9040096998214722,-0.10985405743122101,0.0
1666091917503394815,0.9162448048591614,-0.10719695687294006,0.0
1666091917613804153,0.9170371890068054,-0.11160662025213242,0.0
1666091917715054634,0.9204437732696533,-0.11713730543851852,0.0
1666091917760304647,0.9401817917823792,-0.14230406284332275,0.0
1666091917808112614,0.9400001764297485,-0.14891287684440613,0.0
1666091917928046294,0.9418485164642334,-0.14806786179542542,0.0
1666091918036623288,0.933241605758667,-0.14986951649188995,0.0
1666091918124520344,0.9243484735488892,-0.1610582321882248,0.0
1666091918189197946,0.9172512292861938,-0.17607194185256958,0.0
1666091918255744748,0.9116135239601135,-0.19695842266082764,0.0
1666091918301708476,0.9120340943336487,-0.2218615710735321,0.0
1666091918388232445,0.9137567281723022,-0.2611357271671295,0.0
1666091918457406537,0.9154242873191833,-0.3161599338054657,0.0
1666091918532219902,0.9130462408065796,-0.364221453666687,0.0
1666091918598774131,0.9154270887374878,-0.4053771197795868,0.0
1666091918610852526,0.9230198860168457,-0.4344754219055176,0.0
1666091918739269204,0.9281726479530334,-0.46543678641319275,0.0
1666091918799431556,0.9333894848823547,-0.4921661615371704,0.0
1666091918857713786,0.9412357211112976,-0.5122231245040894,0.0
1666091918900797691,0.9546113014221191,-0.529129683971405,0.0
1666091918993993333,0.9691917896270752,-0.5477768182754517,0.0
1666091919041125877,0.9834718704223633,-0.5590330362319946,0.0
1666091919125804102,0.9964818954467773,-0.574753999710083,0.0
1666091919170601343,1.0077219009399414,-0.5868784785270691,0.0
1666091919248870407,1.0139682292938232,-0.5897151827812195,0.0
1666091919283763031,1.0228633880615234,-0.5909491181373596,0.0
1666091919370711396,1.0324690341949463,-0.5881004929542542,0.0
1666091919405840397,1.0446213483810425,-0.5840784907341003,0.0
1666091919461435264,1.0657918453216553,-0.5841665863990784,0.0
1666091919526394460,1.0805269479751587,-0.5786721706390381,0.0
1666091919608065131,1.1081922054290771,-0.5848437547683716,0.0
1666091919710414259,1.1390527486801147,-0.5967806577682495,0.0
1666091919770450459,1.1688823699951172,-0.614450216293335,0.0
1666091919866228207,1.1960127353668213,-0.6329980492591858,0.0
1666091919908141861,1.2221169471740723,-0.6521604061126709,0.0
1666091919971132066,1.2447184324264526,-0.670128583908081,0.0
1666091920026909055,1.2776325941085815,-0.701920211315155,0.0
1666091920144313073,1.2966673374176025,-0.7212380170822144,0.0
1666091920159001973,1.310400366783142,-0.7403605580329895,0.0
1666091920286728788,1.321194052696228,-0.7612390518188477,0.0
1666091920369233783,1.3347667455673218,-0.7858848571777344,0.0
1666091920470091583,1.3418488502502441,-0.8093230724334717,0.0
1666091920525896779,1.3528739213943481,-0.8332661986351013,0.0
1666091920643725953,1.3614596128463745,-0.8570964932441711,0.0
1666091920693640218,1.3629560470581055,-0.8769637942314148,0.0
1666091920766806588,1.3593605756759644,-0.8942722082138062,0.0
1666091920845167533,1.354638934135437,-0.910502016544342,0.0
1666091920884526381,1.3501124382019043,-0.9262739419937134,0.0
1666091920941079311,1.3417706489562988,-0.9401290416717529,0.0
1666091921027035745,1.3297157287597656,-0.9552417993545532,0.0
1666091921105119778,1.3157024383544922,-0.9710333347320557,0.0
1666091921180923103,1.3026583194732666,-0.9862226843833923,0.0
1666091921243109905,1.2932642698287964,-1.0091593265533447,0.0
1666091921303519300,1.282399296760559,-1.0334296226501465,0.0
1666091921403703953,1.2677576541900635,-1.054824948310852,0.0
1666091921466793491,1.251012921333313,-1.0773125886917114,0.0
1666091921634732136,1.2234160900115967,-1.0888715982437134,0.0
1666091921636940520,1.1881840229034424,-1.100049376487732,0.0
1666091921696841486,1.1547969579696655,-1.1077170372009277,0.0
1666091921807257702,1.123396635055542,-1.1151230335235596,0.0
1666091921808541435,1.087093472480774,-1.1282556056976318,0.0
1666091921935606515,1.05530846118927,-1.1370491981506348,0.0
1666091921976327540,1.0261735916137695,-1.1471306085586548,0.0
1666091922031796717,0.9989121556282043,-1.1551411151885986,0.0
1666091922122307932,0.9866103529930115,-1.1581374406814575,0.0
1666091922209867088,0.974206268787384,-1.1511805057525635,0.0
1666091922314730015,0.9708644151687622,-1.1342405080795288,0.0
1666091922409369350,0.9729053974151611,-1.1065489053726196,0.0
1666091922418176400,0.9787908792495728,-1.0711116790771484,0.0
1666091922498226329,0.9830572605133057,-1.033974528312683,0.0
1666091922597688477,0.9915007948875427,-0.98249751329422,0.0
1666091922689604610,0.9901373386383057,-0.9411812424659729,0.0
1666091922780869544,0.9932770729064941,-0.8937402963638306,0.0
1666091922888962383,0.9957313537597656,-0.8344874978065491,0.0
1666091922922530170,1.0018610954284668,-0.7722896337509155,0.0
1666091922976088444,1.0068565607070923,-0.6998786926269531,0.0
1666091923064428247,1.0106534957885742,-0.6079230904579163,0.0
1666091923195357411,1.0148123502731323,-0.5170207619667053,0.0
1666091923234863777,1.0248804092407227,-0.38517746329307556,0.0
1666091923308722468,1.024157166481018,-0.26907485723495483,0.0
1666091923378641488,1.0107649564743042,-0.17876189947128296,0.0
1666091923533533521,0.9906615614891052,-0.08928965032100677,0.0
1666091923546126468,0.9552149772644043,0.008814677596092224,0.0
1666091923630996477,0.9163128733634949,0.09226100146770477,0.0
1666091923739871805,0.890349268913269,0.16033250093460083,0.0
1666091923824104280,0.8584879040718079,0.22081036865711212,0.0
1666091923941731915,0.8156505823135376,0.2596343457698822,0.0
1666091923992308615,0.7886137962341309,0.2889742851257324,0.0
1666091924077175456,0.7668499946594238,0.30678337812423706,0.0
1666091924130037085,0.7496568560600281,0.32178595662117004,0.0
1666091924256015576,0.7352103590965271,0.33287513256073,0.0
1666091924273888729,0.730766773223877,0.33457261323928833,0.0
1666091924371296925,0.7237175107002258,0.3404105007648468,0.0
1666091924455554677,0.7181834578514099,0.34211254119873047,0.0
1666091924587473711,0.7120679616928101,0.3449043929576874,0.0
1666091924662564579,0.7068878412246704,0.3437316417694092,0.0
1666091924706580921,0.7104747891426086,0.34221211075782776,0.0
1666091924784975580,0.713138222694397,0.3411235213279724,0.0
1666091924861790623,0.7206705212593079,0.33483654260635376,0.0
1666091924930014020,0.7367236614227295,0.33457955718040466,0.0
1666091924979411313,0.762679934501648,0.33494943380355835,0.0
1666091925063967902,0.7829806804656982,0.3304457664489746,0.0
1666091925109785550,0.8045213222503662,0.325065016746521,0.0
1666091925194224357,0.8369361162185669,0.3271866738796234,0.0
1666091925265625199,0.8932970762252808,0.335222065448761,0.0
1666091925395129605,0.9424731731414795,0.35368093848228455,0.0
1666091925446717901,0.9856463670730591,0.3744771480560303,0.0
1666091925534184679,1.0414808988571167,0.3859485983848572,0.0
1666091925582444768,1.0905416011810303,0.3997443914413452,0.0
1666091925672372701,1.1331944465637207,0.41406241059303284,0.0
1666091925716382334,1.1669137477874756,0.43230438232421875,0.0
1666091925826698089,1.1854084730148315,0.4560836851596832,0.0
1666091925859097104,1.2003605365753174,0.4739898145198822,0.0
1666091925942073457,1.2176411151885986,0.48354560136795044,0.0
1666091926018315178,1.2280222177505493,0.5046343803405762,0.0
1666091926092830736,1.243394136428833,0.5316013097763062,0.0
1666091926178122668,1.247767686843872,0.5529715418815613,0.0
1666091926238525782,1.247432827949524,0.5723668932914734,0.0
1666091926386987377,1.243301272392273,0.5894325375556946,0.0
1666091926434305333,1.2375965118408203,0.6027765274047852,0.0
1666091926515622115,1.2362446784973145,0.611967921257019,0.0
1666091926568361833,1.233003854751587,0.6180930137634277,0.0
1666091926654287715,1.231886625289917,0.6202178001403809,0.0
1666091926703231857,1.2302659749984741,0.6202981472015381,0.0
1666091926766394019,1.2282202243804932,0.6178134083747864,0.0
1666091926862039729,1.2251826524734497,0.611404538154602,0.0
1666091926923167692,1.2202165126800537,0.6049105525016785,0.0
1666091926988995848,1.2147741317749023,0.5967869758605957,0.0
1666091927069931017,1.2118091583251953,0.5923163294792175,0.0
1666091927113851195,1.2052104473114014,0.5887161493301392,0.0
1666091927197673239,1.1918959617614746,0.5899598598480225,0.0
1666091927247141036,1.1735678911209106,0.5937116742134094,0.0
1666091927342891086,1.1535853147506714,0.5969910025596619,0.0
1666091927383411208,1.1337525844573975,0.6085001230239868,0.0
1666091927471057127,1.109834909439087,0.615312397480011,0.0
1666091927546706357,1.0792526006698608,0.6227351427078247,0.0
1666091927585301670,1.0474169254302979,0.6305319666862488,0.0
1666091927650157648,1.0162196159362793,0.6357078552246094,0.0
1666091927735255077,0.9806147813796997,0.6382452845573425,0.0
1666091927815429469,0.9416686296463013,0.6452596783638,0.0
1666091927852913069,0.9045270681381226,0.6528914570808411,0.0
1666091927918152074,0.8649412393569946,0.662479043006897,0.0
1666091928029949477,0.8285512328147888,0.6719692945480347,0.0
1666091928074656201,0.789786159992218,0.6827937364578247,0.0
1666091928139725154,0.75185227394104,0.6944625377655029,0.0
1666091928213190118,0.7142725586891174,0.7064756155014038,0.0
1666091928332387477,0.6810046434402466,0.7206313014030457,0.0
1666091928429642545,0.6520980000495911,0.7399530410766602,0.0
1666091928472305556,0.6264523863792419,0.7558112144470215,0.0
1666091928510591788,0.598852276802063,0.7695869207382202,0.0
1666091928627371526,0.5776301026344299,0.7819907069206238,0.0
1666091928673620779,0.561053454875946,0.7930225729942322,0.0
1666091928748106302,0.5467237830162048,0.7954471707344055,0.0
1666091928847696183,0.544666051864624,0.795585572719574,0.0
1666091928952301042,0.5540459752082825,0.7903788685798645,0.0
1666091928989462945,0.5728836059570312,0.7824752330780029,0.0
1666091929056279977,0.6003941893577576,0.7767156362533569,0.0
1666091929105911030,0.6146842241287231,0.7760215401649475,0.0
1666091929230739289,0.6449366211891174,0.7756333947181702,0.0
1666091929285139723,0.6856735944747925,0.7758615612983704,0.0
1666091929351591459,0.7341431975364685,0.7652279734611511,0.0
1666091929422631647,0.7977613210678101,0.7414433360099792,0.0
1666091929602142671,0.8745971918106079,0.7093232870101929,0.0
1666091929604305859,0.9566357731819153,0.6564090251922607,0.0
1666091929746023908,1.0295768976211548,0.5957111120223999,0.0
1666091929788227101,1.0967628955841064,0.534694254398346,0.0
1666091929842123085,1.1556791067123413,0.47347569465637207,0.0
1666091929956593437,1.2050801515579224,0.42248407006263733,0.0
1666091930012992329,1.2552882432937622,0.3425465226173401,0.0
1666091930144663478,1.2957565784454346,0.28085529804229736,0.0
1666091930146102660,1.3361438512802124,0.24779164791107178,0.0
1666091930307321983,1.3689703941345215,0.23163871467113495,0.0
1666091930348134475,1.3955934047698975,0.21515972912311554,0.0
1666091930455178104,1.4070605039596558,0.21056680381298065,0.0
1666091930553782719,1.4264203310012817,0.20128768682479858,0.0
1666091930633471573,1.4317928552627563,0.19403058290481567,0.0
1666091930736973499,1.4358044862747192,0.1850484013557434,0.0
1666091930824168805,1.4356310367584229,0.1783018857240677,0.0
1666091930938805752,1.4331343173980713,0.173585444688797,0.0
1666091931044949289,1.4324101209640503,0.16906963288784027,0.0
1666091931135288501,1.4210240840911865,0.16200096905231476,0.0
1666091931136813842,1.4105702638626099,0.15269488096237183,0.0
1666091931241026629,1.3971014022827148,0.14609453082084656,0.0
1666091931311832858,1.3872720003128052,0.14486223459243774,0.0
1666091931398148607,1.3633617162704468,0.139293372631073,0.0
1666091931516594588,1.3314402103424072,0.12366922944784164,0.0
1666091931598158386,1.3022191524505615,0.11501597613096237,0.0
1666091931633082237,1.2717574834823608,0.10624952614307404,0.0
1666091931689454686,1.2467573881149292,0.10738703608512878,0.0
1666091931744807342,1.2307946681976318,0.10882369428873062,0.0
1666091931873251971,1.2137163877487183,0.10804963111877441,0.0
1666091931916134449,1.1913756132125854,0.10682949423789978,0.0
1666091931969079232,1.1652191877365112,0.10553198307752609,0.0
1666091932078988445,1.130110502243042,0.10571078956127167,0.0
1666091932132327436,1.0984654426574707,0.1091560497879982,0.0
1666091932212230022,1.0698343515396118,0.11414378136396408,0.0
1666091932309585367,1.046724796295166,0.12577931582927704,0.0
1666091932344627222,1.0212898254394531,0.13094677031040192,0.0
1666091932413075326,0.9999790191650391,0.13911965489387512,0.0
1666091932500315295,0.9883109927177429,0.1457212269306183,0.0
1666091932606172199,0.9798091650009155,0.12761248648166656,0.0
1666091932682200297,0.9820515513420105,0.1408301144838333,0.0
1666091932740587463,0.9902570843696594,0.1259182095527649,0.0
1666091932786335875,0.9967774748802185,0.1106467992067337,0.0
1666091932873095224,1.0001314878463745,0.11945591866970062,0.0
1666091932947381570,1.0089443922042847,0.0939040258526802,0.0
1666091933009199772,1.0132149457931519,0.07503855973482132,0.0
1666091933052087682,1.035921335220337,0.056957971304655075,0.0
1666091933120463402,1.044960856437683,0.02521059662103653,0.0
1666091933197335662,1.055187463760376,-0.008077222853899002,0.0
1666091933304548321,1.0696513652801514,-0.030531857162714005,0.0
1666091933409625337,1.0846452713012695,-0.06312718987464905,0.0
1666091933452127745,1.0985382795333862,-0.09988733381032944,0.0
1666091933549900746,1.1110690832138062,-0.13590814173221588,0.0
1666091933584966739,1.1311346292495728,-0.1711883544921875,0.0
1666091933651736335,1.144793152809143,-0.2050807625055313,0.0
1666091933766639907,1.1587082147598267,-0.2353200763463974,0.0
1666091933773505684,1.1704679727554321,-0.2588105797767639,0.0
1666091933849756659,1.1778415441513062,-0.2780902087688446,0.0
1666091933951679611,1.1812794208526611,-0.2946881055831909,0.0
1666091934014384325,1.1852514743804932,-0.3078601658344269,0.0
1666091934079592385,1.189132809638977,-0.3173726499080658,0.0
1666091934182777048,1.1916424036026,-0.32520592212677,0.0
1666091934219502731,1.1918784379959106,-0.3346251845359802,0.0
1666091934284068867,1.188572645187378,-0.34171807765960693,0.0
1666091934353167528,1.1818968057632446,-0.3465045392513275,0.0
1666091934471121642,1.178053617477417,-0.34645700454711914,0.0
1666091934538752919,1.1725246906280518,-0.35256072878837585,0.0
1666091934590306688,1.1650713682174683,-0.3566979169845581,0.0
1666091934701381841,1.1571269035339355,-0.36305031180381775,0.0
1666091934788961541,1.1481271982192993,-0.37196269631385803,0.0
1666091934791186251,1.1407238245010376,-0.3847520053386688,0.0
1666091934881632183,1.128524899482727,-0.39708876609802246,0.0
1666091934965312525,1.1141480207443237,-0.40658456087112427,0.0
1666091935015178164,1.0939830541610718,-0.4189453423023224,0.0
1666091935089842830,1.0688225030899048,-0.42409035563468933,0.0
1666091935188189964,1.0382522344589233,-0.44168296456336975,0.0
1666091935257224101,1.002121090888977,-0.4565068185329437,0.0
1666091935319085256,0.968162477016449,-0.4676572382450104,0.0
1666091935391864426,0.9342374205589294,-0.4781560003757477,0.0
1666091935462559896,0.9005831480026245,-0.49843043088912964,0.0
1666091935580776787,0.8660836815834045,-0.5201838612556458,0.0
1666091935625012297,0.8399526476860046,-0.5353114008903503,0.0
1666091935730353090,0.8136903047561646,-0.5519211888313293,0.0
1666091935732175747,0.7884206175804138,-0.5681173205375671,0.0
1666091935847951255,0.7669185996055603,-0.5838111639022827,0.0
1666091935849435170,0.7499135136604309,-0.5953829884529114,0.0
1666091935962973132,0.7285214066505432,-0.5999436974525452,0.0
1666091936045588678,0.7120451331138611,-0.5975506901741028,0.0
1666091936092349743,0.7037453651428223,-0.5934012532234192,0.0
1666091936205008889,0.7044609785079956,-0.5888524651527405,0.0
1666091936248274400,0.7146270871162415,-0.5752479434013367,0.0
1666091936318433805,0.7264600396156311,-0.5613932013511658,0.0
1666091936373688438,0.7526782751083374,-0.5392362475395203,0.0
1666091936574849421,0.7688932418823242,-0.5092156529426575,0.0
1666091936616357049,0.812160849571228,-0.49290961027145386,0.0
1666091936667923689,0.8666306734085083,-0.4754156768321991,0.0
1666091936753928252,0.9239723682403564,-0.4550715386867523,0.0
1666091936892441666,0.979992151260376,-0.43237781524658203,0.0
1666091936952770912,1.0436259508132935,-0.4191770851612091,0.0
1666091937057229283,1.1011186838150024,-0.4119984805583954,0.0
1666091937172582066,1.1462492942810059,-0.3998846113681793,0.0
1666091937216602746,1.1903407573699951,-0.4019854664802551,0.0
1666091937266173945,1.2320789098739624,-0.3997798264026642,0.0
1666091937409466349,1.2652586698532104,-0.3837614953517914,0.0
1666091937410841662,1.2958937883377075,-0.3634960353374481,0.0
1666091937505031132,1.3223313093185425,-0.34248507022857666,0.0
1666091937591116058,1.3484128713607788,-0.3203536868095398,0.0
1666091937688784754,1.370560646057129,-0.29749584197998047,0.0
1666091937751981651,1.385603427886963,-0.27227678894996643,0.0
1666091937832882464,1.3984901905059814,-0.24263548851013184,0.0
1666091937956825574,1.408310055732727,-0.2163371443748474,0.0
1666091938030129084,1.4107962846755981,-0.18846945464611053,0.0
1666091938109823010,1.409082293510437,-0.15887291729450226,0.0
1666091938138513393,1.407088041305542,-0.1328705996274948,0.0
1666091938251336800,1.4008578062057495,-0.10591675341129303,0.0
1666091938253034354,1.4018383026123047,-0.07605567574501038,0.0
1666091938329065704,1.3993792533874512,-0.047507453709840775,0.0
1666091938401010433,1.3928579092025757,-0.02127160131931305,0.0
1666091938548033582,1.3903114795684814,0.003058548318222165,0.0
1666091938592304722,1.38924241065979,0.02666904218494892,0.0
1666091938645259061,1.3933889865875244,0.04926526919007301,0.0
1666091938749872883,1.388877272605896,0.07186869531869888,0.0
1666091938817214532,1.3833513259887695,0.09059268981218338,0.0
1666091938946453987,1.3759477138519287,0.10865719616413116,0.0
1666091938947866159,1.3572689294815063,0.12989602982997894,0.0
1666091939114504254,1.3350234031677246,0.14906682074069977,0.0
1666091939156471072,1.3120019435882568,0.16695715487003326,0.0
1666091939227460252,1.2923623323440552,0.17865894734859467,0.0
1666091939322786620,1.2775226831436157,0.1961260437965393,0.0
1666091939368438499,1.2675881385803223,0.19819077849388123,0.0
1666091939432420094,1.2582510709762573,0.19954325258731842,0.0
1666091939512937898,1.2619493007659912,0.21280667185783386,0.0
1666091939622191695,1.2768654823303223,0.21516180038452148,0.0
1666091939729207923,1.291439175605774,0.22935548424720764,0.0
1666091939826691303,1.2991595268249512,0.23280026018619537,0.0
1666091939876970203,1.3068645000457764,0.235938161611557,0.0
1666091939950969082,1.31028151512146,0.24486196041107178,0.0
1666091940027488816,1.3131459951400757,0.24837560951709747,0.0
1666091940120994484,1.3116543292999268,0.26070383191108704,0.0
1666091940207048311,1.3108923435211182,0.2753218710422516,0.0
1666091940246620361,1.3064476251602173,0.28880444169044495,0.0
1666091940308353490,1.3006452322006226,0.2989591658115387,0.0
1666091940378601786,1.2980852127075195,0.30940553545951843,0.0
1666091940445056189,1.2965315580368042,0.3238738179206848,0.0
1666091940515928801,1.2895616292953491,0.33846333622932434,0.0
1666091940644305869,1.2791945934295654,0.351595401763916,0.0
1666091940710976380,1.2657431364059448,0.3636683523654938,0.0
1666091940780980817,1.2493518590927124,0.3738172650337219,0.0
1666091940848700846,1.2292299270629883,0.38281571865081787,0.0
1666091940896159814,1.2105460166931152,0.3908505141735077,0.0
1666091940979717021,1.1900397539138794,0.39643821120262146,0.0
1666091941022769199,1.1645771265029907,0.40289270877838135,0.0
1666091941160296841,1.1376218795776367,0.407781720161438,0.0
1666091941196371179,1.1143970489501953,0.41162335872650146,0.0
1666091941277321939,1.093577265739441,0.41743963956832886,0.0
1666091941330253001,1.074292540550232,0.4226030707359314,0.0
1666091941406152958,1.0589648485183716,0.42754220962524414,0.0
1666091941439710838,1.0418410301208496,0.43499794602394104,0.0
1666091941505710214,1.0306291580200195,0.44177037477493286,0.0
1666091941564972324,1.0212087631225586,0.44912803173065186,0.0
1666091941626166084,1.0136289596557617,0.4563383460044861,0.0
1666091941733402562,1.0015629529953003,0.46509355306625366,0.0
1666091941794354020,0.9891754984855652,0.474107027053833,0.0
1666091941878820501,0.9775348901748657,0.4829472303390503,0.0
1666091941955466514,0.9683061242103577,0.48896268010139465,0.0
1666091942019046800,0.9580524563789368,0.49751555919647217,0.0
1666091942084409793,0.9502525329589844,0.5033371448516846,0.0
1666091942150943372,0.943211555480957,0.5072771310806274,0.0
1666091942196317535,0.9374305009841919,0.5096544623374939,0.0
1666091942289209071,0.9293860793113708,0.5107632279396057,0.0
1666091942329234589,0.9293211102485657,0.5141271948814392,0.0
1666091942432130532,0.9284365177154541,0.5164065957069397,0.0
1666091942537757314,0.9417198896408081,0.5233454704284668,0.0
1666091942625308067,0.947187066078186,0.5224833488464355,0.0
1666091942693655668,0.9546175599098206,0.5216344594955444,0.0
1666091942734418149,0.9657068848609924,0.5198879241943359,0.0
1666091942814472356,0.9760467410087585,0.5141444802284241,0.0
1666091942906015966,0.9870864748954773,0.5052977204322815,0.0
1666091942947458372,0.9996684193611145,0.493415504693985,0.0
1666091943018266534,1.014176607131958,0.47909000515937805,0.0
1666091943086127088,1.0291908979415894,0.4636599123477936,0.0
1666091943178414756,1.0396965742111206,0.44801872968673706,0.0
1666091943264744700,1.0547688007354736,0.4314075708389282,0.0
1666091943301317856,1.0725247859954834,0.4154653549194336,0.0
1666091943368633125,1.0963174104690552,0.40153637528419495,0.0
1666091943432183859,1.1116387844085693,0.3865561783313751,0.0
1666091943525537083,1.1262856721878052,0.3721804916858673,0.0
1666091943593098221,1.1400283575057983,0.36169740557670593,0.0
1666091943663473547,1.1520297527313232,0.3532942533493042,0.0
1666091943709058046,1.1691244840621948,0.3472888767719269,0.0
1666091943788560977,1.1773808002471924,0.34255048632621765,0.0
1666091943853816886,1.1847790479660034,0.3431818187236786,0.0
1666091943961952853,1.1867549419403076,0.3467845022678375,0.0
1666091944026402668,1.1889607906341553,0.3511366546154022,0.0
1666091944151653638,1.1874586343765259,0.35258176922798157,0.0
1666091944236260954,1.1873891353607178,0.3573884069919586,0.0
1666091944280342236,1.1860510110855103,0.3621174395084381,0.0
1666091944385174120,1.181063175201416,0.36761340498924255,0.0
1666091944386630209,1.1733797788619995,0.37158048152923584,0.0
1666091944585726476,1.157698154449463,0.36736783385276794,0.0
1666091944628338035,1.1443819999694824,0.36244383454322815,0.0
1666091944722042821,1.127476453781128,0.3547443747520447,0.0
1666091944768172819,1.10507071018219,0.3425677716732025,0.0
1666091944909217058,1.0798182487487793,0.3318665325641632,0.0
1666091944952620031,1.048985242843628,0.3158551752567291,0.0
1666091945083170355,1.0196481943130493,0.29842260479927063,0.0
1666091945124203550,0.9897128343582153,0.27979642152786255,0.0
1666091945172317371,0.9612960815429688,0.26162275671958923,0.0
1666091945235683871,0.9322483539581299,0.24004068970680237,0.0
1666091945312300040,0.9135196805000305,0.23205295205116272,0.0
1666091945373348676,0.8950635194778442,0.2180655598640442,0.0
1666091945520792575,0.8797782063484192,0.20538945496082306,0.0
1666091945568201192,0.8775060176849365,0.1921512335538864,0.0
1666091945627772608,0.8804579377174377,0.18342581391334534,0.0
1666091945703068300,0.8842564225196838,0.17730797827243805,0.0
1666091945818230484,0.9016252160072327,0.17558586597442627,0.0
1666091945857420806,0.9171307682991028,0.17314913868904114,0.0
1666091945916635267,0.9308290481567383,0.17454607784748077,0.0
1666091946016854940,0.9510524868965149,0.17297044396400452,0.0
1666091946087938525,0.9671147465705872,0.1696045845746994,0.0
1666091946187550505,0.9847575426101685,0.16131678223609924,0.0
1666091946236336866,0.9996432065963745,0.15164795517921448,0.0
1666091946297444138,1.0123984813690186,0.1447165161371231,0.0
1666091946377938628,1.0201469659805298,0.1364438533782959,0.0
1666091946523239318,1.026206135749817,0.12474235147237778,0.0
1666091946524639998,1.0306872129440308,0.10496824979782104,0.0
1666091946624593039,1.0337847471237183,0.08681583404541016,0.0
1666091946689192086,1.0368151664733887,0.06940357387065887,0.0
1666091946798126569,1.0388261079788208,0.047788120806217194,0.0
1666091946929414267,1.040751576423645,0.02479141764342785,0.0
1666091946930883461,1.0399532318115234,0.005081117153167725,0.0
1666091947033197449,1.0342235565185547,-0.014400634914636612,0.0
1666091947138993330,1.0272761583328247,-0.03602096438407898,0.0
1666091947140709523,1.0179502964019775,-0.05603765696287155,0.0
1666091947253778466,1.0069900751113892,-0.07430172711610794,0.0
1666091947348563820,0.9941354990005493,-0.09138430655002594,0.0
1666091947425965573,0.9793548583984375,-0.10832154005765915,0.0
1666091947472213240,0.9655448198318481,-0.12086257338523865,0.0
1666091947517460163,0.9466005563735962,-0.1337338387966156,0.0
1666091947625672966,0.9258561730384827,-0.14400680363178253,0.0
1666091947676546191,0.9067738056182861,-0.15095189213752747,0.0
1666091947741182113,0.8899152278900146,-0.15711399912834167,0.0
1666091947808629442,0.8754404187202454,-0.16217176616191864,0.0
1666091947868843829,0.8641453981399536,-0.165357768535614,0.0
1666091947991017643,0.8562474250793457,-0.16650499403476715,0.0
1666091948051132441,0.8496984243392944,-0.1668679267168045,0.0
1666091948158238855,0.8453003168106079,-0.16262400150299072,0.0
1666091948159732103,0.8406844735145569,-0.1617283672094345,0.0
1666091948307280298,0.8388723731040955,-0.15814784169197083,0.0
1666091948330814215,0.8377414345741272,-0.15629439055919647,0.0
1666091948441361830,0.839019238948822,-0.1489720195531845,0.0
1666091948467424909,0.8376458287239075,-0.14565744996070862,0.0
1666091948581841087,0.8366305232048035,-0.14310823380947113,0.0
1666091948588633315,0.8375208377838135,-0.14127640426158905,0.0
1666091948716994354,0.8388553261756897,-0.13813598453998566,0.0
1666091948770164793,0.8423030376434326,-0.13243447244167328,0.0
1666091948860149065,0.8433226943016052,-0.13112035393714905,0.0
1666091948924332570,0.8439605832099915,-0.1294412761926651,0.0
1666091948972775012,0.846088171005249,-0.12968766689300537,0.0
1666091949054374351,0.8476770520210266,-0.12975257635116577,0.0
1666091949129481613,0.8496504426002502,-0.1251945197582245,0.0
1666091949168998943,0.8504536151885986,-0.12564019858837128,0.0
1666091949240499474,0.8512130975723267,-0.12586252391338348,0.0
1666091949283485659,0.8521554470062256,-0.12648126482963562,0.0
1666091949350866273,0.8525241017341614,-0.12559957802295685,0.0
1666091949427644049,0.8537201285362244,-0.12607507407665253,0.0
1666091949493688233,0.8537486791610718,-0.12765932083129883,0.0
1666091949558805035,0.8535487055778503,-0.12864357233047485,0.0
1666091949630924488,0.8537904620170593,-0.12967614829540253,0.0
1666091949701705807,0.8533487319946289,-0.13135311007499695,0.0
1666091949766914282,0.8529314398765564,-0.13149213790893555,0.0
1666091949796634753,0.8526080846786499,-0.1320563703775406,0.0
1666091949861219040,0.8525679707527161,-0.1324598789215088,0.0
1666091949945267445,0.851722002029419,-0.13233573734760284,0.0
1666091950058917120,0.8519378304481506,-0.13058489561080933,0.0
1666091950134019904,0.8541492819786072,-0.1303359568119049,0.0
1666091950196140628,0.8557265400886536,-0.12431415915489197,0.0
1666091950240419956,0.8544007539749146,-0.10323365032672882,0.0
1666091950315096578,0.8480350375175476,-0.10135573148727417,0.0
1666091950408363559,0.8416692614555359,-0.09509223699569702,0.0
1666091950452352026,0.838172197341919,-0.08438864350318909,0.0
1666091950486318162,0.8418064713478088,-0.05397157371044159,0.0
1666091950594934967,0.8522554039955139,0.035583458840847015,0.0
1666091950651355685,0.8683103322982788,0.10461147874593735,0.0
1666091950732504093,0.8807670474052429,0.1649439036846161,0.0
1666091950776277917,0.8866845369338989,0.22873571515083313,0.0
1666091950865463670,0.8898783922195435,0.28197214007377625,0.0
1666091950949316183,0.892192542552948,0.3298631012439728,0.0
1666091950982740709,0.8951066732406616,0.37035879492759705,0.0
1666091951029326095,0.8979893326759338,0.40557289123535156,0.0
1666091951095846557,0.8931496739387512,0.43331530690193176,0.0
1666091951226102249,0.8891663551330566,0.45350295305252075,0.0
1666091951241166975,0.8847872614860535,0.4596799612045288,0.0
1666091951362003474,0.8764355182647705,0.45084086060523987,0.0
1666091951423572592,0.8769897222518921,0.42018723487854004,0.0
1666091951497244395,0.8795826435089111,0.39627742767333984,0.0
1666091951539552114,0.8909029960632324,0.37818634510040283,0.0
1666091951657841212,0.9062413573265076,0.3511856496334076,0.0
1666091951660667500,0.9167643189430237,0.30840617418289185,0.0
1666091951754175333,0.9428095817565918,0.26442840695381165,0.0
1666091951807255026,0.9556822776794434,0.21836280822753906,0.0
1666091951870097322,0.9772206544876099,0.20356708765029907,0.0
1666091951959332923,0.9918327927589417,0.18910270929336548,0.0
1666091952018120643,1.011250615119934,0.16879446804523468,0.0
1666091952107713883,0.9863297343254089,0.07495807111263275,0.0
1666091952176190641,0.9664491415023804,-0.012184761464595795,0.0
1666091952259505629,0.9413216710090637,-0.10848906636238098,0.0
1666091952300222993,0.9033662676811218,-0.206558495759964,0.0
1666091952392786302,0.9005650281906128,-0.24617469310760498,0.0
1666091952456692172,0.8644253015518188,-0.3335637152194977,0.0
1666091952556295213,0.831143319606781,-0.41283920407295227,0.0
1666091952628339199,0.802894651889801,-0.4851672649383545,0.0
1666091952700095663,0.7684123516082764,-0.5526676774024963,0.0
1666091952789383554,0.7511349320411682,-0.6079927086830139,0.0
1666091952872339491,0.7422894835472107,-0.6506116390228271,0.0
1666091953025668808,0.6994973421096802,-0.6742593050003052,0.0
1666091953026847366,0.6757615208625793,-0.6933240294456482,0.0
1666091953118373189,0.666164219379425,-0.7019752264022827,0.0
1666091953195011834,0.6535200476646423,-0.6954206228256226,0.0
1666091953294064088,0.6595638990402222,-0.6790146231651306,0.0
1666091953392914141,0.6693693399429321,-0.6526579856872559,0.0
1666091953500310885,0.6850425601005554,-0.615642786026001,0.0
1666091953590998412,0.7031267285346985,-0.5704705119132996,0.0
1666091953727264645,0.7247776389122009,-0.5195856690406799,0.0
1666091953821319218,0.7476656436920166,-0.46583637595176697,0.0
1666091953887644937,0.7694688439369202,-0.4124442934989929,0.0
1666091953932902078,0.7911422848701477,-0.36184564232826233,0.0
1666091953992223348,0.8107513785362244,-0.313157856464386,0.0
1666091954081709169,0.8265054225921631,-0.26294562220573425,0.0
1666091954158553286,0.8418329954147339,-0.21531814336776733,0.0
1666091954245447838,0.8584275841712952,-0.17001932859420776,0.0
1666091954247276312,0.856277585029602,-0.14546194672584534,0.0
1666091954361509386,0.8626123666763306,-0.1146979108452797,0.0
1666091954404116870,0.8683894276618958,-0.09308682382106781,0.0
1666091954486828661,0.8752763271331787,-0.07819849997758865,0.0
1666091954553857174,0.8835610747337341,-0.05819737911224365,0.0
1666091954629892780,0.895068347454071,-0.04727070778608322,0.0
1666091954703672901,0.9090058207511902,-0.03463342785835266,0.0
1666091954711902807,0.9194266200065613,-0.021637391299009323,0.0
1666091954789787736,0.9227467775344849,-0.009140955284237862,0.0
1666091954912837877,0.9275763630867004,0.004294742830097675,0.0
1666091954979393224,0.9308594465255737,0.019411692395806313,0.0
1666091955026556782,0.9342620372772217,0.03459059074521065,0.0
1666091955121090729,0.9408009052276611,0.0021214643493294716,0.0
1666091955158368528,0.9504757523536682,0.018264329060912132,0.0
1666091955209291078,0.9468173384666443,0.0199377853423357,0.0
1666091955342789526,0.9365397691726685,0.029597047716379166,0.0
1666091955426715625,0.9420972466468811,0.043229542672634125,0.0
1666091955499279377,0.9460693597793579,0.05711131542921066,0.0
1666091955515440457,0.9080173373222351,0.07223857194185257,0.0
1666091955644250420,0.877375602722168,0.0848417580127716,0.0
1666091955680103654,0.8491379618644714,0.09797219932079315,0.0
1666091955744799952,0.81840580701828,0.11097529530525208,0.0
1666091955870808824,0.7877088189125061,0.12085136026144028,0.0
1666091955872166876,0.7644228935241699,0.1306552141904831,0.0
1666091955988165034,0.744745135307312,0.14165149629116058,0.0
1666091956074650735,0.730573832988739,0.15462355315685272,0.0
1666091956144895545,0.7183811068534851,0.16718009114265442,0.0
1666091956197283367,0.7060385346412659,0.18107540905475616,0.0
