%time,field.linear.x,field.linear.y,field.linear.z,field.angular.x,field.angular.y,field.angular.z
1666091900947315875,0.0,0.0,0.0,0.0,0.0,0.0
1666091900967238713,0.0,0.0,0.0,0.0,0.0,0.0
1666091900987260731,0.0,0.0,0.0,0.0,0.0,0.0
1666091901007200037,0.0,0.0,0.0,0.0,0.0,0.0
1666091901027245122,0.0,0.0,0.0,0.0,0.0,0.0
1666091901047237809,0.0,0.0,0.0,0.0,0.0,0.0
1666091901067251022,0.0,0.0,0.0,0.0,0.0,0.0
1666091901088181935,0.0,0.0,0.0,0.0,0.0,0.0
1666091901107216380,0.0,0.0,0.0,0.0,0.0,0.0
1666091901148087460,0.0,0.0,0.0,0.0,0.0,0.0
1666091901148103579,0.0,0.0,0.0,0.0,0.0,0.0
1666091901192061775,0.0,0.0,0.0,0.0,0.0,0.0
1666091901192081213,0.0,0.0,0.0,0.0,0.0,0.0
1666091901236050284,0.0,0.0,0.0,0.0,0.0,0.0
1666091901236060086,0.0,0.0,0.0,0.0,0.0,0.0
1666091901284224023,0.0,0.0,0.0,0.0,0.0,0.0
1666091901284234491,0.0,0.0,0.0,0.0,0.0,0.0
1666091901328295768,0.0,0.0,0.0,0.0,0.0,0.0
1666091901328306768,0.0,0.0,0.0,0.0,0.0,0.0
1666091901328313739,0.0,0.0,0.0,0.0,0.0,0.0
1666091901372389656,0.0,0.0,0.0,0.0,0.0,0.0
1666091901372404570,0.0,0.0,0.0,0.0,0.0,0.0
1666091901388025189,0.0,0.0,0.0,0.0,0.0,0.0
1666091901408025046,0.0,0.0,0.0,0.0,0.0,0.0
1666091901448075544,0.0,0.0,0.0,0.0,0.0,0.0
1666091901448084839,0.0,0.0,0.0,0.0,0.0,0.0
1666091901492063375,0.0,0.0,0.0,0.0,0.0,0.0
1666091901492079383,0.0,0.0,0.0,0.0,0.0,0.0
1666091901536051609,0.0,0.0,0.0,0.0,0.0,0.0
1666091901536059049,0.0,0.0,0.0,0.0,0.0,0.0
1666091901580055699,0.0,0.0,0.0,0.0,0.0,0.0
1666091901580068767,0.0,0.0,0.0,0.0,0.0,0.0
1666091901628054446,0.0,0.0,0.0,0.0,0.0,0.0
1666091901628065311,0.002132302208337933,0.0,0.0,0.0,0.0,-0.005061454830783556
1666091901628072979,0.002132302208337933,0.0,0.0,0.0,0.0,-0.0006981317007977319
1666091901676038273,0.002132302208337933,0.0,0.0,0.0,0.0,0.0
1666091901676049189,0.0,0.0,0.0,0.0,0.0,0.0
1666091901687919135,0.0,0.0,0.0,0.0,0.0,0.0
1666091901707902128,0.0,0.0,0.0,0.0,0.0,-0.012391837689159739
1666091901748030907,0.0,0.0,0.0,0.0,0.0,-0.011693705988362009
1666091901748039288,0.0,0.0,0.0,0.0,0.0,0.0
1666091901792030687,0.0,0.0,0.0,0.0,0.0,0.0
1666091901792040569,0.0,0.0,0.0,0.0,0.0,0.0
1666091901840025281,0.0,0.0,0.0,0.0,0.0,0.0
1666091901840033652,0.0,0.0,0.0,0.0,0.0,0.0
1666091901888033513,-0.002132302208337933,0.0,0.0,0.0,0.0,-0.008028514559173916
1666091901888039751,-0.002132302208337933,0.0,0.0,0.0,0.0,0.0
1666091901888046755,0.0,0.0,0.0,0.0,0.0,0.0
1666091901936033704,0.0,0.0,0.0,0.0,0.0,0.0
1666091901936041961,0.0,0.0,0.0,0.0,0.0,0.0
1666091901947793458,0.0,0.0,0.0,0.0,0.0,0.0
1666091901967704035,0.0,0.0,0.0,0.0,0.0,0.0
1666091902008049537,0.0,0.0,0.0,0.0,0.0,0.0
1666091902052052469,0.0,0.0,0.0,0.0,0.0,0.0
1666091902052061921,0.0,0.0,0.0,0.0,0.0,0.0
1666091902052070468,0.0,0.0,0.0,0.0,0.0,0.0
1666091902096061266,0.0,0.0,0.0,0.0,0.0,0.0
1666091902096070185,0.0,0.0,0.0,0.0,0.0,0.0
1666091902107697906,0.0,0.0,0.0,0.0,0.0,0.0
1666091902127692346,0.0,0.0,0.0,0.0,0.0,0.0
1666091902168023225,0.0,0.0,0.0,0.0,0.0,0.0
1666091902168028071,0.0,0.0,0.0,0.0,0.0,0.0
1666091902212038959,0.0,0.0,0.0,0.0,0.0,0.0
1666091902212049964,0.0,0.0,0.0,0.0,0.0,0.0
1666091902256030466,0.0,0.0,0.0,0.0,0.0,0.0
1666091902256035671,0.0,0.0,0.0,0.0,0.0,0.0
1666091902300064940,0.0,0.0,0.0,0.0,0.0,0.0
1666091902300077204,0.0,0.0,0.0,0.0,0.0,0.0
1666091902348032598,0.0,0.0,0.0,0.0,0.0,0.0
1666091902348038458,0.0,0.0,0.0,0.0,0.0,0.0
1666091902348045125,0.0,0.0,0.0,0.0,0.0,0.0
1666091902392025160,0.0,0.0,0.0,0.0,0.0,0.0
1666091902392030577,0.0,0.0,0.0,0.0,0.0,0.0
1666091902407600833,0.0,0.0,0.0,0.0,0.0,0.0
1666091902427634026,0.0,0.0,0.0,0.0,0.0,0.0
1666091902468027021,0.0,0.0,0.0,0.0,0.0,0.0
1666091902468035742,0.0,0.0,0.0,0.0,0.0,0.0
1666091902512084457,0.0,0.0,0.0,0.0,0.0,0.0
1666091902512094658,0.0,0.0,0.0,0.0,0.0,0.0
1666091902556075999,0.0,0.0,0.0,0.0,0.0,0.0
1666091902556085672,0.0,0.0,0.0,0.0,0.0,0.0
1666091902600028806,0.0,0.0,0.0,0.0,0.0,0.0
1666091902600038255,0.0,0.0,0.0,0.0,0.0,0.0
1666091902648028715,0.0,0.0,0.0,0.0,0.0,0.0
1666091902648034693,0.0,0.0,0.0,0.0,0.0,0.0
1666091902692071881,0.0,0.0,0.0,0.0,0.0,0.0
1666091902692087248,0.0,0.0,0.0,0.0,0.0,0.0
1666091902692098480,0.0,0.0,0.0,0.0,0.0,0.0
1666091902740022665,0.0,0.0,0.0,0.0,0.0,0.0
1666091902740027997,0.0,0.0,0.0,0.0,0.0,0.0
1666091902747501363,0.0,0.0,0.0,0.0,0.0,0.0
1666091902768408944,0.0,0.0,0.0,0.0,0.0,0.0
1666091902812057273,0.0,0.0,0.0,0.0,0.0,0.0
1666091902812062514,0.0,0.0,0.0,0.0,0.0,0.0
1666091902860065576,0.0,0.0,0.0,0.0,0.0,0.0
1666091902860074161,0.0,0.0,0.0,0.0,0.0,0.0
1666091902904363792,0.0,0.0,0.0,0.0,0.0,0.0
1666091902904370042,0.0,0.0,0.0,0.0,0.0,0.0
1666091902948041711,0.0,0.0,0.0,0.0,0.0,0.0
1666091902948050148,0.0,0.0,0.0,0.0,0.0,0.0
1666091902992039672,0.0,0.0,0.0,0.0,0.0,0.0
1666091902992047473,0.0,0.0,0.0,0.0,0.0,0.0
1666091902992054521,0.0,0.0,0.0,0.0,0.0,0.0
1666091903036281036,0.0,0.0,0.0,0.0,0.0,0.0
1666091903036287916,0.0,0.0,0.0,0.0,0.0,0.0
1666091903048473698,0.0,0.0,0.0,0.0,0.0,0.0
1666091903069409780,0.0,0.0,0.0,0.0,0.0,0.0
1666091903112037378,0.0,0.0,0.0,0.0,0.0,0.0
1666091903112044625,0.0,0.0,0.0,0.0,0.0,0.0
1666091903156038400,0.0,0.0,0.0,0.0,0.0,0.0
1666091903156050461,0.0,0.0,0.0,0.0,0.0,0.0
1666091903200038914,0.0,0.0,0.0,0.0,0.0,0.0
1666091903200049108,0.0,0.0,0.0,0.0,0.0,0.0
1666091903244041750,0.0,0.0,0.0,0.0,0.0,0.0
1666091903244051870,0.0,0.0,0.0,0.0,0.0,0.0
1666091903292042373,0.0,0.0,0.0,0.0,0.0,0.0
1666091903292054713,0.0,0.0,0.0,0.0,0.0,0.0
1666091903292081162,0.0,0.0,0.0,0.0,0.0,0.0
1666091903332037615,0.0,0.0,0.0,0.0,0.0,0.0
1666091903332049762,0.0,0.0,0.0,0.0,0.0,0.0
1666091903348238580,0.0,0.0,0.0,0.0,0.0,0.0
1666091903369209040,0.0,0.0,0.0,0.0,0.0,0.0
1666091903416032179,0.0,0.0,0.0,0.0,0.0,0.0
1666091903416040787,0.0,0.0,0.0,0.0,0.0,0.0
1666091903464057222,0.0,0.0,0.0,0.0,0.0,0.0
1666091903464062999,0.0,0.0,0.0,0.0,0.0,0.0
1666091903504035158,0.0,0.0,0.0,0.0,0.0,0.0
1666091903504044010,0.0,0.0,0.0,0.0,0.0,0.0
1666091903552033477,0.0,0.0,0.0,0.0,0.0,0.0
1666091903552038851,0.0,0.0,0.0,0.0,0.0,0.0
1666091903552059023,0.0,0.0,0.0,0.0,0.0,0.0
1666091903592056221,0.0,0.0,0.0,0.0,0.0,0.0
1666091903592062454,0.0,0.0,0.0,0.0,0.0,0.0
1666091903608114682,0.0,0.0,0.0,0.0,0.0,0.0
1666091903628134646,0.0,0.0,0.0,0.0,0.0,0.0
1666091903672063840,0.0,0.0,0.0,0.0,0.0,0.0
1666091903672073001,0.0,0.0,0.0,0.0,0.0,0.0
1666091903716066945,0.0,0.0,0.0,0.0,0.0,0.0
1666091903716077333,0.0,0.0,0.0,0.0,0.0,0.0
1666091903764053452,0.0,0.0,0.0,0.0,0.0,0.0
1666091903764062061,0.0,0.0,0.0,0.0,0.0,0.0
1666091903808078395,0.0,0.0,0.0,0.0,0.0,0.0
1666091903808087489,0.0,0.0,0.0,0.0,0.0,0.0
1666091903852060219,0.0,0.0,0.0,0.0,0.0,0.0
1666091903852069068,0.0,0.0,0.0,0.0,0.0,0.0
1666091903852073058,0.0,0.0,0.0,0.0,0.0,0.0
1666091903896047260,0.0,0.0,0.0,0.0,0.0,0.0
1666091903896053373,0.0,0.0,0.0,0.0,0.0,0.0
1666091903908075291,0.0,0.0,0.0,0.0,0.0,0.0
1666091903928064093,0.0,0.0,0.0,0.0,0.0,0.0
1666091903976067177,0.0,0.0,0.0,0.0,0.0,0.0
1666091903976072460,0.0,0.0,0.0,0.0,0.0,0.0
1666091904020049775,0.0,0.0,0.0,0.0,0.0,0.0
1666091904020059073,0.0,0.0,0.0,0.0,0.0,0.0
1666091904064053778,0.0,0.0,0.0,0.0,0.0,0.0
1666091904064065228,0.0,0.0,0.0,0.0,0.0,0.0
1666091904108067904,0.0,0.0,0.0,0.0,0.0,0.0
1666091904108079442,0.0,0.0,0.0,0.0,0.0,0.0
1666091904152126176,0.0,0.0,0.0,0.0,0.0,0.0
1666091904152138906,0.0,0.0,0.0,0.0,0.0,0.0
1666091904152143078,0.0,0.0,0.0,0.0,0.0,0.0
1666091904196055281,0.0,0.0,0.0,0.0,0.0,0.0
1666091904196066885,0.0,0.0,0.0,0.0,0.0,0.0
1666091904208972050,0.0,0.0,0.0,0.0,0.0,0.0
1666091904228915973,0.0,0.0,0.0,0.0,0.0,0.0
1666091904272042639,0.0,0.0,0.0,0.0,0.0,0.0
1666091904272051270,0.0,0.0,0.0,0.0,0.0,0.0
1666091904316024315,0.0,0.0,0.0,0.0,0.0,0.0
1666091904316033552,0.0,0.0,0.0,0.0,0.0,0.0
1666091904364033363,0.0,0.0,0.0,0.0,0.0,0.0
1666091904364042114,0.0,0.0,0.0,0.0,0.0,0.0
1666091904404046430,0.0,0.0,0.0,0.0,0.0,0.0
1666091904404055639,0.0,0.0,0.0,0.0,0.0,0.0
1666091904448102905,0.0,0.0,0.0,0.0,0.0,0.0
1666091904448112019,0.0,0.0,0.0,0.0,0.0,0.0
1666091904492057235,0.0,0.0,0.0,0.0,0.0,0.0
1666091904492078079,0.0,0.0,0.0,0.0,0.0,0.0
1666091904492096535,0.0,0.0,0.0,0.0,0.0,0.0
1666091904536055049,0.0,0.0,0.0,0.0,0.0,0.0
1666091904536065675,0.0,0.0,0.0,0.0,0.0,0.0
1666091904548718136,0.0,0.0,0.0,0.0,0.0,0.0
1666091904568717207,0.0,0.0,0.0,0.0,0.0,0.0
1666091904612032735,0.0,0.0,0.0,0.0,0.0,0.0
1666091904612044331,0.0,0.0,0.0,0.0,0.0,0.0
1666091904656083034,0.0,0.0,0.0,0.0,0.0,0.0
1666091904656095578,0.0,0.0,0.0,0.0,0.0,0.0
1666091904700068191,0.0,0.0,0.0,0.0,0.0,0.0
1666091904700075825,0.0,0.0,0.0,0.0,0.0,0.0
1666091904748086169,0.0,0.0,0.0,0.0,0.0,0.0
1666091904748097031,0.0,0.0,0.0,0.0,0.0,0.0
1666091904788078150,0.0,0.0,0.0,0.0,0.0,0.0
1666091904788086687,0.0,0.0,0.0,0.0,0.0,0.0
1666091904832079687,0.0,0.0,0.0,0.0,0.0,0.0
1666091904832085192,0.0,0.0,0.0,0.0,0.0,0.0
1666091904832087171,0.0,0.0,0.0,0.0,0.0,0.0
1666091904876047406,0.0,0.0,0.0,0.0,0.0,0.0
1666091904876061417,0.0,0.0,0.0,0.0,0.0,0.0
1666091904889837118,0.0,0.0,0.0,0.0,0.0,0.0
1666091904909776847,0.0,0.0,0.0,0.0,0.0,0.0
1666091904952072316,0.0,0.0,0.0,0.0,0.0,0.0
1666091904952077863,0.0,0.0,0.0,0.0,0.0,0.0
1666091904996071874,0.0,0.0,0.0,0.0,0.0,0.0
1666091904996080107,0.0,0.0,0.0,0.0,0.0,0.0
1666091905040048212,0.0,0.0,0.0,0.0,0.0,0.0
1666091905040055101,0.0,0.0,0.0,0.0,0.0,0.0
1666091905084207062,0.0,0.0,0.0,0.0,0.0,0.0
1666091905084235765,0.0,0.0,0.0,0.0,0.0,0.0
1666091905132092524,0.0,0.0,0.0,0.0,0.0,0.0
1666091905132117901,0.0,0.0,0.0,0.0,0.0,0.0
1666091905132147875,0.0,0.0,0.0,0.0,0.0,0.0
1666091905176156871,0.0,0.0,0.0,0.0,0.0,0.0
1666091905176170928,0.0,0.0,0.0,0.0,0.0,0.0
1666091905189671786,0.0,0.0,0.0,0.0,0.0,0.0
1666091905210630851,0.0,0.0,0.0,0.0,0.0,0.0
1666091905256757726,0.0,0.0,0.0,0.0,0.0,0.0
1666091905256790751,0.0,0.0,0.0,0.0,0.0,0.0
1666091905300077995,0.0,0.0,0.0,0.0,0.0,0.0
1666091905300094034,0.0,0.0,0.0,0.0,0.0,0.0
1666091905348085846,0.0,0.0,0.0,0.0,0.0,0.0
1666091905348099583,0.0,0.0,0.0,0.0,0.0,0.0
1666091905392282318,0.0,0.0,0.0,0.0,0.0,0.0
1666091905392311374,0.0,0.0,0.0,0.0,0.0,0.0
1666091905392339180,0.0,0.0,0.0,0.0,0.0,0.0
1666091905436083977,0.0,0.0,0.0,0.0,0.0,0.0
1666091905436104224,0.0,0.0,0.0,0.0,0.0,0.0
1666091905452297230,0.0,0.0,0.0,0.0,0.0,0.0
1666091905471746915,0.0,0.0,0.0,0.0,0.0,0.0
1666091905512185985,0.0,0.0,0.0,0.0,0.0,0.0
1666091905512222819,0.0,0.0,0.0,0.0,0.0,0.0
1666091905560133520,0.0,0.0,0.0,0.0,0.0,0.0
1666091905560155330,0.0,0.0,0.0,0.0,0.0,0.0
1666091905604405162,0.0,0.0,0.0,0.0,0.0,0.0
1666091905604444556,0.0,0.0,0.0,0.0,0.0,0.0
1666091905648092415,0.0,0.0,0.0,0.0,0.0,0.0
1666091905648106398,0.0,0.0,0.0,0.0,0.0,0.0
1666091905692130733,0.0,0.0,0.0,0.0,0.0,0.0
1666091905692151450,0.0,0.0,0.0,0.0,0.0,0.0
1666091905692157601,0.0,0.0,0.0,0.0,0.0,0.0
1666091905736084550,0.0,0.0,0.0,0.0,0.0,0.0
1666091905736102375,0.0,0.0,0.0,0.0,0.0,0.0
1666091905749544296,0.0,0.0,0.0,0.0,0.0,0.0
1666091905769427797,0.0,0.0,0.0,0.0,0.0,0.0
1666091905812066483,0.0,0.0,0.0,0.0,0.0,0.0
1666091905812076370,0.0,0.0,0.0,0.0,0.0,0.0
1666091905856049330,0.0,0.0,0.0,0.0,0.0,0.0
1666091905856061342,0.0,0.0,0.0,0.0,0.0,0.0
1666091905900046981,0.0,0.0,0.0,0.0,0.0,0.0
1666091905900059073,0.0,0.0,0.0,0.0,0.0,0.0
1666091905944046893,0.0,0.0,0.0,0.0,0.0,0.0
1666091905944058247,0.0,0.0,0.0,0.0,0.0,0.0
1666091905988051725,0.0,0.0,0.0,0.0,0.0,0.0
1666091905988064411,0.0,0.0,0.0,0.0,0.0,0.0
1666091906032055109,0.0,0.0,0.0,0.0,0.0,0.0
1666091906032066118,0.0,0.0,0.0,0.0,0.0,0.0
1666091906032070108,0.0,0.0,0.0,0.0,0.0,0.0
1666091906076045813,0.0,0.0,0.0,0.0,0.0,0.0
1666091906076056600,0.0,0.0,0.0,0.0,0.0,0.0
1666091906089376855,0.0,0.0,0.0,0.0,0.0,0.0
1666091906109330839,0.0,0.0,0.0,0.0,0.0,0.0
1666091906152050024,0.0,0.0,0.0,0.0,0.0,0.0
1666091906152061004,0.0,0.0,0.0,0.0,0.0,0.0
1666091906196124773,0.0,0.0,0.0,0.0,0.0,0.0
1666091906196137736,0.0,0.0,0.0,0.0,0.0,0.0
1666091906244065323,0.0,0.0,0.0,0.0,0.0,0.0
1666091906244076454,0.0,0.0,0.0,0.0,0.0,0.0
1666091906288057725,0.0,0.0,0.0,0.0,0.0,0.0
1666091906288071501,0.0,0.0,0.0,0.0,0.0,0.0
1666091906336120090,0.0,0.0,0.0,0.0,0.0,0.0
1666091906336147354,0.0,0.0,0.0,0.0,0.0,0.0
1666091906336158267,0.0,0.0,0.0,0.0,0.0,0.0
1666091906380102628,0.0,0.0,0.0,0.0,0.0,0.0
1666091906380117230,0.0,0.0,0.0,0.0,0.0,0.0
1666091906390250981,0.0,0.0,0.0,0.0,0.0,0.0
1666091906410492167,0.0,0.0,0.0,0.0,0.0,0.0
1666091906452341186,0.0,0.0,0.0,0.0,0.0,0.0
1666091906452423428,0.0,0.0,0.0,0.0,0.0,0.0
1666091906496111938,0.0,0.0,0.0,0.0,0.0,0.0
1666091906496130574,0.0,0.0,0.0,0.0,0.0,0.0
1666091906544091024,0.0,0.0,0.0,0.0,0.0,0.0
1666091906544103339,0.0,0.0,0.0,0.0,0.0,0.0
1666091906588203000,0.0,0.0,0.0,0.0,0.0,0.0
1666091906588223222,0.0,0.0,0.0,0.0,0.0,0.0
1666091906632171836,0.0,0.0,0.0,0.0,0.0,0.0
1666091906632191700,0.0,0.0,0.0,0.0,0.0,0.0
1666091906632204549,0.0,0.0,0.0,0.0,0.0,0.0
1666091906676330096,0.0,0.0,0.0,0.0,0.0,0.0
1666091906676345774,0.0,0.0,0.0,0.0,0.0,0.0
1666091906690211408,0.0,0.0,0.0,0.0,0.0,0.0
1666091906710801937,0.0,0.0,0.0,0.0,0.0,0.0
1666091906752068704,0.0,0.0,0.0,0.0,0.0,0.0
1666091906752085938,0.0,0.0,0.0,0.0,0.0,0.0
1666091906798120855,0.0,0.0,0.0,0.0,0.0,0.0
1666091906798140748,0.0,0.0,0.0,0.0,0.0,0.0
1666091906840043875,0.0,0.0,0.0,0.0,0.0,0.0
1666091906840055086,0.0,0.0,0.0,0.0,0.0,0.0
1666091906884072480,0.0,0.0,0.0,0.0,0.0,0.0
1666091906884085608,0.0,0.0,0.0,0.0,0.0,0.0
1666091906928062201,0.0,0.0,0.0,0.0,0.0,0.0
1666091906928077215,0.0,0.0,0.0,0.0,0.0,0.0
1666091906972093691,0.0,0.0,0.0,0.0,0.0,0.0
1666091906972119684,0.0,0.0,0.0,0.0,0.0,0.0
1666091906972135222,0.0,0.0,0.0,0.0,0.0,0.0
1666091907016083842,0.0,0.0,0.0,0.0,0.0,0.0
1666091907016097983,0.0,0.0,0.0,0.0,0.0,0.0
1666091907030656785,0.0,0.0,0.0,0.0,0.0,0.0
1666091907051156345,0.0,0.0,0.0,0.0,0.0,0.0
1666091907096055295,0.0,0.0,0.0,0.0,0.0,0.0
1666091907096069940,0.0,0.0,0.0,0.0,0.0,0.0
1666091907140061756,0.0,0.0,0.0,0.0,0.0,0.0
1666091907140074892,0.0,0.0,0.0,0.0,0.0,0.0
1666091907184119131,0.0,0.0,0.0,0.0,0.0,0.0
1666091907184130009,0.0,0.0,0.0,0.0,0.0,0.0
1666091907228071147,0.0,0.0,0.0,0.0,0.0,0.0
1666091907228086432,0.0,0.0,0.0,0.0,0.0,0.0
1666091907272061299,0.0,0.0,0.0,0.0,0.0,0.0
1666091907272078783,0.0,0.0,0.0,0.0,0.0,0.0
1666091907272083128,0.0,0.0,0.0,0.0,0.0,0.0
1666091907316066534,0.0,0.0,0.0,0.0,0.0,0.0
1666091907316081180,0.0,0.0,0.0,0.0,0.0,0.0
1666091907332231506,0.0,0.0,0.0,0.0,0.0,0.0
1666091907351027364,0.0,0.0,0.0,0.0,0.0,0.0
1666091907396043845,0.0,0.0,0.0,0.0,0.0,0.0
1666091907396054035,0.0,0.0,0.0,0.0,0.0,0.0
1666091907440105819,0.0,0.0,0.0,0.0,0.0,0.0
1666091907440117728,0.0,0.0,0.0,0.0,0.0,0.0
1666091907484078260,0.0,0.0,0.0,0.0,0.0,0.0
1666091907484092540,0.0,0.0,0.0,0.0,0.0,0.0
1666091907528101407,0.0,0.0,0.0,0.0,0.0,0.0
1666091907528111133,0.0,0.0,0.0,0.0,0.0,0.0
1666091907572125070,0.0,0.0,0.0,0.0,0.0,0.0
1666091907572141078,0.0,0.0,0.0,0.0,0.0,0.0
1666091907572146783,0.0,0.0,0.0,0.0,0.0,0.0
1666091907616073248,0.0,0.0,0.0,0.0,0.0,0.0
1666091907616086638,0.0,0.0,0.0,0.0,0.0,0.0
1666091907631347349,0.0,0.0,0.0,0.0,0.0,0.0
1666091907651205956,0.0,0.0,0.0,0.0,0.0,0.0
1666091907692082288,0.0,0.0,0.0,0.0,0.0,0.0
1666091907692094701,0.0,0.0,0.0,0.0,0.0,0.0
1666091907736143956,0.0,0.0,0.0,0.0,0.0,0.0
1666091907736166553,0.0,0.0,0.0,0.0,0.0,0.0
1666091907780468476,0.0,0.0,0.0,0.0,0.0,0.0
1666091907780495369,0.0,0.0,0.0,0.0,0.0,0.0
1666091907824078091,0.0,0.0,0.0,0.0,0.0,0.0
1666091907824091056,0.0,0.0,0.0,0.0,0.0,0.0
1666091907868116807,0.0,0.0,0.0,0.0,0.0,0.0
1666091907868131676,0.0,0.0,0.0,0.0,0.0,0.0
1666091907912092430,0.0,0.0,0.0,0.0,0.0,0.0
1666091907912114786,0.0,0.0,0.0,0.0,0.0,0.0
1666091907912119325,0.0,0.0,0.0,0.0,0.0,0.0
1666091907956055900,0.0,0.0,0.0,0.0,0.0,0.0
1666091907956067288,0.0,0.0,0.0,0.0,0.0,0.0
1666091907972014239,0.0,0.0,0.0,0.0,0.0,0.0
1666091907991235054,0.0,0.0,0.0,0.0,0.0,0.0
1666091908032061319,0.0,0.0,0.0,0.0,0.0,0.0
1666091908032076534,0.0,0.0,0.0,0.0,0.0,0.0
1666091908076061548,0.0,0.0,0.0,0.0,0.0,0.0
1666091908076076513,0.0,0.0,0.0,0.0,0.0,0.0
1666091908124084567,0.0,0.0,0.0,0.0,0.0,0.0
1666091908124094384,0.0,0.0,0.0,0.0,0.0,0.0
1666091908172995966,0.0,0.0,0.0,0.0,0.0,0.0
1666091908173016603,0.0,0.0,0.0,0.0,0.0,0.0
1666091908216223027,0.0,0.0,0.0,0.0,0.0,0.0
1666091908216231794,0.0,0.0,0.0,0.0,0.0,0.0
1666091908216236280,0.0,0.0,0.0,0.0,0.0,0.0
1666091908260124494,0.0,0.0,0.0,0.0,0.0,0.0
1666091908260145358,0.0,0.0,0.0,0.0,0.0,0.0
1666091908272091419,0.0,0.0,0.0,0.0,0.0,0.0
1666091908291675211,0.0,0.0,0.0,0.0,0.0,0.0
1666091908332183310,0.0,0.0,0.0,0.0,0.0,0.0
1666091908332210334,0.0,0.0,0.0,0.0,0.0,0.0
1666091908376075465,0.0,0.0,0.0,0.0,0.0,0.0
1666091908376096978,0.0,0.0,0.0,0.0,0.0,0.0
1666091908420090162,0.0,0.0,0.0,0.0,0.0,0.0
1666091908420105960,0.0,0.0,0.0,0.0,0.0,0.0
1666091908464130296,0.0,0.0,0.0,0.0,0.0,0.0
1666091908464150812,0.0,0.0,0.0,0.0,0.0,0.0
1666091908508135092,0.0,0.0,0.0,0.0,0.0,0.0
1666091908508156297,0.0,0.0,0.0,0.0,0.0,0.0
1666091908552278613,0.0,0.0,0.0,0.0,0.0,0.0
1666091908552313863,0.0,0.0,0.0,0.0,0.0,0.0
1666091908596093731,0.0,0.0,0.0,0.0,0.0,0.0
1666091908596111317,0.0,0.0,0.0,0.0,0.0,0.0
1666091908596120277,0.0,0.0,0.0,0.0,0.0,0.0
1666091908640094883,0.0,0.0,0.0,0.0,0.0,0.0
1666091908640111475,0.0,0.0,0.0,0.0,0.0,0.0
1666091908651364859,0.0,0.0,0.0,0.0,0.0,0.0
1666091908671633587,0.0,0.0,0.0,0.0,0.0,0.0
1666091908712134383,0.0,0.0,0.0,0.0,0.0,0.0
1666091908712153088,0.0,0.0,0.0,0.0,0.0,0.0
1666091908756100072,0.0,0.0,0.0,0.0,0.0,0.0
1666091908756114422,0.0,0.0,0.0,0.0,0.0,0.0
1666091908800179282,0.0,0.0,0.0,0.0,0.0,0.0
1666091908800204296,0.0,0.0,0.0,0.0,0.0,0.0
1666091908844262473,0.0,0.0,0.0,0.0,0.0,0.0
1666091908844292993,0.0,0.0,0.0,0.0,0.0,0.0
1666091908888128621,0.0,0.0,0.0,0.0,0.0,0.0
1666091908888157235,0.0,0.0,0.0,0.0,0.0,0.0
1666091908932177336,0.0,0.0,0.0,0.0,0.0,0.0
1666091908932204549,0.0,0.0,0.0,0.0,0.0,0.0
1666091908932220112,0.0,0.0,0.0,0.0,0.0,0.0
1666091908980138001,0.0,0.0,0.0,0.0,0.0,0.0
1666091908980165885,0.0,0.0,0.0,0.0,0.0,0.0
1666091908991290930,0.0,0.0,0.0,0.0,0.0,0.0
1666091909011721423,0.0,0.0,0.0,0.0,0.0,0.0
1666091909056227807,0.0,0.0,0.0,0.0,0.0,0.0
1666091909056251640,0.0,0.0,0.0,0.0,0.0,0.0
1666091909100097604,0.0,0.0,0.0,0.0,0.0,0.0
1666091909100120734,0.0,0.0,0.0,0.0,0.0,0.0
1666091909144097243,0.0,0.0,0.0,0.0,0.0,0.0
1666091909144117564,0.0,0.0,0.0,0.0,0.0,0.0
1666091909188135221,0.0,0.0,0.0,0.0,0.0,0.0
1666091909188149833,0.0,0.0,0.0,0.0,0.0,0.0
1666091909232270921,0.0,0.0,0.0,0.0,0.0,0.0
1666091909232294312,0.0,0.0,0.0,0.0,0.0,0.0
1666091909276135765,0.0,0.0,0.0,0.0,0.0,0.0
1666091909276153648,0.0,0.0,0.0,0.0,0.0,0.0
1666091909276163065,0.0,0.0,0.0,0.0,0.0,0.0
1666091909320052877,0.0,0.0,0.0,0.0,0.0,0.0
1666091909320064850,0.0,0.0,0.0,0.0,0.0,0.0
1666091909331106857,0.0,0.0,0.0,0.0,0.0,0.0
1666091909353405054,0.0,0.0,0.0,0.0,0.0,0.0
1666091909396094114,0.0,0.0,0.0,0.0,0.0,0.0
1666091909396107762,0.0,0.0,0.0,0.0,0.0,0.0
1666091909440084652,0.0,0.0,0.0,0.0,0.0,0.0
1666091909440099887,0.0,0.0,0.0,0.0,0.0,0.0
1666091909484232539,0.0,0.0,0.0,0.0,0.0,0.0
1666091909484259441,0.0,0.0,0.0,0.0,0.0,0.0
1666091909528144403,0.0,0.0,0.0,0.0,0.0,0.0
1666091909528165985,0.0,0.0,0.0,0.0,0.0,0.0
1666091909572172784,0.0,0.0,0.0,0.0,0.0,0.0
1666091909572188983,0.0,0.0,0.0,0.0,0.0,0.0
1666091909616113054,0.0,0.0,0.0,0.0,0.0,0.0
1666091909616134937,0.0,0.0,0.0,0.0,0.0,0.0
1666091909616155729,0.0,0.0,0.0,0.0,0.0,0.0
1666091909660427248,0.0,0.0,0.0,0.0,0.0,0.0
1666091909660445619,0.0,0.0,0.0,0.0,0.0,0.0
1666091909673099097,0.0,0.0,0.0,0.0,0.0,0.0
1666091909691910855,0.0,0.0,0.0,0.0,0.0,0.0
1666091909736185114,0.0,0.0,0.0,0.0,0.0,0.0
1666091909736212527,0.0,0.0,0.0,0.0,0.0,0.0
1666091909780082737,0.0,0.0,0.0,0.0,0.0,0.0
1666091909780103668,0.0,0.0,0.0,0.0,0.0,0.0
1666091909824147147,0.0,0.0,0.0,0.0,0.0,0.0
1666091909824168833,0.0,0.0,0.0,0.0,0.0,0.0
1666091909868134072,0.0,0.0,0.0,0.0,0.0,0.0
1666091909868157760,0.0,0.0,0.0,0.0,0.0,0.0
1666091909912114443,0.0,0.0,0.0,0.0,0.0,0.0
1666091909912132016,0.0,0.0,0.0,0.0,0.0,0.0
1666091909912144171,0.0,0.0,0.0,0.0,0.0,0.0
1666091909960069127,0.0,0.0,0.0,0.0,0.0,0.0
1666091909960083740,0.0,0.0,0.0,0.0,0.0,0.0
1666091909972761093,0.0,0.0,0.0,0.0,0.0,0.0
1666091909991796271,0.0,0.0,0.0,0.0,0.0,0.0
1666091910032080386,0.0,0.0,0.0,0.0,0.0,0.0
1666091910032097399,0.0,0.0,0.0,0.0,0.0,0.0
1666091910076142413,0.0,0.0,0.0,0.0,0.0,0.0
1666091910076169106,0.0,0.0,0.0,0.0,0.0,0.0
1666091910120117411,0.0,0.0,0.0,0.0,0.0,0.0
1666091910120140938,0.0,0.0,0.0,0.0,0.0,0.0
1666091910164088143,0.0,0.0,0.0,0.0,0.0,0.0
1666091910164104864,0.0,0.0,0.0,0.0,0.0,0.0
1666091910212085181,0.0,0.0,0.0,0.0,0.0,0.0
1666091910212113939,0.0,0.0,0.0,0.0,0.0,0.0
1666091910212125179,0.0,0.0,0.0,0.0,0.0,0.0
1666091910256067071,0.0,0.0,0.0,0.0,0.0,0.0
1666091910256084249,0.0,0.0,0.0,0.0,0.0,0.0
1666091910273119173,0.0,0.0,0.0,0.0,0.0,0.0
1666091910293144345,0.0,0.0,0.0,0.0,0.0,0.0
1666091910336343063,0.0,0.0,0.0,0.0,0.0,0.0
1666091910336415702,0.0,0.0,0.0,0.0,0.0,0.0
1666091910380174539,0.0,0.0,0.0,0.0,0.0,0.0
1666091910380214603,0.0,0.0,0.0,0.0,0.0,0.0
1666091910424155406,0.0,0.0,0.0,0.0,0.0,0.0
1666091910424190042,0.0,0.0,0.0,0.0,0.0,0.0
1666091910468366651,0.0,0.0,0.0,0.0,0.0,0.0
1666091910468405170,0.0,0.0,0.0,0.0,0.0,0.0
1666091910512190858,0.0,0.0,0.0,0.0,0.0,0.0
1666091910512215934,0.0,0.0,0.0,0.0,0.0,0.0
1666091910512229885,0.0,0.0,0.0,0.0,0.0,0.0
1666091910556136926,0.0,0.0,0.0,0.0,0.0,0.0
1666091910556161092,0.0,0.0,0.0,0.0,0.0,0.0
1666091910573088915,0.0,0.0,0.0,0.0,0.0,0.0
1666091910592819487,0.0,0.0,0.0,0.0,0.0,0.0
1666091910636365837,0.0,0.0,0.0,0.0,0.0,0.0
1666091910636391674,0.0,0.0,0.0,0.0,0.0,0.0
1666091910680185169,0.0,0.0,0.0,0.0,0.0,0.0
1666091910680206420,0.0,0.0,0.0,0.0,0.0,0.0
1666091910724129559,0.0,0.0,0.0,0.0,0.0,0.0
1666091910724157035,0.0,0.0,0.0,0.0,0.0,0.0
1666091910768386433,0.0,0.0,0.0,0.0,0.0,0.0
1666091910768436692,0.0,0.0,0.0,0.0,0.0,0.0
1666091910812495646,0.0,0.0,0.0,0.0,0.0,0.0
1666091910812540928,0.0,0.0,0.0,0.0,0.0,0.0
1666091910856150291,0.0,0.0,0.0,0.0,0.0,0.0
1666091910856189184,0.0,0.0,0.0,0.0,0.0,0.0
1666091910856197293,0.0,0.0,0.0,0.0,0.0,0.0
1666091910900218803,0.0,0.0,0.0,0.0,0.0,0.0
1666091910900240364,0.0,0.0,0.0,0.0,0.0,0.0
1666091910915467246,0.0,0.0,0.0,0.0,0.0,0.0
1666091910933956562,0.0,0.0,0.0,0.0,0.0,0.0
1666091910976170063,0.0,0.0,0.0,0.0,0.0,0.0
1666091910976191100,0.0,0.0,0.0,0.0,0.0,0.0
1666091911024389124,0.0,0.0,0.0,0.0,0.0,0.0
1666091911024449342,0.0,0.0,0.0,0.0,0.0,0.0
1666091911072634257,0.0,0.0,0.0,0.0,0.0,0.0
1666091911072686610,0.0,0.0,0.0,0.0,0.0,0.0
1666091911116106570,0.0,0.0,0.0,0.0,0.0,0.0
1666091911116122403,0.0,0.0,0.0,0.0,0.0,0.0
1666091911116213821,0.0,0.0,0.0,0.0,0.0,0.0
1666091911160129616,0.0,0.0,0.0,0.0,0.0,0.0
1666091911160145256,0.0,0.0,0.0,0.0,0.0,0.0
1666091911173973069,0.0,0.0,0.0,0.0,0.0,0.0
1666091911192791169,0.0,0.0,0.0,0.0,0.0,0.0
1666091911240232022,0.0,0.0,0.0,0.0,0.0,0.0
1666091911240263480,0.0,0.0,0.0,0.0,0.0,0.0
1666091911288100941,0.0,0.0,0.0,0.0,0.0,0.0
1666091911288118484,0.0,0.0,0.0,0.0,0.0,0.0
1666091911332086604,0.0,0.0,0.0,0.0,0.0,0.0
1666091911332097899,0.0,0.0,0.0,0.0,0.0,0.0
1666091911380081014,0.0,0.0,0.0,0.0,0.0,0.0
1666091911380095695,0.0,0.0,0.0,0.0,0.0,0.0
1666091911380105213,0.0,0.0,0.0,0.0,0.0,0.0
1666091911424206293,0.0,0.0,0.0,0.0,0.0,0.0
1666091911424227526,0.0,0.0,0.0,0.0,0.0,0.0
1666091911432487769,0.0,0.0,0.0,0.0,0.0,0.0
1666091911452423122,0.0,0.0,0.0,0.0,0.0,0.0
1666091911496084631,0.0,0.0,0.0,0.0,0.0,0.0
1666091911496097226,0.0,0.0,0.0,0.0,0.0,0.0
1666091911544152767,0.0,0.0,0.0,0.0,0.0,0.0
1666091911544181598,0.0,0.0,0.0,0.0,0.0,0.0
1666091911592313323,0.0,0.0,0.0,0.0,0.0,0.0
1666091911592347850,0.0,0.0,0.0,0.0,0.0,0.0
1666091911636300563,0.0,0.0,0.0,0.0,0.0,0.0
1666091911636340730,0.0,0.0,0.0,0.0,0.0,0.0
1666091911636353086,0.0,0.0,0.0,0.0,0.0,0.0
1666091911680261746,0.0,0.0,0.0,0.0,0.0,0.0
1666091911680277273,0.0,0.0,0.0,0.0,0.0,0.0
1666091911693402875,0.0,0.0,0.0,0.0,0.0,0.0
1666091911713669820,0.0,0.0,0.0,0.0,0.0,0.0
1666091911756121681,0.0,0.0,0.0,0.0,0.0,0.0
1666091911756137372,0.0,0.0,0.0,0.0,0.0,0.0
1666091911800092629,0.0,0.0,0.0,0.0,0.0,0.0
1666091911800107344,0.0,0.0,0.0,0.0,0.0,0.0
1666091911844284073,0.0,0.0,0.0,0.0,0.0,0.0
1666091911844306010,0.0,0.0,0.0,0.0,0.0,0.0
1666091911892132860,0.0,0.0,0.0,0.0,0.0,0.0
1666091911892161280,0.0,0.0,0.0,0.0,0.0,0.0
1666091911936149300,0.0,0.0,0.0,0.0,0.0,0.0
1666091911936175363,0.0,0.0,0.0,0.0,0.0,0.0
1666091911936194309,0.0,0.0,0.0,0.0,0.0,0.0
1666091911980102309,0.0,0.0,0.0,0.0,0.0,0.0
1666091911980118665,0.0,0.0,0.0,0.0,0.0,0.0
1666091911993425317,0.0,0.0,0.0,0.0,0.0,0.0
1666091912013613333,0.0,0.0,0.0,0.0,0.0,0.0
1666091912056242297,0.0,0.0,0.0,0.0,0.0,0.0
1666091912056262480,0.0,0.0,0.0,0.0,0.0,0.0
1666091912100138748,0.0,0.0,0.0,0.0,0.0,0.0
1666091912100157595,0.0,0.0,0.0,0.0,0.0,0.0
1666091912144145421,0.0,0.0,0.0,0.0,0.0,0.0
1666091912144167664,0.0,0.0,0.0,0.0,0.0,0.0
1666091912188101205,0.0,0.0,0.0,0.0,0.0,0.0
1666091912188112853,0.0,0.0,0.0,0.0,0.0,0.0
1666091912232078503,0.0,0.0,0.0,0.0,0.0,0.0
1666091912232092733,0.0,0.0,0.0,0.0,0.0,0.0
1666091912276158768,0.0,0.0,0.0,0.0,0.0,0.0
1666091912276183484,0.0,0.0,0.0,0.0,0.0,0.0
1666091912276195680,0.0,0.0,0.0,0.0,0.0,0.0
1666091912324063302,0.0,0.0,0.0,0.0,0.0,0.0
1666091912324077386,0.0,0.0,0.0,0.0,0.0,0.0
1666091912333171819,0.0,0.0,0.0,0.0,0.0,0.0
1666091912352992076,0.0,0.0,0.0,0.0,0.0,0.0
1666091912396076725,0.0,0.0,0.0,0.0,0.0,0.0
1666091912396088146,0.0,0.0,0.0,0.0,0.0,0.0
1666091912440127351,0.0,0.0,0.0,0.0,0.0,0.0
1666091912440149110,0.0,0.0,0.0,0.0,0.0,0.0
1666091912484083203,0.0,0.0,0.0,0.0,0.0,0.0
1666091912484094877,0.0,0.0,0.0,0.0,0.0,0.0
1666091912528065956,0.0,0.0,0.0,0.0,0.0,0.0
1666091912528084225,0.0,0.0,0.0,0.0,0.0,0.0
1666091912572461527,0.0,0.0,0.0,0.0,0.0,0.0
1666091912572516544,0.0,0.0,0.0,0.0,0.0,0.0
1666091912616085369,0.0,0.0,0.0,0.0,0.0,0.0
1666091912616098234,0.0,0.0,0.0,0.0,0.0,0.0
1666091912616107734,0.0,0.0,0.0,0.0,0.0,0.0
1666091912660089387,0.0,0.0,0.0,0.0,0.0,0.0
1666091912660107341,0.0,0.0,0.0,0.0,0.0,0.0
1666091912673039215,0.0,0.0,0.0,0.0,0.0,0.0
1666091912692799023,0.0,0.0,0.0,0.0,0.0,0.0
1666091912736179059,0.0,0.0,0.0,0.0,0.0,0.0
1666091912736219509,0.0,0.0,0.0,0.0,0.0,0.0
1666091912780145765,0.0,0.0,0.0,0.0,0.0,0.0
1666091912780198618,0.0,0.0,0.0,0.0,0.0,0.0
1666091912824070960,0.0,0.0,0.0,0.0,0.0,0.0
1666091912824094029,0.0,0.0,0.0,0.0,0.0,0.0
1666091912868139231,0.0,0.0,0.0,0.0,0.0,0.0
1666091912868160613,0.0,0.0,0.0,0.0,0.0,0.0
1666091912916111459,0.0,0.0,0.0,0.0,0.0,0.0
1666091912916127105,0.0,0.0,0.0,0.0,0.0,0.0
1666091912916136592,0.0,0.0,0.0,0.0,0.0,0.0
1666091912960198802,0.0,0.0,0.0,0.0,0.0,0.0
1666091912960208288,0.0,0.0,0.0,0.0,0.0,0.0
1666091912974117778,0.0,0.0,0.0,0.0,0.0,0.0
1666091912993961176,0.0,0.0,0.0,0.0,0.0,0.0
1666091913036139191,0.0,0.0,0.0,0.0,0.0,0.0
1666091913036164029,0.0,0.0,0.0,0.0,0.0,0.0
1666091913080056282,0.0,0.0,0.0,0.0,0.0,0.0
1666091913080070516,0.0,0.0,0.0,0.0,0.0,0.0
1666091913124187702,0.0,0.0,0.0,0.0,0.0,0.0
1666091913124214277,0.0,0.0,0.0,0.0,0.0,0.0
1666091913168422082,0.0,0.0,0.0,0.0,0.0,0.0
1666091913168476254,0.0,0.0,0.0,0.0,0.0,0.0
1666091913212109948,0.0,0.0,0.0,0.0,0.0,0.0
1666091913212120068,0.0,0.0,0.0,0.0,0.0,0.0
1666091913260104328,0.0,0.0,0.0,0.0,0.0,0.0
1666091913260126295,0.0,0.0,0.0,0.0,0.0,0.0
1666091913260133494,0.0,0.0,0.0,0.0,0.0,0.0
1666091913308231098,0.0,0.0,0.0,0.0,0.0,0.0
1666091913308255747,0.0,0.0,0.0,0.0,0.0,0.0
1666091913314842685,0.0,0.0,0.0,0.0,0.0,0.0
1666091913335508874,0.0,0.0,0.0,0.0,0.0,0.0
1666091913384822947,0.0,0.0,0.0,0.0,0.0,0.0
1666091913384853527,0.0,0.0,0.0,0.0,0.0,0.0
1666091913428055979,0.0,0.0,0.0,0.0,0.0,0.0
1666091913428066938,0.0,0.0,0.0,0.0,0.0,0.0
1666091913472624609,0.0,0.0,0.0,0.0,0.0,0.0
1666091913472698913,0.0,0.0,0.0,0.0,0.0,0.0
1666091913516200537,0.0,0.0,0.0,0.0,0.0,0.0
1666091913516224157,0.0,0.0,0.0,0.0,0.0,0.0
1666091913516230124,0.0,0.0,0.0,0.0,0.0,0.0
1666091913560169622,0.0,0.0,0.0,0.0,0.0,0.0
1666091913560194161,0.0,0.0,0.0,0.0,0.0,0.0
1666091913574415678,0.0,0.0,0.0,0.0,0.0,0.0
1666091913593612557,0.0,0.0,0.0,0.0,0.0,0.0
1666091913640536483,0.0,0.0,0.0,0.0,0.0,0.0
1666091913640599948,0.0,0.0,0.0,0.0,0.0,0.0
1666091913688292763,0.0,0.0,0.0,0.0,0.0,0.0
1666091913688309802,0.0,0.0,0.0,0.0,0.0,0.0
1666091913736082931,0.0,0.0,0.0,0.0,0.0,0.0
1666091913736100209,0.0,0.0,0.0,0.0,0.0,0.0
1666091913736105876,0.0,0.0,0.0,0.0,0.0,0.0
1666091913784215553,0.0,0.0,0.0,0.0,0.0,0.0
1666091913784283295,0.0,0.0,0.0,0.0,0.0,0.0
1666091913794764106,0.0,0.0,0.0,0.0,0.0,0.0
1666091913814651223,0.0,0.0,0.0,0.0,0.0,0.0
1666091913860452562,0.0,0.0,0.0,0.0,0.0,0.0
1666091913860514073,0.0,0.0,0.0,0.0,0.0,0.0
1666091913904134770,0.0,0.0,0.0,0.0,0.0,0.0
1666091913904154576,0.0,0.0,0.0,0.0,0.0,0.0
1666091913952211421,0.0,0.0,0.0,0.0,0.0,0.0
1666091913952249312,0.0,0.0,0.0,0.0,0.0,-0.0017453292519943296
1666091914000103880,0.0,0.0,0.0,0.0,0.0,0.00017453292519943296
1666091914000126763,0.0,0.0,0.0,0.0,0.0,0.0008726646259971648
1666091914000133643,0.0,0.0,0.0,0.0,0.0,-0.002967059728390361
1666091914048171424,0.0,0.0,0.0,0.0,0.0,-0.005235987755982988
1666091914048207978,0.02345532429171726,0.0,0.0,0.0,0.0,-0.0013962634015954637
1666091914054545202,0.017058417666703463,0.0,0.0,0.0,0.0,0.003316125578789226
1666091914079271263,0.008529208833351731,0.0,0.0,0.0,0.0,0.0013962634015954637
1666091914120389126,0.021323022083379328,0.0,0.0,0.0,0.0,-0.0041887902047863905
1666091914120419607,0.021323022083379328,0.0,0.0,0.0,0.0,0.002617993877991494
1666091914168289018,0.03624913754174486,0.0,0.0,0.0,0.0,0.0017453292519943296
1666091914168332442,0.029852230916731063,0.0,0.0,0.0,0.0,-0.006108652381980153
1666091914216090712,0.029852230916731063,0.0,0.0,0.0,0.0,-0.004014257279586958
1666091914216106617,0.04691064858343452,0.0,0.0,0.0,0.0,0.0027925268031909274
1666091914216116772,0.05757215962512419,0.0,0.0,0.0,0.0,-0.005585053606381855
1666091914264102255,0.06183676404180006,0.0,0.0,0.0,0.0,-0.008203047484373348
1666091914264120801,0.059704461833462126,0.0,0.0,0.0,0.0,-0.012740903539558606
1666091914275071454,0.05543985741678625,0.0,0.0,0.0,0.0,-0.02181661564992912
1666091914294713674,0.07249827508348972,0.0,0.0,0.0,0.0,-0.02617993877991494
1666091914340181950,0.08315978612517938,0.0,0.0,0.0,0.0,-0.03438298626428829
1666091914340202646,0.09808590158354492,0.0,0.0,0.0,0.0,-0.04363323129985824
1666091914388152647,0.09168899495853111,0.0,0.0,0.0,0.0,-0.049567350756638956
1666091914388171962,0.09168899495853111,0.0,0.0,0.0,0.0,-0.0497418836818384
1666091914432091572,0.10874741262523457,0.0,0.0,0.0,0.0,-0.057246799465414
1666091914432105081,0.11727662145858632,0.0,0.0,0.0,0.0,-0.05637413483941684
1666091914480274104,0.12154122587526218,0.0,0.0,0.0,0.0,-0.07086036763096977
1666091914480315518,0.11727662145858632,0.0,0.0,0.0,0.0,-0.07592182246175333
1666091914480344092,0.11727662145858632,0.0,0.0,0.0,0.0,-0.08674286382411817
1666091914528460058,0.1364673413336277,0.0,0.0,0.0,0.0,-0.11693705988362009
1666091914528517879,0.12793813250027597,0.0,0.0,0.0,0.0,-0.1233947781159991
1666091914534380249,0.1492611545836553,0.0,0.0,0.0,0.0,-0.1319468914507713
1666091914555125103,0.1407319457503036,0.0,0.0,0.0,0.0,-0.17435839227423353
1666091914600427718,0.14712885237531736,0.0,0.0,0.0,0.0,-0.1609193570338772
1666091914600476845,0.16631957225035876,0.0,0.0,0.0,0.0,-0.18099064343181195
1666091914648136180,0.16205496783368292,0.0,0.0,0.0,0.0,-0.2017600615305445
1666091914648157629,0.17484878108371052,0.0,0.0,0.0,0.0,-0.19844393595175525
1666091914692095865,0.16205496783368292,0.0,0.0,0.0,0.0,-0.21485003092050195
1666091914692105757,0.1684518744586967,0.0,0.0,0.0,0.0,-0.21799162357409177
1666091914741300923,0.18551029212540016,0.0,0.0,0.0,0.0,-0.25830872929516074
1666091914741350226,0.19830410537542775,0.0,0.0,0.0,0.0,-0.2553416695667704
1666091914741429470,0.19617180316708985,0.0,0.0,0.0,0.0,-0.24277529895241123
1666091914788163143,0.19190719875041395,0.0,0.0,0.0,0.0,-0.2815216083466853
1666091914788216455,0.19190719875041395,0.0,0.0,0.0,0.0,-0.28187067419708417
1666091914794680394,0.2196271274588071,0.0,0.0,0.0,0.0,-0.27663468644110123
1666091914814104528,0.21749482525046915,0.0,0.0,0.0,0.0,-0.29216811678385074
1666091914860097156,0.221759429667145,0.0,0.0,0.0,0.0,-0.30525808617380823
1666091914860110207,0.21109791862545538,0.0,0.0,0.0,0.0,-0.3272492347489368
1666091914912476458,0.221759429667145,0.0,0.0,0.0,0.0,-0.3321361566545209
1666091914912520463,0.2388178473338485,0.0,0.0,0.0,0.0,-0.337023078560105
1666091914952055414,0.23455324291717264,0.0,0.0,0.0,0.0,-0.3270747018237373
1666091914952069748,0.23668554512551054,0.0,0.0,0.0,0.0,-0.33178709080412205
1666091915000094674,0.24734705616720024,0.0,0.0,0.0,0.0,-0.35604716740684317
1666091915000113585,0.24947935837553817,0.0,0.0,0.0,0.0,-0.3677408733952052
1666091915000168136,0.26653777604224166,0.0,0.0,0.0,0.0,-0.3822271061867581
1666091915048536107,0.26867007825057954,0.0,0.0,0.0,0.0,-0.38519416591514855
1666091915048628279,0.2771992870839313,0.0,0.0,0.0,0.0,-0.4063126498642799
1666091915055227470,0.2793315892922692,0.0,0.0,0.0,0.0,-0.42830379843940847
1666091915075501407,0.2729346826672554,0.0,0.0,0.0,0.0,-0.4396484385773716
1666091915120531870,0.28359619370894507,0.0,0.0,0.0,0.0,-0.43703044469938007
1666091915120571737,0.28999310033395886,0.0,0.0,0.0,0.0,-0.44802601898694444
1666091915164041979,0.3070515180006623,0.0,0.0,0.0,0.0,-0.4698426346368736
1666091915164052195,0.2963900069589727,0.0,0.0,0.0,0.0,-0.49096111858600483
1666091915208461574,0.2985223091673106,0.0,0.0,0.0,0.0,-0.5143485305627289
1666091915208567307,0.30918382020900026,0.0,0.0,0.0,0.0,-0.5133013330115322
1666091915252101539,0.3155807268340141,0.0,0.0,0.0,0.0,-0.5037020221255635
1666091915252111003,0.32410993566736584,0.0,0.0,0.0,0.0,-0.47211156266446613
1666091915296179641,0.31984533125069,0.0,0.0,0.0,0.0,-0.4667010419832837
1666091915296211709,0.31984533125069,0.0,0.0,0.0,0.0,-0.47472955654245763
1666091915296223276,0.34116835333406925,0.0,0.0,0.0,0.0,-0.4735078260660616
1666091915340190603,0.34969756216742104,0.0,0.0,0.0,0.0,-0.4780456821212469
1666091915340217612,0.33050684229237964,0.0,0.0,0.0,0.0,-0.4738568919164604
1666091915355218793,0.32410993566736584,0.0,0.0,0.0,0.0,-0.48659779545601906
1666091915376301824,0.3390360511257314,0.0,0.0,0.0,0.0,-0.5028293574995664
1666091915420145406,0.3390360511257314,0.0,0.0,0.0,0.0,-0.51399946471233
1666091915420179482,0.3347714467090555,0.0,0.0,0.0,0.0,-0.5351179486614615
1666091915468131405,0.31984533125069,0.0,0.0,0.0,0.0,-0.5508259119294104
1666091915468154565,0.3262422378757037,0.0,0.0,0.0,0.0,-0.5605997557405786
1666091915516173956,0.34116835333406925,0.0,0.0,0.0,0.0,-0.5651376117957639
1666091915516197831,0.3390360511257314,0.0,0.0,0.0,0.0,-0.5365142120630568
1666091915516210066,0.31984533125069,0.0,0.0,0.0,0.0,-0.5298819609054785
1666091915564123406,0.32410993566736584,0.0,0.0,0.0,0.0,-0.5145230634879283
1666091915564149751,0.32837454008404166,0.0,0.0,0.0,0.0,-0.5077162794051505
1666091915575281588,0.32197763345902786,0.0,0.0,0.0,0.0,-0.4979424355939822
1666091915594786668,0.18124568770872432,0.0,0.0,0.0,0.0,-0.46722464075888204
1666091915640291544,0.16418727004202083,0.0,0.0,0.0,0.0,-0.482932604026831
1666091915640373076,0.08315978612517938,0.0,0.0,0.0,0.0,-0.4698426346368736
1666091915688174130,0.10448280820855872,0.0,0.0,0.0,0.0,-0.4975933697435834
1666091915688203090,0.12580583029193804,0.0,0.0,0.0,0.0,-0.5408775351930427
1666091915736141691,0.034116835333406925,0.0,0.0,0.0,0.0,-0.5012585611727715
1666091915736160842,0.008529208833351731,0.0,0.0,0.0,0.0,-0.4735078260660616
1666091915736174377,0.03838143975008279,0.0,0.0,0.0,0.0,-0.49986229777117597
1666091915784504872,0.051175253000110395,0.0,0.0,0.0,0.0,-0.4679227724596797
1666091915784597703,0.051175253000110395,0.0,0.0,0.0,0.0,-0.35133477842645855
1666091915794979202,0.044778346375096596,0.0,0.0,0.0,0.0,-0.29670597283903605
1666091915815013609,0.04051374195842073,0.0,0.0,0.0,0.0,-0.2982767691658309
1666091915856374607,0.027719928708393127,0.0,0.0,0.0,0.0,-0.32148964821735554
1666091915907738651,0.02345532429171726,0.0,0.0,0.0,0.0,-0.3186971214141646
1666091915907767588,0.006396906625013799,0.0,0.0,0.0,0.0,-0.30159289474462014
1666091915907782354,-0.004264604416675866,0.0,0.0,0.0,0.0,-0.27436575841350863
1666091915952380738,-0.010661511041689664,0.0,0.0,0.0,0.0,-0.25935592684635733
1666091915952442735,-0.017058417666703463,0.0,0.0,0.0,0.0,-0.273318560862312
1666091915955776315,-0.017058417666703463,0.0,0.0,0.0,0.0,-0.25342180738957665
1666091915976223063,-0.025587626500055197,0.0,0.0,0.0,0.0,-0.21729349187329403
1666091916016145678,-0.025587626500055197,0.0,0.0,0.0,0.0,-0.1916371518689774
1666091916016171359,-0.012793813250027599,0.0,0.0,0.0,0.0,-0.18308503853420516
1666091916064171830,-0.002132302208337933,0.0,0.0,0.0,0.0,-0.18430676901060122
1666091916064197214,-0.004264604416675866,0.0,0.0,0.0,0.0,-0.1858775653373961
1666091916112081139,-0.002132302208337933,0.0,0.0,0.0,0.0,-0.14556045961632708
1666091916112096238,0.012793813250027599,0.0,0.0,0.0,0.0,-0.1322959573011702
1666091916156192749,0.014926115458365532,0.0,0.0,0.0,0.0,-0.13264502315156904
1666091916156211088,0.014926115458365532,0.0,0.0,0.0,0.0,-0.12671090369478832
1666091916156267481,0.019190719875041395,0.0,0.0,0.0,0.0,-0.1254891732183923
1666091916200076451,0.014926115458365532,0.0,0.0,0.0,0.0,-0.1233947781159991
1666091916200094871,0.008529208833351731,0.0,0.0,0.0,0.0,-0.11571532940722405
1666091916215693948,0.012793813250027599,0.0,0.0,0.0,0.0,-0.12147491593880534
1666091916238044783,0.012793813250027599,0.0,0.0,0.0,0.0,-0.1270599695451872
1666091916280459992,0.008529208833351731,0.0,0.0,0.0,0.0,-0.11588986233242347
1666091916280544131,0.006396906625013799,0.0,0.0,0.0,0.0,-0.09843656981248018
1666091916324170600,0.004264604416675866,0.0,0.0,0.0,0.0,-0.0932005820564972
1666091916324218791,-0.004264604416675866,0.0,0.0,0.0,0.0,-0.09843656981248018
1666091916368389124,0.0,0.0,0.0,0.0,0.0,-0.08761552845011533
1666091916368503419,-0.004264604416675866,0.0,0.0,0.0,0.0,-0.08464846872172498
1666091916416064367,0.002132302208337933,0.0,0.0,0.0,0.0,-0.08918632477691024
1666091916416077941,0.004264604416675866,0.0,0.0,0.0,0.0,-0.08831366015091306
1666091916416086815,0.004264604416675866,0.0,0.0,0.0,0.0,-0.07661995416255106
1666091916460266333,0.004264604416675866,0.0,0.0,0.0,0.0,-0.07819075048934597
1666091916460319761,0.006396906625013799,0.0,0.0,0.0,0.0,-0.08325220532012952
1666091916476070037,0.006396906625013799,0.0,0.0,0.0,0.0,-0.06544984694978735
1666091916496904746,0.002132302208337933,0.0,0.0,0.0,0.0,-0.03944444109507184
1666091916544291585,0.004264604416675866,0.0,0.0,0.0,0.0,-0.029670597283903602
1666091916544415275,0.002132302208337933,0.0,0.0,0.0,0.0,-0.030019663134302467
1666091916592058293,0.002132302208337933,0.0,0.0,0.0,0.0,-0.023387411976724018
1666091916592074069,0.0,0.0,0.0,0.0,0.0,-0.016929693744344998
1666091916636710102,0.0,0.0,0.0,0.0,0.0,-0.015533430342749534
1666091916636800601,0.0,0.0,0.0,0.0,0.0,-0.01884955592153876
1666091916680265483,0.002132302208337933,0.0,0.0,0.0,0.0,-0.0158824961931484
1666091916680291463,0.0,0.0,0.0,0.0,0.0,-0.0031415926535897933
1666091916680299470,0.0,0.0,0.0,0.0,0.0,-0.003316125578789226
1666091916724114105,0.004264604416675866,0.0,0.0,0.0,0.0,-0.012391837689159739
1666091916724131956,0.002132302208337933,0.0,0.0,0.0,0.0,-0.01291543646475804
1666091916735523303,0.002132302208337933,0.0,0.0,0.0,0.0,-0.020420352248333655
1666091916755518239,0.0,0.0,0.0,0.0,0.0,-0.027925268031909273
1666091916800122966,0.004264604416675866,0.0,0.0,0.0,0.0,-0.030368728984701335
1666091916800135545,0.004264604416675866,0.0,0.0,0.0,0.0,-0.023561944901923447
1666091916844236234,0.0,0.0,0.0,0.0,0.0,-0.017278759594743863
1666091916844260094,0.0,0.0,0.0,0.0,0.0,-0.007853981633974483
1666091916888299887,0.002132302208337933,0.0,0.0,0.0,0.0,-0.006981317007977318
1666091916888319862,0.0,0.0,0.0,0.0,0.0,-0.0054105206811824215
1666091916932133898,0.002132302208337933,0.0,0.0,0.0,0.0,-0.0031415926535897933
1666091916932152193,0.002132302208337933,0.0,0.0,0.0,0.0,-0.0054105206811824215
1666091916976129405,0.004264604416675866,0.0,0.0,0.0,0.0,-0.008377580409572781
1666091916976155696,0.0,0.0,0.0,0.0,0.0,-0.011868238913561443
1666091916976190212,0.002132302208337933,0.0,0.0,0.0,0.0,-0.014486232791552934
1666091917020721666,0.0,0.0,0.0,0.0,0.0,-0.019198621771937627
1666091917020800137,0.0,0.0,0.0,0.0,0.0,-0.018675022996339326
1666091917035579476,0.0,0.0,0.0,0.0,0.0,-0.009948376736367677
1666091917056380331,0.002132302208337933,0.0,0.0,0.0,0.0,-0.0054105206811824215
1666091917100341391,0.002132302208337933,0.0,0.0,0.0,0.0,-0.0008726646259971648
1666091917100387433,0.0,0.0,0.0,0.0,0.0,0.0010471975511965976
1666091917144588935,0.004264604416675866,0.0,0.0,0.0,0.0,0.0
1666091917144679140,0.0,0.0,0.0,0.0,0.0,-0.004014257279586958
1666091917188340232,0.0,0.0,0.0,0.0,0.0,-0.015707963267948967
1666091917188388363,0.0,0.0,0.0,0.0,0.0,-0.01832595714594046
1666091917232098670,0.002132302208337933,0.0,0.0,0.0,0.0,-0.016057029118347832
1666091917232116729,0.0,0.0,0.0,0.0,0.0,-0.007853981633974483
1666091917276408288,0.0,0.0,0.0,0.0,0.0,-0.004014257279586958
1666091917276436704,0.0,0.0,0.0,0.0,0.0,-0.006806784082777885
1666091917276712424,0.002132302208337933,0.0,0.0,0.0,0.0,-0.005934119456780722
1666091917320579053,0.0,0.0,0.0,0.0,0.0,-0.0041887902047863905
1666091917320628476,0.0,0.0,0.0,0.0,0.0,0.0
1666091917336443484,0.0,0.0,0.0,0.0,0.0,-0.00034906585039886593
1666091917356559684,0.0,0.0,0.0,0.0,0.0,0.0010471975511965976
1666091917400112669,0.0,0.0,0.0,0.0,0.0,0.0027925268031909274
1666091917400123160,0.0,0.0,0.0,0.0,0.0,0.0
1666091917444248820,0.0,0.0,0.0,0.0,0.0,-0.002967059728390361
1666091917444288772,0.004264604416675866,0.0,0.0,0.0,0.0,-0.005585053606381855
1666091917488071727,0.004264604416675866,0.0,0.0,0.0,0.0,-0.004886921905584123
1666091917488088096,0.0,0.0,0.0,0.0,0.0,-0.005235987755982988
1666091917532131840,0.002132302208337933,0.0,0.0,0.0,0.0,-0.007330382858376183
1666091917532150788,0.0,0.0,0.0,0.0,0.0,-0.012042771838760872
1666091917576362563,0.002132302208337933,0.0,0.0,0.0,0.0,-0.011519173063162576
1666091917576387064,0.0,0.0,0.0,0.0,0.0,-0.01361356816555577
1666091917620145868,0.0,0.0,0.0,0.0,0.0,-0.0143116998663535
1666091917620167828,0.0,0.0,0.0,0.0,0.0,-0.007504915783575617
1666091917620184986,0.0,0.0,0.0,0.0,0.0,-0.0015707963267948967
1666091917664320621,0.0,0.0,0.0,0.0,0.0,-0.0008726646259971648
1666091917664378913,0.0,0.0,0.0,0.0,0.0,-0.0024434609527920616
1666091917677670294,0.0,0.0,0.0,0.0,0.0,-0.0038397243543875246
1666091917696068451,0.0,0.0,0.0,0.0,0.0,-0.004537856055185257
1666091917740590372,0.0,0.0,0.0,0.0,0.0,-0.0019198621771937623
1666091917740667426,0.004264604416675866,0.0,0.0,0.0,0.0,-0.00471238898038469
1666091917784134067,0.0,0.0,0.0,0.0,0.0,-0.004363323129985824
1666091917784159663,0.0,0.0,0.0,0.0,0.0,-0.0054105206811824215
1666091917832368559,0.0,0.0,0.0,0.0,0.0,-0.003316125578789226
1666091917832419163,0.0,0.0,0.0,0.0,0.0,-0.0017453292519943296
1666091917876667278,0.0,0.0,0.0,0.0,0.0,-0.005061454830783556
1666091917876744298,0.0,0.0,0.0,0.0,0.0,-0.0015707963267948967
1666091917924200994,0.0,0.0,0.0,0.0,0.0,-0.0006981317007977319
1666091917924216105,0.0,0.0,0.0,0.0,0.0,-0.0017453292519943296
1666091917924240746,0.0,0.0,0.0,0.0,0.0,-0.0027925268031909274
1666091917968380842,0.0,0.0,0.0,0.0,0.0,-0.004886921905584123
1666091917968444590,0.0,0.0,0.0,0.0,0.0,-0.0013962634015954637
1666091917975939972,0.0,0.0,0.0,0.0,0.0,0.00017453292519943296
1666091917996511491,0.0,0.0,0.0,0.0,0.0,-0.0038397243543875246
1666091918040095130,0.0,0.0,0.0,0.0,0.0,-0.00017453292519943296
1666091918040109572,0.0,0.0,0.0,0.0,0.0,-0.0019198621771937623
1666091918084724231,0.0,0.0,0.0,0.0,0.0,-0.002617993877991494
1666091918084755993,0.0,0.0,0.0,0.0,0.0,-0.0013962634015954637
1666091918128076111,0.0,0.0,0.0,0.0,0.0,-0.00034906585039886593
1666091918128089870,0.0,0.0,0.0,0.0,0.0,-0.0008726646259971648
1666091918172090118,0.0,0.0,0.0,0.0,0.0,-0.0027925268031909274
1666091918172108847,0.0,0.0,0.0,0.0,0.0,-0.002967059728390361
1666091918220380337,0.0,0.0,0.0,0.0,0.0,0.0020943951023931952
1666091918220429279,0.0,0.0,0.0,0.0,0.0,0.0022689280275926286
1666091918220495863,0.0,0.0,0.0,0.0,0.0,-0.0013962634015954637
1666091918264120668,0.0,0.0,0.0,0.0,0.0,-0.0041887902047863905
1666091918264136566,0.0,0.0,0.0,0.0,0.0,-0.003316125578789226
1666091918277854492,0.0,0.0,0.0,0.0,0.0,-0.0031415926535897933
1666091918297115290,0.002132302208337933,0.0,0.0,0.0,0.0,-0.002617993877991494
1666091918340491195,0.0,0.0,0.0,0.0,0.0,-0.002967059728390361
1666091918340560048,0.0,0.0,0.0,0.0,0.0,-0.0012217304763960308
1666091918384088384,0.002132302208337933,0.0,0.0,0.0,0.0,0.0020943951023931952
1666091918384106842,0.008529208833351731,0.0,0.0,0.0,0.0,-0.00471238898038469
1666091918428176393,0.004264604416675866,0.0,0.0,0.0,0.0,-0.0041887902047863905
1666091918428211346,0.002132302208337933,0.0,0.0,0.0,0.0,-0.012042771838760872
1666091918472133321,0.002132302208337933,0.0,0.0,0.0,0.0,-0.02617993877991494
1666091918472164018,0.002132302208337933,0.0,0.0,0.0,0.0,-0.039968039870670144
1666091918516522784,0.002132302208337933,0.0,0.0,0.0,0.0,-0.044505895925855396
1666091918516551706,0.004264604416675866,0.0,0.0,0.0,0.0,-0.04485496177625426
1666091918564416576,0.002132302208337933,0.0,0.0,0.0,0.0,-0.04084070449666731
1666091918564476821,0.0,0.0,0.0,0.0,0.0,-0.04206243497306335
1666091918564510389,0.012793813250027599,0.0,0.0,0.0,0.0,-0.05235987755982988
1666091918612251114,0.010661511041689664,0.0,0.0,0.0,0.0,-0.060039326268604934
1666091918612300006,0.008529208833351731,0.0,0.0,0.0,0.0,-0.07347836150896127
1666091918617368693,0.002132302208337933,0.0,0.0,0.0,0.0,-0.0958185759344887
1666091918636683917,0.010661511041689664,0.0,0.0,0.0,0.0,-0.12252211349000193
1666091918680664782,0.008529208833351731,0.0,0.0,0.0,0.0,-0.13596114873035825
1666091918680723471,0.008529208833351731,0.0,0.0,0.0,0.0,-0.15969762655748115
1666091918724116424,0.014926115458365532,0.0,0.0,0.0,0.0,-0.18709929581379214
1666091918724129799,0.02345532429171726,0.0,0.0,0.0,0.0,-0.19600047499896323
1666091918768198112,0.029852230916731063,0.0,0.0,0.0,0.0,-0.1954768762233649
1666091918768259731,0.025587626500055197,0.0,0.0,0.0,0.0,-0.20123646275494617
1666091918816442173,0.025587626500055197,0.0,0.0,0.0,0.0,-0.21170843826691216
1666091918816518961,0.03198453312506899,0.0,0.0,0.0,0.0,-0.2155481626212997
1666091918860044094,0.029852230916731063,0.0,0.0,0.0,0.0,-0.19792033717615698
1666091918860056051,0.042646044166758657,0.0,0.0,0.0,0.0,-0.17400932642383465
1666091918860064041,0.042646044166758657,0.0,0.0,0.0,0.0,-0.1869247628885927
1666091918904934114,0.044778346375096596,0.0,0.0,0.0,0.0,-0.20996310901491783
1666091918905018378,0.05757215962512419,0.0,0.0,0.0,0.0,-0.22444934180647075
1666091918916858304,0.059704461833462126,0.0,0.0,0.0,0.0,-0.20943951023931953
1666091918936728885,0.06823367066681385,0.0,0.0,0.0,0.0,-0.20682151636132803
1666091918984123129,0.06610136845847592,0.0,0.0,0.0,0.0,-0.22043508452688382
1666091918984144136,0.06396906625013798,0.0,0.0,0.0,0.0,-0.23108159296404923
1666091919028317839,0.08955669275019319,0.0,0.0,0.0,0.0,-0.22078415037728272
1666091919028355804,0.08742439054185526,0.0,0.0,0.0,0.0,-0.21258110289290932
1666091919072117105,0.09382129716686904,0.0,0.0,0.0,0.0,-0.24120450262561632
1666091919072137675,0.08742439054185526,0.0,0.0,0.0,0.0,-0.26424284875194154
1666091919116175821,0.09168899495853111,0.0,0.0,0.0,0.0,-0.2700024352835228
1666091919116201842,0.1108797148335725,0.0,0.0,0.0,0.0,-0.27803094984269666
1666091919160390988,0.10661511041689664,0.0,0.0,0.0,0.0,-0.2565634000431664
1666091919160486552,0.11727662145858632,0.0,0.0,0.0,0.0,-0.2741912254883092
1666091919160531670,0.11940892366692425,0.0,0.0,0.0,0.0,-0.2867575961026683
1666091919204115928,0.11727662145858632,0.0,0.0,0.0,0.0,-0.26371924997634316
1666091919204132625,0.1364673413336277,0.0,0.0,0.0,0.0,-0.24434609527920614
1666091919217366686,0.13220273691695184,0.0,0.0,0.0,0.0,-0.2410299697004169
1666091919236415006,0.14286424795864153,0.0,0.0,0.0,0.0,-0.24905848425959082
1666091919284094752,0.14712885237531736,0.0,0.0,0.0,0.0,-0.2516764781375823
1666091919284137624,0.14286424795864153,0.0,0.0,0.0,0.0,-0.23387411976724018
1666091919328156313,0.15779036341700706,0.0,0.0,0.0,0.0,-0.22636920398366453
1666091919328184467,0.16205496783368292,0.0,0.0,0.0,0.0,-0.23527038316883564
1666091919372042181,0.1684518744586967,0.0,0.0,0.0,0.0,-0.24260076602721178
1666091919372053657,0.17271647887537256,0.0,0.0,0.0,0.0,-0.22287854547967584
1666091919416577667,0.16418727004202083,0.0,0.0,0.0,0.0,-0.21153390534171274
1666091919416619079,0.18337798991706222,0.0,0.0,0.0,0.0,-0.20245819323134223
1666091919460117821,0.18124568770872432,0.0,0.0,0.0,0.0,-0.20053833105414848
1666091919460143784,0.20256870979210362,0.0,0.0,0.0,0.0,-0.19128808601857855
1666091919460161315,0.2004364075837657,0.0,0.0,0.0,0.0,-0.1324704902263696
1666091919504203383,0.19830410537542775,0.0,0.0,0.0,0.0,-0.11379546723003027
1666091919504228710,0.21109791862545538,0.0,0.0,0.0,0.0,-0.09616764178488756
1666091919518007020,0.2196271274588071,0.0,0.0,0.0,0.0,-0.09389871375729493
1666091919536421990,0.22602403408382088,0.0,0.0,0.0,0.0,-0.08499753457212385
1666091919580428038,0.22815633629215884,0.0,0.0,0.0,0.0,-0.0757472895365539
1666091919628326519,0.22389173187548297,0.0,0.0,0.0,0.0,-0.08744099552491591
1666091919628363751,0.24308245175052437,0.0,0.0,0.0,0.0,-0.09634217471008698
1666091919628650472,0.2388178473338485,0.0,0.0,0.0,0.0,-0.09634217471008698
1666091919672169536,0.24947935837553817,0.0,0.0,0.0,0.0,-0.0916297857297023
1666091919672193113,0.24521475395886227,0.0,0.0,0.0,0.0,-0.09145525280450287
1666091919677434652,0.24947935837553817,0.0,0.0,0.0,0.0,-0.10035643198967394
1666091919697594044,0.26653777604224166,0.0,0.0,0.0,0.0,-0.1059414855960558
1666091919744443801,0.26440547383390367,0.0,0.0,0.0,0.0,-0.09861110273767962
1666091919744479411,0.2771992870839313,0.0,0.0,0.0,0.0,-0.09983283321407564
1666091919788610121,0.2771992870839313,0.0,0.0,0.0,0.0,-0.131423292675173
1666091919788635694,0.27080238045891747,0.0,0.0,0.0,0.0,-0.13997540600994524
1666091919836231735,0.28999310033395886,0.0,0.0,0.0,0.0,-0.14416419621473162
1666091919836243388,0.2963900069589727,0.0,0.0,0.0,0.0,-0.14556045961632708
1666091919880379417,0.2985223091673106,0.0,0.0,0.0,0.0,-0.15446163880149816
1666091919880475087,0.2963900069589727,0.0,0.0,0.0,0.0,-0.1647590813882647
1666091919880498077,0.2985223091673106,0.0,0.0,0.0,0.0,-0.16598081186466074
1666091919924189943,0.317713029042352,0.0,0.0,0.0,0.0,-0.16249015336067207
1666091919924217937,0.31984533125069,0.0,0.0,0.0,0.0,-0.14608405839192537
1666091919938248099,0.32410993566736584,0.0,0.0,0.0,0.0,-0.13892820845874862
1666091919957528107,0.32837454008404166,0.0,0.0,0.0,0.0,-0.12461650859239512
1666091920000111674,0.33050684229237964,0.0,0.0,0.0,0.0,-0.12147491593880534
1666091920000163433,0.3390360511257314,0.0,0.0,0.0,0.0,-0.1223475805648025
1666091920048869076,0.34330065554240724,0.0,0.0,0.0,0.0,-0.11414453308042916
1666091920048883205,0.3539621665840969,0.0,0.0,0.0,0.0,-0.11047934165124106
1666091920088133968,0.3560944687924348,0.0,0.0,0.0,0.0,-0.1117010721276371
1666091920088155725,0.3539621665840969,0.0,0.0,0.0,0.0,-0.11257373675363426
1666091920132071388,0.36675597983412445,0.0,0.0,0.0,0.0,-0.12042771838760874
1666091920132086983,0.36888828204246243,0.0,0.0,0.0,0.0,-0.1202531854624093
1666091920177211519,0.3731528864591383,0.0,0.0,0.0,0.0,-0.10646508437165408
1666091920177293911,0.38168209529249003,0.0,0.0,0.0,0.0,-0.10524335389525807
1666091920220500004,0.37741749087581417,0.0,0.0,0.0,0.0,-0.11676252695842064
1666091920220556063,0.38807900191750383,0.0,0.0,0.0,0.0,-0.12391837689159739
1666091920221019336,0.40940202400088316,0.0,0.0,0.0,0.0,-0.10925761117484502
1666091920264093032,0.41153432620922104,0.0,0.0,0.0,0.0,-0.10716321607245181
1666091920264111288,0.40513741958420724,0.0,0.0,0.0,0.0,-0.10663961729685353
1666091920277513160,0.40300511737586936,0.0,0.0,0.0,0.0,-0.11135200627723822
1666091920296876567,0.4179312328342349,0.0,0.0,0.0,0.0,-0.1174606586592184
1666091920340173035,0.42646044166758657,0.0,0.0,0.0,0.0,-0.10018189906447451
1666091920340193843,0.44138655712595215,0.0,0.0,0.0,0.0,-0.09407324668249435
1666091920384260827,0.42646044166758657,0.0,0.0,0.0,0.0,-0.0937241808320955
1666091920384311744,0.4328573482926004,0.0,0.0,0.0,0.0,-0.0937241808320955
1666091920432173398,0.4499157659593038,0.0,0.0,0.0,0.0,-0.09791297103688189
1666091920432194963,0.45418037037597975,0.0,0.0,0.0,0.0,-0.10070549784007281
1666091920476091431,0.46484188141766936,0.0,0.0,0.0,0.0,-0.10105456369047167
1666091920476106296,0.45204806816764176,0.0,0.0,0.0,0.0,-0.10943214410004444
1666091920520231451,0.46057727700099355,0.0,0.0,0.0,0.0,-0.10192722831646885
1666091920520271316,0.47976799687603494,0.0,0.0,0.0,0.0,-0.0958185759344887
1666091920520295875,0.4840326012927108,0.0,0.0,0.0,0.0,-0.09459684545809266
1666091920568068384,0.48616490350104874,0.0,0.0,0.0,0.0,-0.08621926504851989
1666091920568082539,0.49042950791772455,0.0,0.0,0.0,0.0,-0.0762708883121522
1666091920578339560,0.4882972057093866,0.0,0.0,0.0,0.0,-0.06073745796940267
1666091920597517224,0.49895871675107634,0.0,0.0,0.0,0.0,-0.0486946861306418
1666091920640105028,0.5010910189594143,0.0,0.0,0.0,0.0,-0.047123889803846894
1666091920640119981,0.5096202277927661,0.0,0.0,0.0,0.0,-0.05253441048502932
1666091920688308464,0.5138848322094418,0.0,0.0,0.0,0.0,-0.05375614096142535
1666091920688365637,0.5181494366261178,0.0,0.0,0.0,0.0,-0.05253441048502932
1666091920736135047,0.5245463432511316,0.0,0.0,0.0,0.0,-0.054105206811824215
1666091920736164553,0.5330755520844833,0.0,0.0,0.0,0.0,-0.05462880558742251
1666091920780139792,0.5416047609178349,0.0,0.0,0.0,0.0,-0.04345869837465881
1666091920780167566,0.5373401565011591,0.0,0.0,0.0,0.0,-0.033510321638291124
1666091920780183320,0.5394724587094971,0.0,0.0,0.0,0.0,-0.05794493116621174
1666091920824225758,0.5437370631261729,0.0,0.0,0.0,0.0,-0.07731808586334879
1666091920824257177,0.5565308763762006,0.0,0.0,0.0,0.0,-0.05026548245743669
1666091920838026347,0.5607954807928763,0.0,0.0,0.0,0.0,-0.048520153205442354
1666091920858385052,0.5671923874178901,0.0,0.0,0.0,0.0,-0.045029494701453704
1666091920900136258,0.5650600852095522,0.0,0.0,0.0,0.0,-0.04206243497306335
1666091920900162154,0.5757215962512419,0.0,0.0,0.0,0.0,-0.039269908169872414
1666091920944172477,0.5671923874178901,0.0,0.0,0.0,0.0,-0.03298672286269282
1666091920944193826,0.5863831072929316,0.0,0.0,0.0,0.0,-0.0158824961931484
1666091920988166111,0.5842508050845936,0.0,0.0,0.0,0.0,-0.004886921905584123
1666091920988196339,0.5885154095012695,0.0,0.0,0.0,0.0,-0.048520153205442354
1666091921032080192,0.5863831072929316,0.0,0.0,0.0,0.0,-0.027401669256310976
1666091921032091153,0.5970446183346212,0.0,0.0,0.0,0.0,-0.03752457891787808
1666091921076085621,0.5949123161262834,0.0,0.0,0.0,0.0,-0.05672320068981571
1666091921076103814,0.5906477117096074,0.0,0.0,0.0,0.0,-0.04014257279586957
1666091921120405419,0.5863831072929316,0.0,0.0,0.0,0.0,-0.031415926535897934
1666091921120430876,0.5906477117096074,0.0,0.0,0.0,0.0,0.0005235987755982988
1666091921120449040,0.5927800139179454,0.0,0.0,0.0,0.0,-0.005061454830783556
1666091921164098444,0.6098384315846489,0.0,0.0,0.0,0.0,-0.02530727415391778
1666091921164115102,0.5970446183346212,0.0,0.0,0.0,0.0,0.013788101090755204
1666091921178482750,0.5970446183346212,0.0,0.0,0.0,0.0,-0.010821041362364843
1666091921198470492,0.5970446183346212,0.0,0.0,0.0,0.0,-0.02600540585471551
1666091921240220004,0.5991769205429591,0.0,0.0,0.0,0.0,-0.006981317007977318
1666091921240282878,0.6055738271679729,0.0,0.0,0.0,0.0,-0.013264502315156903
1666091921288287384,0.603441524959635,0.0,0.0,0.0,0.0,-0.02391101075232232
1666091921288311960,0.6098384315846489,0.0,0.0,0.0,0.0,-0.015707963267948967
1666091921332462219,0.6098384315846489,0.0,0.0,0.0,0.0,0.0027925268031909274
1666091921332518479,0.6098384315846489,0.0,0.0,0.0,0.0,-0.022689280275926284
1666091921376059830,0.607706129376311,0.0,0.0,0.0,0.0,-0.04031710572106901
1666091921376072745,0.6098384315846489,0.0,0.0,0.0,0.0,-0.05637413483941684
1666091921421766361,0.603441524959635,0.0,0.0,0.0,0.0,-0.04206243497306335
1666091921421789737,0.6013092227512972,0.0,0.0,0.0,0.0,-0.06492624817418907
1666091921421803075,0.6055738271679729,0.0,0.0,0.0,0.0,-0.05794493116621174
1666091921468072280,0.6119707337929867,0.0,0.0,0.0,0.0,-0.05619960191421742
1666091921468094423,0.6055738271679729,0.0,0.0,0.0,0.0,-0.057246799465414
1666091921477631915,0.603441524959635,0.0,0.0,0.0,0.0,-0.056025068989017976
1666091921497711738,0.6013092227512972,0.0,0.0,0.0,0.0,-0.04153883619746504
1666091921544085103,0.6013092227512972,0.0,0.0,0.0,0.0,-0.03769911184307752
1666091921544106063,0.6055738271679729,0.0,0.0,0.0,0.0,-0.048869219055841226
1666091921588140496,0.603441524959635,0.0,0.0,0.0,0.0,-0.04782202150464464
1666091921588163770,0.607706129376311,0.0,0.0,0.0,0.0,-0.04625122517784973
1666091921632173333,0.607706129376311,0.0,0.0,0.0,0.0,-0.05864306286700947
1666091921632191060,0.607706129376311,0.0,0.0,0.0,0.0,-0.040491638646268445
1666091921676566470,0.607706129376311,0.0,0.0,0.0,0.0,-0.03717551306747922
1666091921677163602,0.603441524959635,0.0,0.0,0.0,0.0,-0.027401669256310976
1666091921720672213,0.6055738271679729,0.0,0.0,0.0,0.0,-0.02809980095710871
1666091921720756896,0.6141030360013247,0.0,0.0,0.0,0.0,-0.021642082724729686
1666091921720782164,0.6098384315846489,0.0,0.0,0.0,0.0,-0.0158824961931484
1666091921764060281,0.5821185028762557,0.0,0.0,0.0,0.0,-0.01117010721276371
1666091921764074732,0.5778538984595799,0.0,0.0,0.0,0.0,-0.05253441048502932
1666091921779165625,0.5927800139179454,0.0,0.0,0.0,0.0,-0.09459684545809266
1666091921798580464,0.5949123161262834,0.0,0.0,0.0,0.0,-0.11205013797803595
1666091921840341558,0.5799862006679177,0.0,0.0,0.0,0.0,-0.13107422682477415
1666091921840373978,0.5671923874178901,0.0,0.0,0.0,0.0,-0.10227629416686772
1666091921884143889,0.5735892940429039,0.0,0.0,0.0,0.0,-0.06894050545377602
1666091921884165178,0.5821185028762557,0.0,0.0,0.0,0.0,-0.10716321607245181
1666091921928132965,0.49042950791772455,0.0,0.0,0.0,0.0,-0.1773254520026239
1666091921928166301,0.49042950791772455,0.0,0.0,0.0,0.0,-0.14538592669112765
1666091921972397950,0.5330755520844833,0.0,0.0,0.0,0.0,-0.1593485607070823
1666091921972426868,0.5458693653345108,0.0,0.0,0.0,0.0,-0.2712241657599188
1666091922016156088,0.5032233211677521,0.0,0.0,0.0,0.0,-0.3529055747532534
1666091922016182362,0.5010910189594143,0.0,0.0,0.0,0.0,-0.3569198320328404
1666091922064409772,0.5224140410427935,0.0,0.0,0.0,0.0,-0.33021629447732714
1666091922064457017,0.5394724587094971,0.0,0.0,0.0,0.0,-0.3337069529813158
1666091922064466595,0.5245463432511316,0.0,0.0,0.0,0.0,-0.45361107259332617
1666091922108181409,0.5160171344177797,0.0,0.0,0.0,0.0,-0.4316199240181977
1666091922108222987,0.5160171344177797,0.0,0.0,0.0,0.0,-0.41608649367544814
1666091922118499236,0.5160171344177797,0.0,0.0,0.0,0.0,-0.4209734155810323
1666091922138413334,0.5053556233760901,0.0,0.0,0.0,0.0,-0.4319689898685966
1666091922180306344,0.5096202277927661,0.0,0.0,0.0,0.0,-0.4984660343695805
1666091922180350245,0.5032233211677521,0.0,0.0,0.0,0.0,-0.5276130328778859
1666091922224170032,0.5096202277927661,0.0,0.0,0.0,0.0,-0.5633922825437696
1666091922224197674,0.5010910189594143,0.0,0.0,0.0,0.0,-0.5701990666265475
1666091922272115027,0.507487925584428,0.0,0.0,0.0,0.0,-0.5977752688080579
1666091922272132100,0.5181494366261178,0.0,0.0,0.0,0.0,-0.6054547175168329
1666091922320278525,0.5138848322094418,0.0,0.0,0.0,0.0,-0.6251769380643688
1666091922320320433,0.5117525300011039,0.0,0.0,0.0,0.0,-0.6632251157578452
1666091922320411357,0.5117525300011039,0.0,0.0,0.0,0.0,-0.6627015169822469
