%time,field.linear.x,field.linear.y,field.linear.z,field.angular.x,field.angular.y,field.angular.z
1666091913891411330,0.015,0.0,0.0,0.0,0.0,-0.05818453427156231
1666091913940762286,0.03,0.0,0.0,0.0,0.0,-0.09844188595847422
1666091913990853491,0.045,0.0,0.0,0.0,0.0,-0.13885947032033963
1666091914041324679,0.06,0.0,0.0,0.0,0.0,-0.17927705468220506
1666091914090778094,0.075,0.0,0.0,0.0,0.0,-0.2183803787490043
1666091914140833530,0.09,0.0,0.0,0.0,0.0,-0.2574837028158035
1666091914190718847,0.105,0.0,0.0,0.0,0.0,-0.2972142580598996
1666091914241103227,0.12,0.0,0.0,0.0,0.0,-0.33694481330399567
1666091914290598616,0.135,0.0,0.0,0.0,0.0,-0.37667536854809175
1666091914340603863,0.15000000000000002,0.0,0.0,0.0,0.0,-0.42957432711455357
1666091914390599404,0.16500000000000004,0.0,0.0,0.0,0.0,-0.4824732856810154
1666091914440992976,0.18000000000000005,0.0,0.0,0.0,0.0,-0.5353722442474772
1666091914490773084,0.19500000000000006,0.0,0.0,0.0,0.0,-0.5891015162659743
1666091914540674223,0.21000000000000008,0.0,0.0,0.0,0.0,-0.6428307882844714
1666091914591052994,0.2250000000000001,0.0,0.0,0.0,0.0,-0.6793507378516039
1666091914640935700,0.2400000000000001,0.0,0.0,0.0,0.0,-0.7158706874187365
1666091914690632463,0.2550000000000001,0.0,0.0,0.0,0.0,-0.7534102744142841
1666091914742324176,0.27000000000000013,0.0,0.0,0.0,0.0,-0.7909498614098317
1666091914790705839,0.28500000000000014,0.0,0.0,0.0,0.0,-0.8135931413526443
1666091914844191588,0.30000000000000016,0.0,0.0,0.0,0.0,-0.8362364212954568
1666091914890705600,0.31500000000000017,0.0,0.0,0.0,0.0,-0.8600329547805423
1666091914940677223,0.3300000000000002,0.0,0.0,0.0,0.0,-0.8838294882656278
1666091914991354397,0.3450000000000002,0.0,0.0,0.0,0.0,-0.9076260217507133
1666091915040881336,0.3600000000000002,0.0,0.0,0.0,0.0,-0.9324871777240579
1666091915090689123,0.3750000000000002,0.0,0.0,0.0,0.0,-0.9573483336974026
1666091915141111735,0.39000000000000024,0.0,0.0,0.0,0.0,-0.9854998650930582
1666091915190668292,0.40500000000000025,0.0,0.0,0.0,0.0,-1.0200937128669076
1666091915241210033,0.41675230860710144,0.0,0.0,0.0,0.0,-1.0471975511965983
1666091915290985959,0.4098046422004699,0.0,0.0,0.0,0.0,-1.0471975511965983
1666091915340595670,0.4098046422004699,0.0,0.0,0.0,0.0,-1.0471975511965983
1666091915391703774,0.3998763263225555,0.0,0.0,0.0,0.0,-0.8726646259971653
1666091915440684325,0.3998763263225555,0.0,0.0,0.0,0.0,-0.8726646259971653
1666091915490591224,0.3998763263225555,0.0,0.0,0.0,0.0,-0.8726646259971653
1666091915540843373,0.24987632632255546,0.0,0.0,0.0,0.0,-0.8071945367306224
1666091915590671750,0.09987632632255544,0.0,0.0,0.0,0.0,-0.7417244474640795
1666091915640827137,0.0,0.0,0.0,0.0,0.0,-0.6981317007977323
1666091915690878359,0.0,0.0,0.0,0.0,0.0,-0.6038594663866271
1666091915740947494,0.0,0.0,0.0,0.0,0.0,-0.6038594663866271
1666091915790703055,0.0,0.0,0.0,0.0,0.0,-0.5606658412341624
1666091915841368282,0.0,0.0,0.0,0.0,0.0,-0.5235987755982994
1666091915892142390,0.0,0.0,0.0,0.0,0.0,-0.5235987755982994
1666091915940740518,0.0,0.0,0.0,0.0,0.0,-0.47433924642563136
1666091915991084713,0.0,0.0,0.0,0.0,0.0,-0.47433924642563136
1666091916041075007,0.0,0.0,0.0,0.0,0.0,-0.47433924642563136
1666091916091501400,0.0,0.0,0.0,0.0,0.0,-0.3838496988564337
1666091916140815486,0.0,0.0,0.0,0.0,0.0,-0.3490658503988664
1666091916190667256,0.0,0.0,0.0,0.0,0.0,-0.3490658503988664
1666091916244572095,0.0,0.0,0.0,0.0,0.0,-0.3490658503988664
1666091916290584827,0.0,0.0,0.0,0.0,0.0,-0.3048401894599783
1666091916340745028,0.0,0.0,0.0,0.0,0.0,-0.3048401894599783
1666091916392167833,0.0,0.0,0.0,0.0,0.0,-0.24655586848129948
1666091916440600317,0.0,0.0,0.0,0.0,0.0,-0.22132252324364096
1666091916490588939,0.0,0.0,0.0,0.0,0.0,-0.22132252324364096
1666091916542401402,0.0,0.0,0.0,0.0,0.0,-0.17453292519943345
1666091916590613910,0.0,0.0,0.0,0.0,0.0,-0.17453292519943345
1666091916642838873,0.0,0.0,0.0,0.0,0.0,-0.17453292519943345
1666091916690668044,0.0,0.0,0.0,0.0,0.0,-0.17453292519943345
1666091916741306891,0.0,0.0,0.0,0.0,0.0,-0.17453292519943345
1666091916793101846,0.0,0.0,0.0,0.0,0.0,-0.17453292519943345
1666091916841676227,0.0,0.0,0.0,0.0,0.0,-0.17453292519943345
1666091916890624780,0.0,0.0,0.0,0.0,0.0,-0.17453292519943345
1666091916940918525,0.0,0.0,0.0,0.0,0.0,-0.17453292519943345
1666091916990669255,0.0,0.0,0.0,0.0,0.0,-0.17453292519943345
1666091917040745204,0.0,0.0,0.0,0.0,0.0,-0.17453292519943345
1666091917090612404,0.0,0.0,0.0,0.0,0.0,-0.17453292519943345
1666091917140889664,0.0,0.0,0.0,0.0,0.0,-0.17453292519943345
1666091917191715089,0.0,0.0,0.0,0.0,0.0,-0.17453292519943345
1666091917241074914,0.0,0.0,0.0,0.0,0.0,-0.17453292519943345
1666091917291126600,0.0,0.0,0.0,0.0,0.0,-0.17453292519943345
1666091917340800600,0.0,0.0,0.0,0.0,0.0,-0.17453292519943345
1666091917391174919,0.0,0.0,0.0,0.0,0.0,-0.17453292519943345
1666091917440958802,0.0,0.0,0.0,0.0,0.0,-0.17453292519943345
1666091917490755379,0.0,0.0,0.0,0.0,0.0,-0.17453292519943345
1666091917540943572,0.0,0.0,0.0,0.0,0.0,-0.17453292519943345
1666091917590641730,0.0,0.0,0.0,0.0,0.0,-0.17453292519943345
1666091917640770649,0.0,0.0,0.0,0.0,0.0,-0.17453292519943345
1666091917691067039,0.0,0.0,0.0,0.0,0.0,-0.17453292519943345
1666091917741483768,0.0,0.0,0.0,0.0,0.0,-0.17453292519943345
1666091917790621930,0.0,0.0,0.0,0.0,0.0,-0.17453292519943345
1666091917840609105,0.0,0.0,0.0,0.0,0.0,-0.17453292519943345
1666091917891258251,0.0,0.0,0.0,0.0,0.0,-0.17453292519943345
1666091917940831696,0.0,0.0,0.0,0.0,0.0,-0.17453292519943345
1666091917990728183,0.0,0.0,0.0,0.0,0.0,-0.17453292519943345
1666091918040773168,0.0,0.0,0.0,0.0,0.0,-0.17453292519943345
1666091918090703900,0.0,0.0,0.0,0.0,0.0,-0.17453292519943345
1666091918140985517,0.0,0.0,0.0,0.0,0.0,-0.17453292519943345
1666091918190549104,0.0,0.0,0.0,0.0,0.0,-0.17453292519943345
1666091918240679771,0.0,0.0,0.0,0.0,0.0,-0.23055147290031575
1666091918290954203,0.0,0.0,0.0,0.0,0.0,-0.26142478513204026
1666091918341614816,0.0,0.0,0.0,0.0,0.0,-0.289970356914865
1666091918390534066,0.0,0.0,0.0,0.0,0.0,-0.289970356914865
1666091918440647645,0.0,0.0,0.0,0.0,0.0,-0.3432963481806481
1666091918491080688,0.0,0.0,0.0,0.0,0.0,-0.40497512308744904
1666091918540959241,0.0,0.0,0.0,0.0,0.0,-0.40497512308744904
1666091918590611110,0.0,0.0,0.0,0.0,0.0,-0.46328490854750626
1666091918641158914,0.015,0.0,0.0,0.0,0.0,-0.44501337431346316
1666091918690654034,0.03,0.0,0.0,0.0,0.0,-0.42674184007942007
1666091918740567392,0.045,0.0,0.0,0.0,0.0,-0.40847030584537697
1666091918790651094,0.06,0.0,0.0,0.0,0.0,-0.39955649833931195
1666091918840744040,0.075,0.0,0.0,0.0,0.0,-0.39064269083324693
1666091918891003264,0.09,0.0,0.0,0.0,0.0,-0.4030123817651454
1666091918940584841,0.105,0.0,0.0,0.0,0.0,-0.40771839245755137
1666091918990658114,0.12,0.0,0.0,0.0,0.0,-0.4124244031499573
1666091919040614507,0.135,0.0,0.0,0.0,0.0,-0.4040495728856392
1666091919091424196,0.15000000000000002,0.0,0.0,0.0,0.0,-0.39619694418089674
1666091919140657640,0.16500000000000004,0.0,0.0,0.0,0.0,-0.3883443154761543
1666091919191121025,0.18000000000000005,0.0,0.0,0.0,0.0,-0.3811030505293607
1666091919240580250,0.19500000000000006,0.0,0.0,0.0,0.0,-0.37386178558256716
1666091919290728655,0.21000000000000008,0.0,0.0,0.0,0.0,-0.36745294386891214
1666091919340893476,0.2250000000000001,0.0,0.0,0.0,0.0,-0.3610441021552571
1666091919390958814,0.2400000000000001,0.0,0.0,0.0,0.0,-0.34664159699876285
1666091919440835598,0.2550000000000001,0.0,0.0,0.0,0.0,-0.34087748859846545
1666091919491106605,0.27000000000000013,0.0,0.0,0.0,0.0,-0.3278793459438424
1666091919540849160,0.28500000000000014,0.0,0.0,0.0,0.0,-0.3148812032892193
1666091919590820725,0.30000000000000016,0.0,0.0,0.0,0.0,-0.3103347677514822
1666091919640934551,0.31500000000000017,0.0,0.0,0.0,0.0,-0.30638886138763566
1666091919690959421,0.3300000000000002,0.0,0.0,0.0,0.0,-0.3024429550237891
1666091919740627369,0.3450000000000002,0.0,0.0,0.0,0.0,-0.29849704865994253
1666091919790976016,0.3600000000000002,0.0,0.0,0.0,0.0,-0.2953013385822398
1666091919841731609,0.3750000000000002,0.0,0.0,0.0,0.0,-0.28666771812846203
1666091919893831122,0.39000000000000024,0.0,0.0,0.0,0.0,-0.2852048226381535
1666091919940652640,0.40500000000000025,0.0,0.0,0.0,0.0,-0.28374192714784496
1666091919991349351,0.42000000000000026,0.0,0.0,0.0,0.0,-0.28328357727881354
1666091920043599671,0.4350000000000003,0.0,0.0,0.0,0.0,-0.2834859002668986
1666091920090689245,0.4500000000000003,0.0,0.0,0.0,0.0,-0.2836792765531981
1666091920140594073,0.4650000000000003,0.0,0.0,0.0,0.0,-0.28387265283949753
1666091920192479099,0.4800000000000003,0.0,0.0,0.0,0.0,-0.284066029125797
1666091920240657591,0.49500000000000033,0.0,0.0,0.0,0.0,-0.28779668409631265
1666091920290585901,0.5100000000000003,0.0,0.0,0.0,0.0,-0.2913389675252475
1666091920342405407,0.5250000000000004,0.0,0.0,0.0,0.0,-0.29489365505987963
1666091920390832556,0.5400000000000004,0.0,0.0,0.0,0.0,-0.29844834259451175
1666091920440983554,0.5550000000000004,0.0,0.0,0.0,0.0,-0.2956571721844396
1666091920491170388,0.5700000000000004,0.0,0.0,0.0,0.0,-0.29286600177436745
1666091920541002204,0.5850000000000004,0.0,0.0,0.0,0.0,-0.2956815159132593
1666091920590855172,0.6000000000000004,0.0,0.0,0.0,0.0,-0.2992428234668215
1666091920640627584,0.6150000000000004,0.0,0.0,0.0,0.0,-0.3028041310203837
1666091920690755993,0.6300000000000004,0.0,0.0,0.0,0.0,-0.30716519839364687
1666091920740727448,0.6450000000000005,0.0,0.0,0.0,0.0,-0.31227423919496305
1666091920790649344,0.6600000000000005,0.0,0.0,0.0,0.0,-0.3180664444005638
1666091920840654454,0.6750000000000005,0.0,0.0,0.0,0.0,-0.32385864960616456
1666091920891579361,0.6900000000000005,0.0,0.0,0.0,0.0,-0.3303950891352669
1666091920940668195,0.7050000000000005,0.0,0.0,0.0,0.0,-0.3369315286643692
1666091920990988606,0.7200000000000005,0.0,0.0,0.0,0.0,-0.39396313479069006
1666091921040953881,0.7337098782593767,0.0,0.0,0.0,0.0,-0.4939631347906901
1666091921090772150,0.7473071581692284,0.0,0.0,0.0,0.0,-0.5939631347906901
1666091921141813236,0.7589331159348851,0.0,0.0,0.0,0.0,-0.69396313479069
1666091921190639337,0.7705590737005418,0.0,0.0,0.0,0.0,-0.79396313479069
1666091921240920256,0.7821850314661984,0.0,0.0,0.0,0.0,-0.89396313479069
1666091921290706000,0.7938109892318552,0.0,0.0,0.0,0.0,-0.99396313479069
1666091921340752034,0.7999999999999999,0.0,0.0,0.0,0.0,-1.0471975511965983
1666091921390993509,0.7999999999999999,0.0,0.0,0.0,0.0,-1.0471975511965983
1666091921440943265,0.7999999999999999,0.0,0.0,0.0,0.0,-1.0471975511965983
1666091921491103244,0.7999999999999999,0.0,0.0,0.0,0.0,-1.0471975511965983
1666091921541262248,0.7999999999999999,0.0,0.0,0.0,0.0,-1.0471975511965983
1666091921590674929,0.7999999999999999,0.0,0.0,0.0,0.0,-1.0471975511965983
1666091921640573802,0.7999999999999999,0.0,0.0,0.0,0.0,-1.0471975511965983
1666091921690895445,0.7333717505333357,0.0,0.0,0.0,0.0,-1.1471975511965984
1666091921741242111,0.7469145655632019,0.0,0.0,0.0,0.0,-1.2217304763960313
1666091921790713959,0.7469145655632019,0.0,0.0,0.0,0.0,-1.2217304763960313
1666091921840719758,0.6028221845626831,0.0,0.0,0.0,0.0,-1.2217304763960313
1666091921890595291,0.6028221845626831,0.0,0.0,0.0,0.0,-1.2217304763960313
1666091921940528598,0.6178221845626831,0.0,0.0,0.0,0.0,-1.2217304763960313
1666091921991055939,0.6328221845626831,0.0,0.0,0.0,0.0,-1.2217304763960313
1666091922040548437,0.6378194760764689,0.0,0.0,0.0,0.0,-1.3217304763960314
1666091922091068664,0.640904426574707,0.0,0.0,0.0,0.0,-1.3962634015954642
1666091922140593122,0.640904426574707,0.0,0.0,0.0,0.0,-1.3962634015954642
1666091922191653097,0.6327148079872131,0.0,0.0,0.0,0.0,-1.3962634015954642
1666091922240791307,0.6327148079872131,0.0,0.0,0.0,0.0,-1.3962634015954642
1666091922290645334,0.6226294636726379,0.0,0.0,0.0,0.0,-1.3962634015954642
1666091922340650574,0.510356605052948,0.0,0.0,0.0,0.0,-1.2217304763960313
1666091922390679246,0.510356605052948,0.0,0.0,0.0,0.0,-1.2217304763960313
1666091922440581113,0.510356605052948,0.0,0.0,0.0,0.0,-1.2217304763960313
1666091922491085577,0.525356605052948,0.0,0.0,0.0,0.0,-1.2217304763960313
1666091922540670004,0.540356605052948,0.0,0.0,0.0,0.0,-1.2217304763960313
1666091922590559916,0.555356605052948,0.0,0.0,0.0,0.0,-1.2217304763960313
1666091922640936776,0.570356605052948,0.0,0.0,0.0,0.0,-1.2217304763960313
1666091922690541504,0.5853566050529481,0.0,0.0,0.0,0.0,-1.2217304763960313
1666091922740563418,0.4865238964557647,0.0,0.0,0.0,0.0,-1.2217304763960313
1666091922790740272,0.4865238964557647,0.0,0.0,0.0,0.0,-1.2217304763960313
1666091922841092184,0.5015238964557647,0.0,0.0,0.0,0.0,-1.2217304763960313
1666091922890538545,0.5165238964557647,0.0,0.0,0.0,0.0,-1.2217304763960313
1666091922940668335,0.5315238964557647,0.0,0.0,0.0,0.0,-1.164240175168762
1666091922991021220,0.5465238964557647,0.0,0.0,0.0,0.0,-1.106749873941493
1666091923040611732,0.5474382638931274,0.0,0.0,0.0,0.0,-1.0471975511965983
1666091923090722397,0.5263475179672241,0.0,0.0,0.0,0.0,-0.8726646259971653
1666091923140595930,0.5263475179672241,0.0,0.0,0.0,0.0,-0.8726646259971653
1666091923190824385,0.5263475179672241,0.0,0.0,0.0,0.0,-0.8726646259971653
1666091923240719617,0.5058733224868774,0.0,0.0,0.0,0.0,-0.6981317007977323
1666091923290860619,0.48089179396629333,0.0,0.0,0.0,0.0,-0.5235987755982994
1666091923340666462,0.48089179396629333,0.0,0.0,0.0,0.0,-0.5235987755982994
1666091923390646312,0.45369893312454224,0.0,0.0,0.0,0.0,-0.3490658503988664
1666091923440838030,0.4228465259075165,0.0,0.0,0.0,0.0,-0.3490658503988664
1666091923490694643,0.4228465259075165,0.0,0.0,0.0,0.0,-0.3490658503988664
1666091923540553662,0.4228465259075165,0.0,0.0,0.0,0.0,-0.3490658503988664
1666091923590742641,0.27284652590751646,0.0,0.0,0.0,0.0,-0.22523870662027035
1666091923640543325,0.12284652590751644,0.0,0.0,0.0,0.0,-0.10141156284167425
1666091923690962754,0.0,0.0,0.0,0.0,0.0,-4.996003610813204e-16
1666091923740578331,0.0,0.0,0.0,0.0,0.0,-4.996003610813204e-16
1666091923791036527,0.0,0.0,0.0,0.0,0.0,0.0999999999999995
1666091923841212342,0.0,0.0,0.0,0.0,0.0,0.1999999999999995
1666091923890647106,0.0,0.0,0.0,0.0,0.0,0.2999999999999995
1666091923940727309,0.0,0.0,0.0,0.0,0.0,0.3076008898016596
1666091923991848474,0.0,0.0,0.0,0.0,0.0,0.3802300487023827
1666091924040942249,0.0,0.0,0.0,0.0,0.0,0.3802300487023827
1666091924090652358,0.0,0.0,0.0,0.0,0.0,0.458080748230199
1666091924141548209,0.0,0.0,0.0,0.0,0.0,0.458080748230199
1666091924190684806,0.0,0.0,0.0,0.0,0.0,0.5009685375997388
1666091924240629176,0.0,0.0,0.0,0.0,0.0,0.5009685375997388
1666091924291519082,0.0,0.0,0.0,0.0,0.0,0.5240115741682556
1666091924340899129,0.0,0.0,0.0,0.0,0.0,0.5240115741682556
1666091924390950570,0.0,0.0,0.0,0.0,0.0,0.547680636839029
1666091924440576143,0.0,0.0,0.0,0.0,0.0,0.5315576606496376
1666091924491288275,0.0,0.0,0.0,0.0,0.0,0.5501204153894916
1666091924540660991,0.0,0.0,0.0,0.0,0.0,0.5501204153894916
1666091924590562898,0.0,0.0,0.0,0.0,0.0,0.5501204153894916
1666091924640878605,0.0,0.0,0.0,0.0,0.0,0.5644670496333521
1666091924691173133,0.0,0.0,0.0,0.0,0.0,0.5598682419301119
1666091924740625812,0.0,0.0,0.0,0.0,0.0,0.5598682419301119
1666091924790683443,0.0,0.0,0.0,0.0,0.0,0.5552490839567175
1666091924840648598,0.0,0.0,0.0,0.0,0.0,0.5396811892043338
1666091924891515387,0.0,0.0,0.0,0.0,0.0,0.5396811892043338
1666091924940691691,0.0,0.0,0.0,0.0,0.0,0.540282229463524
1666091924991284746,0.0,0.0,0.0,0.0,0.0,0.5124931539121202
1666091925040746107,0.0,0.0,0.0,0.0,0.0,0.5124931539121202
1666091925091297869,0.0,0.0,0.0,0.0,0.0,0.49503137488364346
1666091925140944991,0.0,0.0,0.0,0.0,0.0,0.4688861372301276
1666091925191408309,0.0,0.0,0.0,0.0,0.0,0.46868117135844484
1666091925240694925,0.0,0.0,0.0,0.0,0.0,0.46868117135844484
1666091925290802749,0.0,0.0,0.0,0.0,0.0,0.4379134459353052
1666091925340594674,0.0,0.0,0.0,0.0,0.0,0.4379134459353052
1666091925390692905,0.0,0.0,0.0,0.0,0.0,0.4379134459353052
1666091925441220593,0.015,0.0,0.0,0.0,0.0,0.42011493938404
1666091925490943275,0.03,0.0,0.0,0.0,0.0,0.4023164328327748
1666091925541362068,0.045,0.0,0.0,0.0,0.0,0.3873095736545844
1666091925591249433,0.06,0.0,0.0,0.0,0.0,0.3766429294911911
1666091925641078890,0.075,0.0,0.0,0.0,0.0,0.3659762853277978
1666091925690831158,0.09,0.0,0.0,0.0,0.0,0.3605363971636565
1666091925741055483,0.105,0.0,0.0,0.0,0.0,0.35510635145773667
1666091925790827156,0.12,0.0,0.0,0.0,0.0,0.3466154319597632
1666091925840818644,0.135,0.0,0.0,0.0,0.0,0.3381245124617897
1666091925890974626,0.15000000000000002,0.0,0.0,0.0,0.0,0.330901764064281
1666091925940673951,0.16500000000000004,0.0,0.0,0.0,0.0,0.3236790156667723
1666091925990801491,0.18000000000000005,0.0,0.0,0.0,0.0,0.31688132530547997
1666091926040668687,0.19500000000000006,0.0,0.0,0.0,0.0,0.31008363494418756
1666091926090816871,0.21000000000000008,0.0,0.0,0.0,0.0,0.30379550926094995
1666091926140632757,0.2250000000000001,0.0,0.0,0.0,0.0,0.29750738357771234
1666091926190797137,0.2400000000000001,0.0,0.0,0.0,0.0,0.29227319902664173
1666091926240725096,0.2550000000000001,0.0,0.0,0.0,0.0,0.2870390144755711
1666091926291303241,0.27000000000000013,0.0,0.0,0.0,0.0,0.28211352665404343
1666091926340824599,0.28500000000000014,0.0,0.0,0.0,0.0,0.27718803883251575
1666091926390648967,0.30000000000000016,0.0,0.0,0.0,0.0,0.27226255101098806
1666091926440673374,0.31500000000000017,0.0,0.0,0.0,0.0,0.2673370631894604
1666091926490821531,0.3300000000000002,0.0,0.0,0.0,0.0,0.262838245242818
1666091926542187085,0.3450000000000002,0.0,0.0,0.0,0.0,0.2585115569092731
1666091926591219835,0.3600000000000002,0.0,0.0,0.0,0.0,0.25418486857572814
1666091926640837280,0.3750000000000002,0.0,0.0,0.0,0.0,0.2499492648144735
1666091926690770962,0.39000000000000024,0.0,0.0,0.0,0.0,0.24571366105321885
1666091926741220869,0.40500000000000025,0.0,0.0,0.0,0.0,0.24607832716474792
1666091926790740838,0.42000000000000026,0.0,0.0,0.0,0.0,0.24156177390310704
1666091926841099589,0.4350000000000003,0.0,0.0,0.0,0.0,0.2368633956818781
1666091926890890967,0.4500000000000003,0.0,0.0,0.0,0.0,0.23216501746064913
1666091926940633124,0.4650000000000003,0.0,0.0,0.0,0.0,0.22708584095766007
1666091926990806544,0.4800000000000003,0.0,0.0,0.0,0.0,0.22144493090386277
1666091927040918655,0.49500000000000033,0.0,0.0,0.0,0.0,0.21580402085006548
1666091927091155560,0.5100000000000003,0.0,0.0,0.0,0.0,0.2093620897009865
1666091927140811155,0.5250000000000004,0.0,0.0,0.0,0.0,0.20159606392903306
1666091927190770584,0.5400000000000004,0.0,0.0,0.0,0.0,0.1938300381570796
1666091927240896340,0.5550000000000004,0.0,0.0,0.0,0.0,0.18418406850908647
1666091927290635640,0.5700000000000004,0.0,0.0,0.0,0.0,0.17453809886109334
1666091927341180358,0.5850000000000004,0.0,0.0,0.0,0.0,0.15416079829636414
1666091927391166830,0.5870988965034484,0.0,0.0,0.0,0.0,0.15130947530269623
1666091927441235057,0.5503919720649719,0.0,0.0,0.0,0.0,0.15220580995082855
1666091927494384065,0.5503919720649719,0.0,0.0,0.0,0.0,0.15220580995082855
1666091927541202996,0.5285130143165588,0.0,0.0,0.0,0.0,0.15150807797908783
1666091927592930569,0.5285130143165588,0.0,0.0,0.0,0.0,0.15150807797908783
1666091927641082246,0.5435130143165589,0.0,0.0,0.0,0.0,0.19032792450698488
1666091927690665755,0.4457931816577911,0.0,0.0,0.0,0.0,0.1462201625108719
1666091927740579457,0.4457931816577911,0.0,0.0,0.0,0.0,0.1462201625108719
1666091927790912456,0.41342908143997187,0.0,0.0,0.0,0.0,0.1418924331665039
1666091927841184241,0.41342908143997187,0.0,0.0,0.0,0.0,0.1418924331665039
1666091927890711376,0.34943521022796625,0.0,0.0,0.0,0.0,0.13556070625782013
1666091927940872949,0.3502880930900574,0.0,0.0,0.0,0.0,0.1358748823404312
1666091927991162805,0.31743848323822016,0.0,0.0,0.0,0.0,0.1337127834558487
1666091928040544098,0.31743848323822016,0.0,0.0,0.0,0.0,0.1337127834558487
1666091928091139963,0.2894817292690277,0.0,0.0,0.0,0.0,0.13075359165668488
1666091928140567207,0.26133742928504944,0.0,0.0,0.0,0.0,0.1286887228488922
1666091928190905271,0.27633742928504945,0.0,0.0,0.0,0.0,0.14076175036229044
1666091928241616738,0.29133742928504947,0.0,0.0,0.0,0.0,0.15283477787568867
1666091928290704612,0.2062830179929733,0.0,0.0,0.0,0.0,0.12681692838668823
1666091928340504291,0.2062830179929733,0.0,0.0,0.0,0.0,0.12681692838668823
1666091928391068066,0.1829389216043575,0.0,0.0,0.0,0.0,0.22681692838668824
1666091928441018954,0.15959482521574173,0.0,0.0,0.0,0.0,0.32681692838668824
1666091928490857041,0.13850836442338002,0.0,0.0,0.0,0.0,0.4268169283866883
1666091928540837990,0.11822613112579167,0.0,0.0,0.0,0.0,0.5268169283866883
1666091928590700524,0.09794389782820331,0.0,0.0,0.0,0.0,0.6268169283866882
1666091928640674476,0.07766166453061496,0.0,0.0,0.0,0.0,0.7268169283866882
1666091928691233234,0.060486112516464366,0.0,0.0,0.0,0.0,0.8268169283866882
1666091928741240777,0.04246176871839287,0.0,0.0,0.0,0.0,0.9268169283866882
1666091928791120469,0.024437424920321374,0.0,0.0,0.0,0.0,1.0268169283866881
1666091928841180917,0.0105133608918142,0.0,0.0,0.0,0.0,1.1268169283866882
1666091928890883197,0.0,0.0,0.0,0.0,0.0,1.2111341024980624
1666091928940685290,0.0,0.0,0.0,0.0,0.0,1.2111341024980624
1666091928994933830,0.0,0.0,0.0,0.0,0.0,1.1901668121794557
1666091929040734104,0.0,0.0,0.0,0.0,0.0,1.1524584118617238
1666091929091046726,0.0,0.0,0.0,0.0,0.0,1.1524584118617238
1666091929140953407,0.0,0.0,0.0,0.0,0.0,1.1464995911113482
1666091929190640097,0.0,0.0,0.0,0.0,0.0,1.1060178520942376
1666091929241069867,0.0,0.0,0.0,0.0,0.0,1.1060178520942376
1666091929290885393,0.015,0.0,0.0,0.0,0.0,1.0279131366903513
1666091929340734180,0.03,0.0,0.0,0.0,0.0,0.9626144844255172
1666091929391527791,0.045,0.0,0.0,0.0,0.0,0.9079722276388622
1666091929440581060,0.06,0.0,0.0,0.0,0.0,0.8632295525151606
1666091929490900864,0.075,0.0,0.0,0.0,0.0,0.8184868773914591
1666091929540711450,0.09,0.0,0.0,0.0,0.0,0.7737442022677575
1666091929591748790,0.0,0.0,0.0,0.0,0.0,0.0
1666091929640711543,0.015,0.0,0.0,0.0,0.0,0.007244756685080549
1666091929690674503,0.03,0.0,0.0,0.0,0.0,0.014489513370161099
1666091929740632687,0.045,0.0,0.0,0.0,0.0,0.021734270055241648
1666091929790962916,0.06,0.0,0.0,0.0,0.0,0.0248280309669605
1666091929840748234,0.075,0.0,0.0,0.0,0.0,0.02792179187867935
1666091929890943398,0.09,0.0,0.0,0.0,0.0,0.030122000360059253
1666091929941206558,0.105,0.0,0.0,0.0,0.0,0.03232220884143916
1666091929990831335,0.12,0.0,0.0,0.0,0.0,0.033990311575421484
1666091930040699496,0.135,0.0,0.0,0.0,0.0,0.03565841430940381
1666091930091413738,0.15000000000000002,0.0,0.0,0.0,0.0,0.03649320232406073
1666091930140688488,0.16500000000000004,0.0,0.0,0.0,0.0,0.037327990338717656
1666091930190900499,0.18000000000000005,0.0,0.0,0.0,0.0,0.039639701613244684
1666091930240532727,0.19500000000000006,0.0,0.0,0.0,0.0,0.04195141288777171
1666091930290751959,0.21000000000000008,0.0,0.0,0.0,0.0,0.04426312416229874
1666091930341158775,0.2250000000000001,0.0,0.0,0.0,0.0,0.046326346280489476
1666091930390997017,0.2400000000000001,0.0,0.0,0.0,0.0,0.04589735581413301
1666091930440728356,0.2550000000000001,0.0,0.0,0.0,0.0,0.04546836534777655
1666091930490758036,0.27000000000000013,0.0,0.0,0.0,0.0,0.04502380577365131
1666091930540565530,0.28500000000000014,0.0,0.0,0.0,0.0,0.04457924619952608
1666091930590615370,0.30000000000000016,0.0,0.0,0.0,0.0,0.04407542629911067
1666091930640576835,0.31500000000000017,0.0,0.0,0.0,0.0,0.043571606398695256
1666091930691772228,0.3300000000000002,0.0,0.0,0.0,0.0,0.04299528557057964
1666091930740611979,0.3450000000000002,0.0,0.0,0.0,0.0,0.042418964742464024
1666091930790942963,0.3600000000000002,0.0,0.0,0.0,0.0,0.04174425338916195
1666091930840953340,0.3750000000000002,0.0,0.0,0.0,0.0,0.04106954203585987
1666091930890714379,0.39000000000000024,0.0,0.0,0.0,0.0,0.040394830682557795
1666091930940769657,0.40500000000000025,0.0,0.0,0.0,0.0,0.03963303987349771
1666091930990764680,0.42000000000000026,0.0,0.0,0.0,0.0,0.038800952482838845
1666091931040621388,0.4350000000000003,0.0,0.0,0.0,0.0,0.03796886509217998
1666091931090853094,0.4500000000000003,0.0,0.0,0.0,0.0,0.03713677770152112
1666091931140563418,0.4650000000000003,0.0,0.0,0.0,0.0,0.04302518402286019
1666091931191336187,0.4800000000000003,0.0,0.0,0.0,0.0,0.04901786774082778
1666091931240596437,0.49500000000000033,0.0,0.0,0.0,0.0,0.055010551458795375
1666091931291031322,0.5100000000000003,0.0,0.0,0.0,0.0,0.06131803558808056
1666091931340771657,0.5250000000000004,0.0,0.0,0.0,0.0,0.06762551971736576
1666091931390973909,0.5400000000000004,0.0,0.0,0.0,0.0,0.07379946466299205
1666091931440710832,0.5550000000000004,0.0,0.0,0.0,0.0,0.07997340960861833
1666091931491106535,0.5700000000000004,0.0,0.0,0.0,0.0,0.08747290785021247
1666091931541062634,0.5850000000000004,0.0,0.0,0.0,0.0,0.09670735092846278
1666091931590809822,0.6000000000000004,0.0,0.0,0.0,0.0,0.10594179400671308
1666091931640783536,0.6150000000000004,0.0,0.0,0.0,0.0,0.11860920843661082
1666091931690607010,0.6300000000000004,0.0,0.0,0.0,0.0,0.13127662286650857
1666091931741123004,0.63923579454422,0.0,0.0,0.0,0.0,0.17453292519943245
1666091931790847196,0.6084612607955933,0.0,0.0,0.0,0.0,0.17453292519943245
1666091931841134310,0.6080348491668701,0.0,0.0,0.0,0.0,0.17453292519943245
1666091931891074372,0.6080348491668701,0.0,0.0,0.0,0.0,0.17453292519943245
1666091931940955690,0.5682563781738281,0.0,0.0,0.0,0.0,0.17453292519943245
1666091931990912807,0.5422488451004028,0.0,0.0,0.0,0.0,0.17453292519943245
1666091932040644503,0.5422488451004028,0.0,0.0,0.0,0.0,0.17453292519943245
1666091932090670242,0.5422488451004028,0.0,0.0,0.0,0.0,0.17453292519943245
1666091932140618490,0.5257450938224792,0.0,0.0,0.0,0.0,0.17453292519943245
1666091932191563759,0.4763174057006836,0.0,0.0,0.0,0.0,0.17453292519943245
1666091932241009289,0.4763174057006836,0.0,0.0,0.0,0.0,0.17453292519943245
1666091932290896964,0.44761294126510615,0.0,0.0,0.0,0.0,0.17453292519943245
1666091932340867798,0.44761294126510615,0.0,0.0,0.0,0.0,0.17453292519943245
1666091932392405054,0.4002203643321991,0.0,0.0,0.0,0.0,0.17453292519943245
1666091932440560441,0.3776210844516754,0.0,0.0,0.0,0.0,0.17453292519943245
1666091932490859517,0.3776210844516754,0.0,0.0,0.0,0.0,0.17453292519943245
1666091932542152899,0.2276210844516754,0.0,0.0,0.0,0.0,0.17453292519943245
1666091932590675306,0.07762108445167537,0.0,0.0,0.0,0.0,0.17453292519943245
1666091932640919089,0.0,0.0,0.0,0.0,0.0,0.17453292519943245
1666091932690691665,0.0,0.0,0.0,0.0,0.0,0.17453292519943245
1666091932740759055,0.0,0.0,0.0,0.0,0.0,0.17453292519943245
1666091932791547305,0.0,0.0,0.0,0.0,0.0,0.17453292519943245
1666091932841035478,0.015,0.0,0.0,0.0,0.0,0.17453292519943245
1666091932891775626,0.03,0.0,0.0,0.0,0.0,0.17453292519943245
1666091932941325876,0.045,0.0,0.0,0.0,0.0,0.17453292519943245
1666091932990910874,0.06,0.0,0.0,0.0,0.0,0.17453292519943245
1666091933040991360,0.075,0.0,0.0,0.0,0.0,0.17453292519943245
1666091933090653819,0.09,0.0,0.0,0.0,0.0,0.17049178541579255
1666091933141052392,0.105,0.0,0.0,0.0,0.0,0.16645064563215264
1666091933191523187,0.12,0.0,0.0,0.0,0.0,0.1590232478357102
1666091933240688104,0.135,0.0,0.0,0.0,0.0,0.15159585003926776
1666091933290875022,0.15000000000000002,0.0,0.0,0.0,0.0,0.14443182772256793
1666091933340561748,0.16500000000000004,0.0,0.0,0.0,0.0,0.1345432417942532
1666091933390822696,0.18000000000000005,0.0,0.0,0.0,0.0,0.12465465586593848
1666091933442043853,0.19500000000000006,0.0,0.0,0.0,0.0,0.11476606993762375
1666091933490706104,0.21000000000000008,0.0,0.0,0.0,0.0,0.10523094240511296
1666091933540955552,0.2250000000000001,0.0,0.0,0.0,0.0,0.09568612484647093
1666091933590750200,0.2400000000000001,0.0,0.0,0.0,0.0,0.08640149131112794
1666091933640642998,0.2550000000000001,0.0,0.0,0.0,0.0,0.07711685777578495
1666091933690744405,0.27000000000000013,0.0,0.0,0.0,0.0,0.07262654558200865
1666091933740764769,0.28500000000000014,0.0,0.0,0.0,0.0,0.06813623338823235
1666091933791074235,0.30000000000000016,0.0,0.0,0.0,0.0,0.06364592119445606
1666091933840941735,0.31500000000000017,0.0,0.0,0.0,0.0,0.053892675132842204
1666091933891272809,0.3300000000000002,0.0,0.0,0.0,0.0,0.044186372018241764
1666091933940693917,0.3450000000000002,0.0,0.0,0.0,0.0,0.034480068903641324
1666091933991709458,0.3600000000000002,0.0,0.0,0.0,0.0,0.024664105369450233
1666091934041143909,0.3750000000000002,0.0,0.0,0.0,0.0,0.01484814183525914
1666091934090812112,0.39000000000000024,0.0,0.0,0.0,0.0,0.0049936070714589765
1666091934140797472,0.40500000000000025,0.0,0.0,0.0,0.0,0.0007417353724366747
1666091934190536729,0.42000000000000026,0.0,0.0,0.0,0.0,-0.003510136326585627
1666091934241509759,0.4350000000000003,0.0,0.0,0.0,0.0,-0.014340158324536069
1666091934290733005,0.4500000000000003,0.0,0.0,0.0,0.0,-0.02517018032248651
1666091934340820034,0.4650000000000003,0.0,0.0,0.0,0.0,-0.05321389503907187
1666091934391785900,0.4800000000000003,0.0,0.0,0.0,0.0,-0.08125760975565723
1666091934441506302,0.49500000000000033,0.0,0.0,0.0,0.0,-0.11049439535662481
1666091934490710026,0.5100000000000003,0.0,0.0,0.0,0.0,-0.1397311809575924
1666091934540643704,0.5250000000000004,0.0,0.0,0.0,0.0,-0.1703049465195512
1666091934591840827,0.5400000000000004,0.0,0.0,0.0,0.0,-0.20239335652157825
1666091934640926379,0.5550000000000004,0.0,0.0,0.0,0.0,-0.2380318907459848
1666091934690632039,0.5700000000000004,0.0,0.0,0.0,0.0,-0.27367042497039135
1666091934741197190,0.5850000000000004,0.0,0.0,0.0,0.0,-0.30930895919479795
1666091934790583424,0.5947850942611694,0.0,0.0,0.0,0.0,-0.3490658503988664
1666091934840753041,0.5832183361053467,0.0,0.0,0.0,0.0,-0.16556814312934875
1666091934890838756,0.5168542861938477,0.0,0.0,0.0,0.0,-0.17453292519943345
1666091934940702297,0.5163567662239075,0.0,0.0,0.0,0.0,-0.17453292519943345
1666091934990782618,0.5163567662239075,0.0,0.0,0.0,0.0,-0.17453292519943345
1666091935040984147,0.5313567662239075,0.0,0.0,0.0,0.0,-0.22851529691022354
1666091935090563699,0.4937214271222754,0.0,0.0,0.0,0.0,-0.3285152969102235
1666091935141545834,0.5087214271222754,0.0,0.0,0.0,0.0,-0.41129688711721135
1666091935190722527,0.5237214271222754,0.0,0.0,0.0,0.0,-0.4940784773241993
1666091935240916599,0.5069728493690491,0.0,0.0,0.0,0.0,-0.5235987755982994
1666091935290617010,0.5069728493690491,0.0,0.0,0.0,0.0,-0.5235987755982994
1666091935340844362,0.491945067157187,0.0,0.0,0.0,0.0,-0.6235987755982993
1666091935390997842,0.4554687738418579,0.0,0.0,0.0,0.0,-0.6981317007977323
1666091935441107019,0.4312325119972229,0.0,0.0,0.0,0.0,-0.6981317007977323
1666091935490914637,0.4200623011002736,0.0,0.0,0.0,0.0,-0.7981317007977323
1666091935540700665,0.4117368161678314,0.0,0.0,0.0,0.0,-0.8726646259971653
1666091935590633963,0.4117368161678314,0.0,0.0,0.0,0.0,-0.8726646259971653
1666091935642323423,0.39287179708480835,0.0,0.0,0.0,0.0,-0.8726646259971653
1666091935690617866,0.39287179708480835,0.0,0.0,0.0,0.0,-0.8726646259971653
1666091935740682775,0.24287179708480833,0.0,0.0,0.0,0.0,-0.8194577053065262
1666091935790916378,0.0928717970848083,0.0,0.0,0.0,0.0,-0.7796847415646213
1666091935840820055,0.0,0.0,0.0,0.0,0.0,-0.7550594974439572
1666091935891649352,0.0,0.0,0.0,0.0,0.0,-0.7921323836385962
1666091935941323852,0.0,0.0,0.0,0.0,0.0,-0.814083505097942
1666091935990742723,0.0,0.0,0.0,0.0,0.0,-0.8271338266731649
1666091936040734763,0.0,0.0,0.0,0.0,0.0,-0.8271338266731649
1666091936090966283,0.0,0.0,0.0,0.0,0.0,-0.8726646259971653
1666091936140831988,0.0,0.0,0.0,0.0,0.0,-0.8726646259971653
1666091936190633637,0.0,0.0,0.0,0.0,0.0,-0.8726646259971653
1666091936241201546,0.0,0.0,0.0,0.0,0.0,-0.8726646259971653
1666091936290705442,0.0,0.0,0.0,0.0,0.0,-0.8293966786699203
1666091936340947968,0.0,0.0,0.0,0.0,0.0,-0.790167974539455
1666091936390923129,0.0,0.0,0.0,0.0,0.0,-0.790167974539455
1666091936441184574,0.0,0.0,0.0,0.0,0.0,-0.7530861088810524
1666091936490572594,0.0,0.0,0.0,0.0,0.0,-0.7530861088810524
1666091936540592842,0.0,0.0,0.0,0.0,0.0,-0.7530861088810524
1666091936590553852,0.0,0.0,0.0,0.0,0.0,-0.7530861088810524
1666091936640919596,0.0,0.0,0.0,0.0,0.0,-0.6674907063565971
1666091936691522351,0.0,0.0,0.0,0.0,0.0,-0.606542224170973
1666091936740643967,0.0,0.0,0.0,0.0,0.0,-0.605044777069698
1666091936790651957,0.0,0.0,0.0,0.0,0.0,-0.605044777069698
1666091936840688294,0.015,0.0,0.0,0.0,0.0,-0.6082898667390759
1666091936890686273,0.03,0.0,0.0,0.0,0.0,-0.6115349564084539
1666091936940769136,0.045,0.0,0.0,0.0,0.0,-0.608535288036496
1666091936990978545,0.06,0.0,0.0,0.0,0.0,-0.6003488424364735
1666091937040591375,0.075,0.0,0.0,0.0,0.0,-0.5921623968364509
1666091937090562559,0.09,0.0,0.0,0.0,0.0,-0.5839759512364283
1666091937140869241,0.105,0.0,0.0,0.0,0.0,-0.5766136001269536
1666091937190918409,0.12,0.0,0.0,0.0,0.0,-0.5692512490174789
1666091937240849317,0.135,0.0,0.0,0.0,0.0,-0.5539193149423756
1666091937291721552,0.15000000000000002,0.0,0.0,0.0,0.0,-0.5437409588590555
1666091937340574641,0.16500000000000004,0.0,0.0,0.0,0.0,-0.5335626027757354
1666091937390663780,0.18000000000000005,0.0,0.0,0.0,0.0,-0.5233842466924153
1666091937440786011,0.19500000000000006,0.0,0.0,0.0,0.0,-0.5132058906090953
1666091937490657389,0.21000000000000008,0.0,0.0,0.0,0.0,-0.5037482362005663
1666091937540856268,0.2250000000000001,0.0,0.0,0.0,0.0,-0.49447694417132926
1666091937590591864,0.2400000000000001,0.0,0.0,0.0,0.0,-0.4851910096284655
1666091937640943717,0.2550000000000001,0.0,0.0,0.0,0.0,-0.4760834602184905
1666091937690658007,0.27000000000000013,0.0,0.0,0.0,0.0,-0.4669759108085155
1666091937740602383,0.28500000000000014,0.0,0.0,0.0,0.0,-0.4579254943666128
1666091937791269651,0.30000000000000016,0.0,0.0,0.0,0.0,-0.44887507792471004
1666091937840648068,0.31500000000000017,0.0,0.0,0.0,0.0,-0.4364596291229547
1666091937890631228,0.3300000000000002,0.0,0.0,0.0,0.0,-0.4240441803211994
1666091937941044746,0.3450000000000002,0.0,0.0,0.0,0.0,-0.4147641422064036
1666091937990754437,0.3600000000000002,0.0,0.0,0.0,0.0,-0.40517400634219125
1666091938040616558,0.3750000000000002,0.0,0.0,0.0,0.0,-0.3955838704779789
1666091938090722770,0.39000000000000024,0.0,0.0,0.0,0.0,-0.3856269809233835
1666091938141216410,0.40500000000000025,0.0,0.0,0.0,0.0,-0.3756700913687881
1666091938190999499,0.42000000000000026,0.0,0.0,0.0,0.0,-0.364984423556038
1666091938240643226,0.4350000000000003,0.0,0.0,0.0,0.0,-0.3542987557432879
1666091938291451374,0.4500000000000003,0.0,0.0,0.0,0.0,-0.3426538246118301
1666091938340635658,0.4650000000000003,0.0,0.0,0.0,0.0,-0.32623003723893856
1666091938390756244,0.4800000000000003,0.0,0.0,0.0,0.0,-0.30980624986604705
1666091938443139239,0.49500000000000033,0.0,0.0,0.0,0.0,-0.2943563382594014
1666091938490561221,0.5100000000000003,0.0,0.0,0.0,0.0,-0.27890642665275567
1666091938540654332,0.5250000000000004,0.0,0.0,0.0,0.0,-0.26345651504611
1666091938590932205,0.5400000000000004,0.0,0.0,0.0,0.0,-0.24753863534739046
1666091938641043597,0.5550000000000004,0.0,0.0,0.0,0.0,-0.23162075564867088
1666091938690956745,0.5700000000000004,0.0,0.0,0.0,0.0,-0.21226827139207108
1666091938740755613,0.5850000000000004,0.0,0.0,0.0,0.0,-0.19291578713547128
1666091938790596065,0.6000000000000004,0.0,0.0,0.0,0.0,-0.17356330287887145
1666091938840912645,0.6150000000000004,0.0,0.0,0.0,0.0,-0.14151483895502598
1666091938890572902,0.6300000000000004,0.0,0.0,0.0,0.0,-0.10946637503118051
1666091938940925608,0.6450000000000005,0.0,0.0,0.0,0.0,-0.07741791110733504
1666091938990661696,0.49500000000000044,0.0,0.0,0.0,0.0,-0.008073644233912838
1666091939040734896,0.3450000000000004,0.0,0.0,0.0,0.0,0.06127062263950936
1666091939090744608,0.1950000000000004,0.0,0.0,0.0,0.0,0.13061488951293154
1666091939140814020,0.2100000000000004,0.0,0.0,0.0,0.0,0.13188297390628279
1666091939190612458,0.22500000000000042,0.0,0.0,0.0,0.0,0.13315105829963403
1666091939244595229,0.24000000000000044,0.0,0.0,0.0,0.0,0.1402251350979529
1666091939293614810,0.25500000000000045,0.0,0.0,0.0,0.0,0.14737495363455244
1666091939341167569,0.27000000000000046,0.0,0.0,0.0,0.0,0.154524772171152
1666091939390706665,0.2850000000000005,0.0,0.0,0.0,0.0,0.16193913942473714
1666091939440685483,0.3000000000000005,0.0,0.0,0.0,0.0,0.16921228975139765
1666091939490712914,0.3150000000000005,0.0,0.0,0.0,0.0,0.17648126075790044
1666091939540821231,0.3300000000000005,0.0,0.0,0.0,0.0,0.18375023176440322
1666091939591023031,0.34500000000000053,0.0,0.0,0.0,0.0,0.1909343905464776
1666091939640587704,0.36000000000000054,0.0,0.0,0.0,0.0,0.19783008880838182
1666091939690740778,0.37500000000000056,0.0,0.0,0.0,0.0,0.20472578707028602
1666091939740749183,0.39000000000000057,0.0,0.0,0.0,0.0,0.21162148533219022
1666091939790786731,0.4050000000000006,0.0,0.0,0.0,0.0,0.2181995822829467
1666091939840696514,0.4200000000000006,0.0,0.0,0.0,0.0,0.2252592504905948
1666091939890913557,0.4350000000000006,0.0,0.0,0.0,0.0,0.2323189186982429
1666091939940730816,0.4500000000000006,0.0,0.0,0.0,0.0,0.2391702330919821
1666091939990823743,0.46500000000000064,0.0,0.0,0.0,0.0,0.25670319918197104
1666091940040878177,0.48000000000000065,0.0,0.0,0.0,0.0,0.27423616527196
1666091940092205181,0.49500000000000066,0.0,0.0,0.0,0.0,0.3037178667444944
1666091940140988408,0.5100000000000007,0.0,0.0,0.0,0.0,0.33319956821702884
1666091940190664214,0.5250000000000007,0.0,0.0,0.0,0.0,0.33449373071731336
1666091940240874699,0.5400000000000007,0.0,0.0,0.0,0.0,0.33579487085320553
1666091940290602816,0.5550000000000007,0.0,0.0,0.0,0.0,0.3370960109890977
1666091940340767465,0.5700000000000007,0.0,0.0,0.0,0.0,0.3385046086100241
1666091940390613799,0.5850000000000007,0.0,0.0,0.0,0.0,0.33991320623095056
1666091940440831351,0.6000000000000008,0.0,0.0,0.0,0.0,0.34136324963435544
1666091940490948579,0.6150000000000008,0.0,0.0,0.0,0.0,0.3428282409965857
1666091940542777648,0.6300000000000008,0.0,0.0,0.0,0.0,0.344293232358816
1666091940590804851,0.6450000000000008,0.0,0.0,0.0,0.0,0.34599173475303163
1666091940640730035,0.6600000000000008,0.0,0.0,0.0,0.0,0.3476902371472473
1666091940690901045,0.6608945131301879,0.0,0.0,0.0,0.0,0.3490658503988654
1666091940741317197,0.6608945131301879,0.0,0.0,0.0,0.0,0.3490658503988654
1666091940790690659,0.6475690603256226,0.0,0.0,0.0,0.0,0.3490658503988654
1666091940841445462,0.6387514568618653,0.0,0.0,0.0,0.0,0.4490658503988654
1666091940890817203,0.6321794390678406,0.0,0.0,0.0,0.0,0.5235987755982984
1666091940941138070,0.5952983498573302,0.0,0.0,0.0,0.0,0.5235987755982984
1666091940990617237,0.575218141078949,0.0,0.0,0.0,0.0,0.5235987755982984
1666091941041193599,0.5759999752044678,0.0,0.0,0.0,0.0,0.5235987755982984
1666091941090651208,0.5759999752044678,0.0,0.0,0.0,0.0,0.5235987755982984
1666091941143227520,0.5759999752044678,0.0,0.0,0.0,0.0,0.5235987755982984
1666091941191091791,0.5261581540107727,0.0,0.0,0.0,0.0,0.5235987755982984
1666091941240652274,0.5261581540107727,0.0,0.0,0.0,0.0,0.5235987755982984
1666091941290622399,0.48363861441612244,0.0,0.0,0.0,0.0,0.5235987755982984
1666091941340725950,0.48513123393058777,0.0,0.0,0.0,0.0,0.5235987755982984
1666091941390876237,0.5001312339305878,0.0,0.0,0.0,0.0,0.5781936595976805
1666091941440546037,0.45334312319755554,0.0,0.0,0.0,0.0,0.5235987755982984
1666091941491198827,0.45334312319755554,0.0,0.0,0.0,0.0,0.5235987755982984
1666091941541268178,0.43919225189775846,0.0,0.0,0.0,0.0,0.6235987755982983
1666091941591567291,0.4286451935768127,0.0,0.0,0.0,0.0,0.6981317007977313
1666091941640783660,0.4436451935768127,0.0,0.0,0.0,0.0,0.6981317007977313
1666091941690933492,0.4139846265316009,0.0,0.0,0.0,0.0,0.6981317007977313
1666091941740870089,0.4139846265316009,0.0,0.0,0.0,0.0,0.6981317007977313
1666091941790760768,0.404072105884552,0.0,0.0,0.0,0.0,0.6981317007977313
1666091941841028161,0.419072105884552,0.0,0.0,0.0,0.0,0.6981317007977313
1666091941890628740,0.43407210588455203,0.0,0.0,0.0,0.0,0.6981317007977313
1666091941940765384,0.3840547502040863,0.0,0.0,0.0,0.0,0.6981317007977313
1666091941990642463,0.3759829103946686,0.0,0.0,0.0,0.0,0.6981317007977313
1666091942041055184,0.3691360056400299,0.0,0.0,0.0,0.0,0.6981317007977313
1666091942090560889,0.3691360056400299,0.0,0.0,0.0,0.0,0.6981317007977313
1666091942140857168,0.3631557822227478,0.0,0.0,0.0,0.0,0.6981317007977313
1666091942190910675,0.3631557822227478,0.0,0.0,0.0,0.0,0.6981317007977313
1666091942241080747,0.3516225218772888,0.0,0.0,0.0,0.0,0.6981317007977313
1666091942290544174,0.352120041847229,0.0,0.0,0.0,0.0,0.6981317007977313
1666091942342686710,0.34541842341423035,0.0,0.0,0.0,0.0,0.6981317007977313
1666091942391112284,0.3457027077674866,0.0,0.0,0.0,0.0,0.6981317007977313
1666091942440708869,0.3457027077674866,0.0,0.0,0.0,0.0,0.6981317007977313
1666091942490644983,0.3450160622596741,0.0,0.0,0.0,0.0,0.6981317007977313
1666091942540975541,0.3450160622596741,0.0,0.0,0.0,0.0,0.6981317007977313
1666091942590606453,0.3450160622596741,0.0,0.0,0.0,0.0,0.6981317007977313
1666091942642301327,0.3600160622596741,0.0,0.0,0.0,0.0,0.6981317007977313
1666091942690571213,0.364254355430603,0.0,0.0,0.0,0.0,0.6981317007977313
1666091942740938252,0.3708490431308746,0.0,0.0,0.0,0.0,0.6981317007977313
1666091942790847844,0.3809089362621307,0.0,0.0,0.0,0.0,0.6981317007977313
1666091942840816272,0.3809089362621307,0.0,0.0,0.0,0.0,0.6981317007977313
1666091942891028895,0.3959089362621307,0.0,0.0,0.0,0.0,0.6981317007977313
1666091942941055852,0.3983099162578583,0.0,0.0,0.0,0.0,0.6981317007977313
1666091942990633518,0.40833374857902527,0.0,0.0,0.0,0.0,0.6981317007977313
1666091943040792040,0.40833374857902527,0.0,0.0,0.0,0.0,0.6981317007977313
1666091943090633743,0.4196307361125946,0.0,0.0,0.0,0.0,0.6981317007977313
1666091943145745064,0.4314562678337097,0.0,0.0,0.0,0.0,0.6981317007977313
1666091943190563496,0.4314562678337097,0.0,0.0,0.0,0.0,0.6981317007977313
1666091943240998831,0.43899452686309814,0.0,0.0,0.0,0.0,0.5235987755982984
1666091943291839592,0.45148742198944086,0.0,0.0,0.0,0.0,0.5235987755982984
1666091943340984903,0.45148742198944086,0.0,0.0,0.0,0.0,0.5235987755982984
1666091943391007972,0.4664874219894409,0.0,0.0,0.0,0.0,0.5235987755982984
1666091943441289330,0.4814874219894409,0.0,0.0,0.0,0.0,0.5235987755982984
1666091943490749111,0.4964874219894409,0.0,0.0,0.0,0.0,0.5235987755982984
1666091943540896253,0.5114874219894409,0.0,0.0,0.0,0.0,0.5235987755982984
1666091943590580892,0.5141719579696655,0.0,0.0,0.0,0.0,0.5235987755982984
1666091943642965635,0.526078462600708,0.0,0.0,0.0,0.0,0.5235987755982984
1666091943691429704,0.526078462600708,0.0,0.0,0.0,0.0,0.5235987755982984
1666091943740737774,0.541078462600708,0.0,0.0,0.0,0.0,0.5235987755982984
1666091943790561743,0.5535218119621277,0.0,0.0,0.0,0.0,0.5235987755982984
1666091943840756592,0.5607790350914,0.0,0.0,0.0,0.0,0.5235987755982984
1666091943890945472,0.5681454539299011,0.0,0.0,0.0,0.0,0.3490658503988654
1666091943940607034,0.5681454539299011,0.0,0.0,0.0,0.0,0.3490658503988654
1666091943990647483,0.5681454539299011,0.0,0.0,0.0,0.0,0.3490658503988654
1666091944040913135,0.5697402358055115,0.0,0.0,0.0,0.0,0.3490658503988654
1666091944091094697,0.5723340511322021,0.0,0.0,0.0,0.0,0.3490658503988654
1666091944140841112,0.5723340511322021,0.0,0.0,0.0,0.0,0.3490658503988654
1666091944192165511,0.5713738972896275,0.0,0.0,0.0,0.0,0.4490658503988654
1666091944240847764,0.5706582665443419,0.0,0.0,0.0,0.0,0.5235987755982984
1666091944291320367,0.5856582665443419,0.0,0.0,0.0,0.0,0.5235987755982984
1666091944340694874,0.600658266544342,0.0,0.0,0.0,0.0,0.5235987755982984
1666091944390594864,0.5654565095901489,0.0,0.0,0.0,0.0,0.5235987755982984
1666091944440888942,0.55735182762146,0.0,0.0,0.0,0.0,0.5235987755982984
1666091944490680523,0.55735182762146,0.0,0.0,0.0,0.0,0.5235987755982984
1666091944541070008,0.55735182762146,0.0,0.0,0.0,0.0,0.5235987755982984
1666091944590602409,0.5413147211074828,0.0,0.0,0.0,0.0,0.5235987755982984
1666091944641208217,0.5286309719085693,0.0,0.0,0.0,0.0,0.5235987755982984
1666091944690609660,0.5286309719085693,0.0,0.0,0.0,0.0,0.5235987755982984
1666091944740807960,0.5436309719085693,0.0,0.0,0.0,0.0,0.5235987755982984
1666091944792555577,0.5586309719085694,0.0,0.0,0.0,0.0,0.5235987755982984
1666091944840843637,0.40863097190856934,0.0,0.0,0.0,0.0,0.3830053959089973
1666091944890664514,0.2586309719085693,0.0,0.0,0.0,0.0,0.24241201621969624
1666091944941007420,0.27363097190856933,0.0,0.0,0.0,0.0,0.26645766205563093
1666091944990708019,0.28863097190856934,0.0,0.0,0.0,0.0,0.29050330789156564
1666091945041767563,0.13863097190856932,0.0,0.0,0.0,0.0,0.1395302647160799
1666091945090632259,0.15363097190856934,0.0,0.0,0.0,0.0,0.14937865961119834
1666091945141162528,0.16863097190856935,0.0,0.0,0.0,0.0,0.17483666112958873
1666091945190697910,0.052875724505079755,0.0,0.0,0.0,0.0,0.2748366611295887
1666091945240823957,0.0,0.0,0.0,0.0,0.0,0.3205155618197407
1666091945291139960,0.0,0.0,0.0,0.0,0.0,0.3115118856109277
1666091945341356913,0.0,0.0,0.0,0.0,0.0,0.3115118856109277
1666091945390627149,0.0,0.0,0.0,0.0,0.0,0.3093819022311639
1666091945440902041,0.0,0.0,0.0,0.0,0.0,0.3093819022311639
1666091945490684669,0.0,0.0,0.0,0.0,0.0,0.3093819022311639
1666091945540999696,0.0,0.0,0.0,0.0,0.0,0.3006746444909093
1666091945592445069,0.0,0.0,0.0,0.0,0.0,0.26482514157740883
1666091945640694145,0.0,0.0,0.0,0.0,0.0,0.2553290261445097
1666091945690875057,0.0,0.0,0.0,0.0,0.0,0.24977543734264515
1666091945742040950,0.0,0.0,0.0,0.0,0.0,0.2446841403183328
1666091945790771350,0.0,0.0,0.0,0.0,0.0,0.2446841403183328
1666091945840711289,0.0,0.0,0.0,0.0,0.0,0.2446841403183328
1666091945891221336,0.0,0.0,0.0,0.0,0.0,0.24482803991358187
1666091945940686289,0.0,0.0,0.0,0.0,0.0,0.22999933098304282
1666091945990956699,0.0,0.0,0.0,0.0,0.0,0.2280793678292292
1666091946042514844,0.0,0.0,0.0,0.0,0.0,0.22474003651189794
1666091946090535766,0.0,0.0,0.0,0.0,0.0,0.22474003651189794
1666091946140795183,0.0,0.0,0.0,0.0,0.0,0.17453292519943245
1666091946190944933,0.0,0.0,0.0,0.0,0.0,0.17453292519943245
1666091946240832529,0.0,0.0,0.0,0.0,0.0,0.17453292519943245
1666091946291285402,0.0,0.0,0.0,0.0,0.0,0.17453292519943245
1666091946341185527,0.015,0.0,0.0,0.0,0.0,0.17453292519943245
1666091946391015949,0.03,0.0,0.0,0.0,0.0,0.17453292519943245
1666091946441392827,0.045,0.0,0.0,0.0,0.0,0.17453292519943245
1666091946491658216,0.06,0.0,0.0,0.0,0.0,0.17453292519943245
1666091946540828647,0.075,0.0,0.0,0.0,0.0,0.17453292519943245
1666091946590711862,0.09,0.0,0.0,0.0,0.0,0.17453292519943245
1666091946642148757,0.105,0.0,0.0,0.0,0.0,0.17453292519943245
1666091946690549593,0.12,0.0,0.0,0.0,0.0,0.17453292519943245
1666091946740782224,0.135,0.0,0.0,0.0,0.0,0.17453292519943245
1666091946790887957,0.15000000000000002,0.0,0.0,0.0,0.0,0.17453292519943245
1666091946840852081,0.16500000000000004,0.0,0.0,0.0,0.0,0.17453292519943245
1666091946891717114,0.18000000000000005,0.0,0.0,0.0,0.0,0.17453292519943245
1666091946940608363,0.19500000000000006,0.0,0.0,0.0,0.0,0.1642372029659968
1666091946991218898,0.21000000000000008,0.0,0.0,0.0,0.0,0.15394148073256117
1666091947040826379,0.2250000000000001,0.0,0.0,0.0,0.0,0.1434558785373427
1666091947090838045,0.2400000000000001,0.0,0.0,0.0,0.0,0.13293017586968597
1666091947140685037,0.2550000000000001,0.0,0.0,0.0,0.0,0.12240447320202923
1666091947190780369,0.27000000000000013,0.0,0.0,0.0,0.0,0.11187877053437248
1666091947242797559,0.28500000000000014,0.0,0.0,0.0,0.0,0.09305742480446863
1666091947290747070,0.30000000000000016,0.0,0.0,0.0,0.0,0.08664234782995861
1666091947342677812,0.31500000000000017,0.0,0.0,0.0,0.0,0.08022727085544859
1666091947391929775,0.16500000000000015,0.0,0.0,0.0,0.0,0.04202380854332999
1666091947440626922,0.015000000000000124,0.0,0.0,0.0,0.0,0.0038203462312113926
1666091947490829217,0.00658972533574588,0.0,0.0,0.0,0.0,-0.09617965376878862
1666091947541662724,0.0,0.0,0.0,0.0,0.0,-0.17453292519943345
1666091947590715157,0.0,0.0,0.0,0.0,0.0,-0.17453292519943345
1666091947640789992,0.0,0.0,0.0,0.0,0.0,-0.17453292519943345
1666091947691196842,0.0,0.0,0.0,0.0,0.0,-0.17453292519943345
1666091947741232912,0.0,0.0,0.0,0.0,0.0,-0.17453292519943345
1666091947791352259,0.0,0.0,0.0,0.0,0.0,-0.21159753660501696
1666091947842548981,0.0,0.0,0.0,0.0,0.0,-0.2246927466596846
1666091947891017902,0.0,0.0,0.0,0.0,0.0,-0.2300208073939692
1666091947941047475,0.0,0.0,0.0,0.0,0.0,-0.2300208073939692
1666091947990737999,0.0,0.0,0.0,0.0,0.0,-0.2300208073939692
1666091948041219279,0.0,0.0,0.0,0.0,0.0,-0.23769392257318706
1666091948091625341,0.0,0.0,0.0,0.0,0.0,-0.2369308429852049
1666091948141525742,0.0,0.0,0.0,0.0,0.0,-0.2369308429852049
1666091948191062004,0.0,0.0,0.0,0.0,0.0,-0.2369308429852049
1666091948240949770,0.0,0.0,0.0,0.0,0.0,-0.23713401328273911
1666091948290603029,0.0,0.0,0.0,0.0,0.0,-0.23713401328273911
1666091948340930048,0.0,0.0,0.0,0.0,0.0,-0.22442535567203367
1666091948390698010,0.0,0.0,0.0,0.0,0.0,-0.22442535567203367
1666091948440759524,0.0,0.0,0.0,0.0,0.0,-0.22442535567203367
1666091948490889935,0.0,0.0,0.0,0.0,0.0,-0.21189502774101354
1666091948541225666,0.0,0.0,0.0,0.0,0.0,-0.21189502774101354
1666091948590630211,0.0,0.0,0.0,0.0,0.0,-0.17453292519943345
1666091948641352366,0.0,0.0,0.0,0.0,0.0,-0.17453292519943345
1666091948690735632,0.0,0.0,0.0,0.0,0.0,-0.17453292519943345
1666091948741448738,0.0,0.0,0.0,0.0,0.0,-0.17453292519943345
1666091948794624091,0.0,0.0,0.0,0.0,0.0,-0.17453292519943345
1666091948841163400,0.0,0.0,0.0,0.0,0.0,-0.17453292519943345
1666091948891372814,0.0,0.0,0.0,0.0,0.0,-0.17453292519943345
1666091948940865805,0.0,0.0,0.0,0.0,0.0,-0.17453292519943345
1666091948990837783,0.0,0.0,0.0,0.0,0.0,-0.17453292519943345
1666091949041040358,0.0,0.0,0.0,0.0,0.0,-0.17453292519943345
1666091949091295163,0.0,0.0,0.0,0.0,0.0,-0.17453292519943345
1666091949140891787,0.0,0.0,0.0,0.0,0.0,-0.17453292519943345
1666091949191292429,0.0,0.0,0.0,0.0,0.0,-0.17453292519943345
1666091949240793276,0.0,0.0,0.0,0.0,0.0,-0.17453292519943345
1666091949290830406,0.0,0.0,0.0,0.0,0.0,-0.17453292519943345
1666091949340919019,0.0,0.0,0.0,0.0,0.0,-0.17453292519943345
1666091949391712438,0.0,0.0,0.0,0.0,0.0,-0.17453292519943345
1666091949446741767,0.0,0.0,0.0,0.0,0.0,-0.17453292519943345
1666091949490634017,0.0,0.0,0.0,0.0,0.0,-0.17453292519943345
1666091949541096396,0.0,0.0,0.0,0.0,0.0,-0.17453292519943345
1666091949591593179,0.0,0.0,0.0,0.0,0.0,-0.17453292519943345
1666091949640823179,0.0,0.0,0.0,0.0,0.0,-0.17453292519943345
1666091949691805068,0.0,0.0,0.0,0.0,0.0,-0.17453292519943345
1666091949740873470,0.0,0.0,0.0,0.0,0.0,-0.17453292519943345
1666091949790857958,0.0,0.0,0.0,0.0,0.0,-0.17453292519943345
1666091949840602536,0.0,0.0,0.0,0.0,0.0,-0.17453292519943345
1666091949892445142,0.0,0.0,0.0,0.0,0.0,-0.17453292519943345
1666091949940773821,0.0,0.0,0.0,0.0,0.0,-0.17453292519943345
1666091949990704730,0.0,0.0,0.0,0.0,0.0,-0.17453292519943345
1666091950041083209,0.0,0.0,0.0,0.0,0.0,-0.17453292519943345
1666091950091249504,0.0,0.0,0.0,0.0,0.0,-0.17453292519943345
1666091950140652922,0.0,0.0,0.0,0.0,0.0,-0.17453292519943345
1666091950190875615,0.0,0.0,0.0,0.0,0.0,-0.17453292519943345
1666091950241289432,0.0,0.0,0.0,0.0,0.0,-0.17453292519943345
1666091950290888450,0.0,0.0,0.0,0.0,0.0,-0.17453292519943345
1666091950341223053,0.0,0.0,0.0,0.0,0.0,-0.17453292519943345
1666091950390657201,0.0,0.0,0.0,0.0,0.0,-0.17453292519943345
1666091950440632722,0.0,0.0,0.0,0.0,0.0,-4.996003610813204e-16
1666091950490713240,0.0,0.0,0.0,0.0,0.0,-4.996003610813204e-16
1666091950541322019,0.0,0.0,0.0,0.0,0.0,-4.996003610813204e-16
1666091950590756519,0.0,0.0,0.0,0.0,0.0,-4.996003610813204e-16
1666091950640805802,0.0,0.0,0.0,0.0,0.0,-4.996003610813204e-16
1666091950691155957,0.0,0.0,0.0,0.0,0.0,-4.996003610813204e-16
1666091950740615871,0.0,0.0,0.0,0.0,0.0,0.0999999999999995
1666091950790888607,0.0,0.0,0.0,0.0,0.0,0.1999999999999995
1666091950841129813,0.0,0.0,0.0,0.0,0.0,0.2999999999999995
1666091950896421679,0.0,0.0,0.0,0.0,0.0,0.3783790984465685
1666091950940929046,0.0,0.0,0.0,0.0,0.0,0.3783790984465685
1666091950990861567,0.0,0.0,0.0,0.0,0.0,0.4363701867116844
1666091951040623929,0.0,0.0,0.0,0.0,0.0,0.5235987755982984
1666091951090710529,0.0,0.0,0.0,0.0,0.0,0.5235987755982984
1666091951140762874,0.0,0.0,0.0,0.0,0.0,0.5235987755982984
1666091951191000483,0.0,0.0,0.0,0.0,0.0,0.5602597558573733
1666091951240712151,0.0,0.0,0.0,0.0,0.0,0.5826404316830298
1666091951290697246,0.0,0.0,0.0,0.0,0.0,0.5826404316830298
1666091951340968898,0.0,0.0,0.0,0.0,0.0,0.5826404316830298
1666091951390882931,0.0,0.0,0.0,0.0,0.0,0.5940775890973732
1666091951440872645,0.0,0.0,0.0,0.0,0.0,0.5777368776983924
1666091951490898820,0.0,0.0,0.0,0.0,0.0,0.5444398737357009
1666091951540871232,0.0,0.0,0.0,0.0,0.0,0.5253309339163811
1666091951590744377,0.0,0.0,0.0,0.0,0.0,0.4896987917339153
1666091951640752507,0.0,0.0,0.0,0.0,0.0,0.4896987917339153
1666091951690804619,0.0,0.0,0.0,0.0,0.0,0.4896987917339153
1666091951740624929,0.0,0.0,0.0,0.0,0.0,0.4075817718876074
1666091951790818001,0.0,0.0,0.0,0.0,0.0,0.33402149735771136
1666091951840724113,0.0,0.0,0.0,0.0,0.0,0.2734973801249264
1666091951890793676,0.0,0.0,0.0,0.0,0.0,0.2734973801249264
1666091951940626594,0.0,0.0,0.0,0.0,0.0,0.2734973801249264
1666091951990601647,0.015,0.0,0.0,0.0,0.0,0.27645733374739206
1666091952040668900,0.03,0.0,0.0,0.0,0.0,0.2794167154599551
1666091952091516158,0.045,0.0,0.0,0.0,0.0,0.2751921702146844
1666091952144705148,0.028647790573076887,0.0,0.0,0.0,0.0,0.1751921702146844
1666091952190645076,0.012295581146153773,0.0,0.0,0.0,0.0,0.07519217021468438
1666091952240587158,0.0,0.0,0.0,0.0,0.0,-4.996003610813204e-16
1666091952292930403,0.0,0.0,0.0,0.0,0.0,-4.996003610813204e-16
1666091952340625001,0.0,0.0,0.0,0.0,0.0,-0.1000000000000005
1666091952390606005,0.0,0.0,0.0,0.0,0.0,-0.2000000000000005
1666091952440820636,0.0,0.0,0.0,0.0,0.0,-0.3000000000000005
1666091952490991834,0.0,0.0,0.0,0.0,0.0,-0.40000000000000047
1666091952540575024,0.0,0.0,0.0,0.0,0.0,-0.44766299960880324
1666091952591319304,0.0,0.0,0.0,0.0,0.0,-0.44766299960880324
1666091952640948599,0.0,0.0,0.0,0.0,0.0,-0.5476629996088033
1666091952690795140,0.0,0.0,0.0,0.0,0.0,-0.6476629996088032
1666091952741181943,0.0,0.0,0.0,0.0,0.0,-0.7476629996088032
1666091952790596223,0.0,0.0,0.0,0.0,0.0,-0.7680987652994741
1666091952840708765,0.0,0.0,0.0,0.0,0.0,-0.8290274709899803
1666091952890914239,0.0,0.0,0.0,0.0,0.0,-0.8290274709899803
1666091952941534069,0.0,0.0,0.0,0.0,0.0,-0.8853999993879275
1666091952990617244,0.0,0.0,0.0,0.0,0.0,-0.8853999993879275
1666091953040559795,0.0,0.0,0.0,0.0,0.0,-0.8853999993879275
1666091953090661939,0.0,0.0,0.0,0.0,0.0,-0.9853999993879274
1666091953141245833,0.0,0.0,0.0,0.0,0.0,-0.9811891713192126
1666091953190656312,0.0,0.0,0.0,0.0,0.0,-0.9811891713192126
1666091953240848610,0.0,0.0,0.0,0.0,0.0,-0.9811891713192126
1666091953290684628,0.0,0.0,0.0,0.0,0.0,-1.0002636037969208
1666091953340847042,0.0,0.0,0.0,0.0,0.0,-0.9714408669948531
1666091953390632717,0.0,0.0,0.0,0.0,0.0,-0.9714408669948531
1666091953440761894,0.0,0.0,0.0,0.0,0.0,-0.9382699414592267
1666091953490626335,0.0,0.0,0.0,0.0,0.0,-0.9382699414592267
1666091953541960494,0.0,0.0,0.0,0.0,0.0,-0.8921614447156874
1666091953590710297,0.0,0.0,0.0,0.0,0.0,-0.8921614447156874
1666091953640648400,0.0,0.0,0.0,0.0,0.0,-0.8272351371398734
1666091953690600915,0.0,0.0,0.0,0.0,0.0,-0.8272351371398734
1666091953740562408,0.0,0.0,0.0,0.0,0.0,-0.8272351371398734
1666091953790994325,0.0,0.0,0.0,0.0,0.0,-0.7573539465181156
1666091953842246310,0.0,0.0,0.0,0.0,0.0,-0.7573539465181156
1666091953890570656,0.0,0.0,0.0,0.0,0.0,-0.6981317007977323
1666091953940826623,0.0,0.0,0.0,0.0,0.0,-0.5235987755982994
1666091953990758169,0.0,0.0,0.0,0.0,0.0,-0.5235987755982994
1666091954040731613,0.0,0.0,0.0,0.0,0.0,-0.4423847211813092
1666091954090560729,0.0,0.0,0.0,0.0,0.0,-0.4423847211813092
1666091954140669978,0.0,0.0,0.0,0.0,0.0,-0.37388008904835485
1666091954191327663,0.0,0.0,0.0,0.0,0.0,-0.30376102682001327
1666091954240733107,0.0,0.0,0.0,0.0,0.0,-0.30376102682001327
1666091954292902415,0.0,0.0,0.0,0.0,0.0,-0.17453292519943345
1666091954340768998,0.0,0.0,0.0,0.0,0.0,-0.17453292519943345
1666091954392734364,0.0,0.0,0.0,0.0,0.0,-0.17453292519943345
1666091954441133849,0.0,0.0,0.0,0.0,0.0,-0.17453292519943345
1666091954490600948,0.0,0.0,0.0,0.0,0.0,-4.996003610813204e-16
1666091954540870563,0.0,0.0,0.0,0.0,0.0,-4.996003610813204e-16
1666091954591507971,0.0,0.0,0.0,0.0,0.0,-4.996003610813204e-16
1666091954640730357,0.0,0.0,0.0,0.0,0.0,-4.996003610813204e-16
1666091954690631966,0.0,0.0,0.0,0.0,0.0,-4.996003610813204e-16
1666091954740587671,0.0,0.0,0.0,0.0,0.0,-4.996003610813204e-16
1666091954790580931,0.0,0.0,0.0,0.0,0.0,-4.996003610813204e-16
1666091954840706271,0.0,0.0,0.0,0.0,0.0,-4.996003610813204e-16
1666091954890760473,0.0,0.0,0.0,0.0,0.0,-4.996003610813204e-16
1666091954941701138,0.0,0.0,0.0,0.0,0.0,-4.996003610813204e-16
1666091954990687011,0.0,0.0,0.0,0.0,0.0,-4.996003610813204e-16
1666091955041655583,0.0,0.0,0.0,0.0,0.0,-4.996003610813204e-16
1666091955090957731,0.0,0.0,0.0,0.0,0.0,-4.996003610813204e-16
1666091955141096816,0.0,0.0,0.0,0.0,0.0,-4.996003610813204e-16
1666091955191512233,0.0,0.0,0.0,0.0,0.0,-4.996003610813204e-16
1666091955240642177,0.0,0.0,0.0,0.0,0.0,-4.996003610813204e-16
1666091955290719140,0.0,0.0,0.0,0.0,0.0,-4.996003610813204e-16
1666091955340609458,0.0,0.0,0.0,0.0,0.0,-4.996003610813204e-16
1666091955390744870,0.0,0.0,0.0,0.0,0.0,-4.996003610813204e-16
1666091955441241066,0.0,0.0,0.0,0.0,0.0,-4.996003610813204e-16
1666091955491063870,0.0,0.0,0.0,0.0,0.0,-4.996003610813204e-16
1666091955540917604,0.0,0.0,0.0,0.0,0.0,-4.996003610813204e-16
1666091955591513333,0.0,0.0,0.0,0.0,0.0,-4.996003610813204e-16
1666091955640860715,0.0,0.0,0.0,0.0,0.0,-4.996003610813204e-16
1666091955691391395,0.0,0.0,0.0,0.0,0.0,0.0999999999999995
1666091955740779322,0.0,0.0,0.0,0.0,0.0,0.17453292519943245
1666091955790777107,0.0,0.0,0.0,0.0,0.0,0.17453292519943245
1666091955840622050,0.0,0.0,0.0,0.0,0.0,0.17453292519943245
1666091955890769490,0.0,0.0,0.0,0.0,0.0,0.17453292519943245
1666091955941117476,0.0,0.0,0.0,0.0,0.0,0.17453292519943245
1666091955990639579,0.0,0.0,0.0,0.0,0.0,0.23150627245554997
1666091956040759544,0.0,0.0,0.0,0.0,0.0,0.2286869242567271
1666091956091153021,0.0,0.0,0.0,0.0,0.0,0.25348430915917136
1666091956140628538,0.0,0.0,0.0,0.0,0.0,0.25348430915917136
1666091956193771937,0.0,0.0,0.0,0.0,0.0,0.28069544684092673
